[{"index":0,"seed":"OYPTJHNSIPUJIVRRWYJIAEMJEOPYIRFMSHDIRFEAP9YQVNSQNIPGUFPKYPUFEMNNMDUCHINYSPLUYQS99","address":"9TETRBQOJYVAIRSCPWXHMXSRSG9DDMADNTBRKIDDONJSOTUVGVIVTKNEBALETTNLMFEPSWKOJZCB9WK9C","optimalPurchaseTarget":-100,"optimalPurchaseTargetScore":-100,"availablePurchaseTargetList":[],"optimalSaleTarget":-100,"optimalSaleTargetScore":-100,"latitute":"50.957960","longitute":"-0.682101","amountGenerated":"10","pricePrefered":"15","distancePrefered":"12","energyType":"3"},{"index":1,"seed":"AFJNKXPMXHCA9WUHYNCDQFXYW9GQLYBFNDNQEJATIXOEITIDANPUTXNIERWWNHBSCTBALCNDONVTTUDNY","address":"9DVZV9EUMYHSFFAJKDMWBYMJMKXFYEOBBHUHPNAGGNNBKLYJ9BIYYOTKRMIUVQIMETCQPVEGDMTODOUHC","optimalPurchaseTarget":-100,"optimalPurchaseTargetScore":-100,"availablePurchaseTargetList":[],"optimalSaleTarget":-100,"optimalSaleTargetScore":-100,"latitute":"51.114859","longitute":"-2.272275","amountGenerated":"6","pricePrefered":"15","distancePrefered":"13","energyType":"1"},{"index":2,"seed":"OEFVGQIQCKAXKKSYXIF9LEDFWJRBDAMATNEJLIBFHQTDWGVFLMGLQVKRXYLBS9MOOLGAUITUIBNONPXWJ","address":"CGKBPGCTXDLJGGFQCJHMHUSUPFLRSPITSASKKQJPKOWQRWJDQVZDOPILZYWTLHBCQSJAZ9XFKWVBVFPDD","optimalPurchaseTarget":-100,"optimalPurchaseTargetScore":-100,"availablePurchaseTargetList":[],"optimalSaleTarget":-100,"optimalSaleTargetScore":-100,"latitute":"51.021262","longitute":"-1.375477","amountGenerated":"7","pricePrefered":"15","distancePrefered":"11","energyType":"1"},{"index":3,"seed":"HNPPGPPURSRCKTTSXLFPRHATMHOKVFMKTAPGRYEXJLMWBWVQUTERWWLNWLJRHTJP9J9MSWJXE9DKQONPW","address":"TCYZZBOKLAZTAVJRVWPQSQDMHTRCJLQYPJQZIJUSKBJ9QTTMCSVZAGK9E9OYBGLTLW9WLPMQQGHDZLZPB","optimalPurchaseTarget":-100,"optimalPurchaseTargetScore":-100,"availablePurchaseTargetList":[],"optimalSaleTarget":-100,"optimalSaleTargetScore":-100,"latitute":"51.939407","longitute":"-1.038239","amountGenerated":"8","pricePrefered":"16","distancePrefered":"12","energyType":"1"},{"index":4,"seed":"TTWSE9ARNRCEHJGIKJPQFNOLJ9BTDVGGXLLNTOUMTJCBMKKQRLODMYKGGHMXXCKDJCY9SPYWQROCNKPHK","address":"HLVJYLRJYJBJQIZTU9X9IBLZQAQMKSJRVYQGBJBYDVI9KKGFGXWJQL9AOPKITNCXBYLTDXTRMPWAXIYKW","optimalPurchaseTarget":-100,"optimalPurchaseTargetScore":-100,"availablePurchaseTargetList":[],"optimalSaleTarget":-100,"optimalSaleTargetScore":-100,"latitute":"51.410365","longitute":"-0.357472","amountGenerated":"9","pricePrefered":"15","distancePrefered":"13","energyType":"4"},{"index":5,"seed":"YHDVWTYNN99RNDUEROPGJUFOR9WMEXVYYPUOVMCHYFFXXIASWQRMRTOKPOAIHKCQKEVJUQUTMPRYBTFEP","address":"FZC9ECNWL9R9LDSKTSNRQWKXBBXRNTNGDFT9JINCDEBDASANFG9RXNHCGCAEENSIVLOEFURYBTCYAVRSW","optimalPurchaseTarget":-100,"optimalPurchaseTargetScore":-100,"availablePurchaseTargetList":[],"optimalSaleTarget":-100,"optimalSaleTargetScore":-100,"latitute":"51.852938","longitute":"-0.307014","amountGenerated":"7","pricePrefered":"15","distancePrefered":"11","energyType":"2"},{"index":6,"seed":"HSPHQT9BDJLUUUHXXVQDWPRTLCYTWAQIIMOMJGQWVRIUSPQAIFTNWPCDFT9WWDPIBOATAAFKPFXRN9NMP","address":"9OFAPMUHMOFQJSRKBGQHHXCCFHLQLJHKZWMR9WMHVWXNCITVAEZKDHBHSNR9KUMCDGDGI9LTKXYYZVMEZ","optimalPurchaseTarget":-100,"optimalPurchaseTargetScore":-100,"availablePurchaseTargetList":[],"optimalSaleTarget":-100,"optimalSaleTargetScore":-100,"latitute":"52.377771","longitute":"-2.012920","amountGenerated":"9","pricePrefered":"15","distancePrefered":"14","energyType":"0"},{"index":7,"seed":"ME9NANDVJE9UNE99XWENTCDHQCQAQPVXUKNQMNWIYHNCTWIXKSSLVSJNCFHNRWTTPDAICBCFJLCMMSUBG","address":"YZGOSIIAZOYEGYEMTAHMABZMYPDR9WQUFUZBBESXIGYHJOYIYAKJCAIO9FFSZREPYHNAVIM9URABQQIPX","optimalPurchaseTarget":-100,"optimalPurchaseTargetScore":-100,"availablePurchaseTargetList":[],"optimalSaleTarget":-100,"optimalSaleTargetScore":-100,"latitute":"51.203994","longitute":"-1.332169","amountGenerated":"9","pricePrefered":"15","distancePrefered":"14","energyType":"0"},{"index":8,"seed":"TTHS9VODEWQCCLUODLFCODHBGIKJSFIVQBFQXEOJDMFVHHETPBFEKXIIRXKKLFYLQGNTJHQSJIQBIFWA9","address":"LLZITOW9VYTGFNPULBDZYIKNUMORCVSOVNUNFJF99CFYSMLLCAIDHYKUQAJNETVZUOXBBZQKHCBLFGOFW","optimalPurchaseTarget":-100,"optimalPurchaseTargetScore":-100,"availablePurchaseTargetList":[],"optimalSaleTarget":-100,"optimalSaleTargetScore":-100,"latitute":"51.265990","longitute":"0.111543","amountGenerated":"6","pricePrefered":"15","distancePrefered":"14","energyType":"1"},{"index":9,"seed":"MUAVSWXXEXJCMIARRAED9SHIOGRMPDJVSFQTAOYUCMKEGEIHSAFBFFCCOWDIDJGUXEGHHVEHMVQD9QBCP","address":"ISBMUQZNZMYRPKUEGFOZWIWCDTFRSFZRDUBGOMQXCNAFMVVPTZGJPDHJJOAHDIXDJTKQQGDIPABFUGHBD","optimalPurchaseTarget":-100,"optimalPurchaseTargetScore":-100,"availablePurchaseTargetList":[],"optimalSaleTarget":-100,"optimalSaleTargetScore":-100,"latitute":"52.381104","longitute":"-1.999903","amountGenerated":"5","pricePrefered":"15","distancePrefered":"15","energyType":"2"},{"index":10,"seed":"DTRIUYKXAFAUSNXE9IDTBOVRGPUWHMSKQCXNMIUWHTRQRGVRTAOAWUPKLHVKGGH9CHTYCHWGPVPPVT9QJ","address":"RVFWMP9OKWFTJTYGRGVQIGLGIPZIQRJKDTRFRZLLZWAEVWCIDROPBEKOHR9LYSTTHMHFDNDPSHXO9YUFW","optimalPurchaseTarget":-100,"optimalPurchaseTargetScore":-100,"availablePurchaseTargetList":[],"optimalSaleTarget":-100,"optimalSaleTargetScore":-100,"latitute":"52.285965","longitute":"0.007225","amountGenerated":"6","pricePrefered":"16","distancePrefered":"15","energyType":"2"},{"index":11,"seed":"9DXQGCBVJTBFBUJADOPFPKJNQW9HCCBODUEHETMFOOSKFGIBXOTGOWKDKPDYLWDWAUDARIENBLJWCARUB","address":"COIYWOJCGUVQYBBYISZOOXFGXWLZHHWGYFDSPSQLEAIRBWQIXBMGAGBMKOVFMRCXXNSFFDRGKCTPYXURD","optimalPurchaseTarget":-100,"optimalPurchaseTargetScore":-100,"availablePurchaseTargetList":[],"optimalSaleTarget":-100,"optimalSaleTargetScore":-100,"latitute":"51.133702","longitute":"-0.433080","amountGenerated":"7","pricePrefered":"14","distancePrefered":"10","energyType":"2"},{"index":12,"seed":"QFDWHYFXEUJIQIUMDLFESBAYGBJJVGIAGREDRWB9QWWBQUSSSCYISVIMBSQXHFINPIYPRTGGAR9XRU9IV","address":"LQAZY9OLHLHNFPOAZZTWELIVQGQYBNZEWIFHAJXWUIUXJIVVYCPQSPCTWCKIXCGCN9WAKYEYVOWISWAZC","optimalPurchaseTarget":-100,"optimalPurchaseTargetScore":-100,"availablePurchaseTargetList":[],"optimalSaleTarget":-100,"optimalSaleTargetScore":-100,"latitute":"51.943291","longitute":"0.023873","amountGenerated":"5","pricePrefered":"15","distancePrefered":"10","energyType":"2"},{"index":13,"seed":"AQJ9CROEJUT99LS9OXGJAWSEMYKSEU9EBIORCOCOBLGVHFNRCPMSQBSWHH9MCUKNUHUQKDIIJTEKXMMYS","address":"XZIAAWMVILUAARKNBYHZIMLYVQEYZSOUOUPREJKFHSZOGPOQHIPKGOIXCUCSGBHPDA9JMIRXXDHZFZJZC","optimalPurchaseTarget":-100,"optimalPurchaseTargetScore":-100,"availablePurchaseTargetList":[],"optimalSaleTarget":-100,"optimalSaleTargetScore":-100,"latitute":"51.884962","longitute":"-2.353134","amountGenerated":"8","pricePrefered":"14","distancePrefered":"11","energyType":"2"},{"index":14,"seed":"ECVOFNHATTSXLTFOIXP9GAHQHPUBLBNDASVWINMCUWXWIDHYNQESHSASQEG9AJPSFXIERIUSVA9MFCMHP","address":"JGEUQ9TXDISXSI9VSWVELYHBPCLJYYKQKWWHSUHIXESQJRCPGDVCBQEWIJYIKGUKAJEBIAYMPTBACCSJ9","optimalPurchaseTarget":-100,"optimalPurchaseTargetScore":-100,"availablePurchaseTargetList":[],"optimalSaleTarget":-100,"optimalSaleTargetScore":-100,"latitute":"52.020782","longitute":"-1.415617","amountGenerated":"6","pricePrefered":"16","distancePrefered":"13","energyType":"1"},{"index":15,"seed":"CVPMRHPFROXMTX9NJHMNYSIFKXKXUKPIHNBGXRNEYLUERQCMKFFRHDLOQNGLKHPRLBTDDEBIWRBOHBEBU","address":"IKLOXKXPADCIVSDEBSXEJMTOTSYCFXMPJWJVWYKVXQYWMUWWXIYWM9DOWDRYZPKYGGSCQEGZTWIIUJSWZ","optimalPurchaseTarget":-100,"optimalPurchaseTargetScore":-100,"availablePurchaseTargetList":[],"optimalSaleTarget":-100,"optimalSaleTargetScore":-100,"latitute":"52.224214","longitute":"-1.443581","amountGenerated":"6","pricePrefered":"14","distancePrefered":"14","energyType":"0"},{"index":16,"seed":"MHKXUPFVNYXIAHMBTOQNCYPOSWUTILQUNTVYRAVBSHDYHWGG9UPGDULGJDMBRYIQAUMRUJUFNFWXQPLTF","address":"NINMG9KBP9PIBGEZBAASASBZYJVQAVRKJBCYIFWFJYTF9X99IXXYTRGCKCREZ9QQKNGSLOIPGRQZDC9CD","optimalPurchaseTarget":-100,"optimalPurchaseTargetScore":-100,"availablePurchaseTargetList":[],"optimalSaleTarget":-100,"optimalSaleTargetScore":-100,"latitute":"51.567932","longitute":"-1.988426","amountGenerated":"9","pricePrefered":"15","distancePrefered":"12","energyType":"0"},{"index":17,"seed":"RCOIRAFUMQGNQUEKKTPFPRDFY9UHXFHFOHIUXDSSKNU9W9QXCAXYXQLCWPFSIRMHPGWQHIOAEUSOSONPM","address":"RHVFBFXQXHUNDAJFYXMBKG9HWOLFILDPUBEVPWYVVQOX9ZKSPIQCLAGSHEHNJ9FDHOYCFQCHKDCZTCNKB","optimalPurchaseTarget":-100,"optimalPurchaseTargetScore":-100,"availablePurchaseTargetList":[],"optimalSaleTarget":-100,"optimalSaleTargetScore":-100,"latitute":"51.924554","longitute":"-1.708704","amountGenerated":"10","pricePrefered":"14","distancePrefered":"14","energyType":"2"},{"index":18,"seed":"ECJMJSKORU9CDMTEKCN9EGVXW9SMSJJCBHVBBACRUGIYJRJDDTQJ9RFRTMCB9LWUUWIMIYNVYRVBLXRGU","address":"WYVC9EZVGSRWGEC9OH9I9UQJOSBGGAWYNQRSKBTIHBBNJEDOURCZNKLIEQHKYZRMFLHXNDFUFMSCGRWEC","optimalPurchaseTarget":-100,"optimalPurchaseTargetScore":-100,"availablePurchaseTargetList":[],"optimalSaleTarget":-100,"optimalSaleTargetScore":-100,"latitute":"51.110041","longitute":"-2.234829","amountGenerated":"7","pricePrefered":"16","distancePrefered":"14","energyType":"3"},{"index":19,"seed":"WX9UPSSAM9MCTKFVMPDGUANCTVSX9UXPDTNBKHWWVECBPUC9AXLHNN9TAUMPCLQWVUWSCPQKAHUAJBRHV","address":"BAWYUZQ9HXWILCTLRYNPR9PMHSPGFPQBDWWACDHWIUE9LCOQZGTSGCGYLLCECGYIHQWZJRMUZHGS9OORB","optimalPurchaseTarget":-100,"optimalPurchaseTargetScore":-100,"availablePurchaseTargetList":[],"optimalSaleTarget":-100,"optimalSaleTargetScore":-100,"latitute":"51.159505","longitute":"-1.271422","amountGenerated":"9","pricePrefered":"16","distancePrefered":"13","energyType":"2"},{"index":20,"seed":"JGMEKACTQVPALYMGAGBHWHCBOR9ERLGPFIKIEUMQESTXRLGLYDB9NIGTOFGCROINVJSSYCEYMSGKTFYDA","address":"CLJXQUPJKEHAASEOEJNCMVFHUSDWPSVV9INOYN9MPBBFUZHOOY9FWZWGMDGZFKAD9VHZFDOANQGGSTK9D","optimalPurchaseTarget":-100,"optimalPurchaseTargetScore":-100,"availablePurchaseTargetList":[],"optimalSaleTarget":-100,"optimalSaleTargetScore":-100,"latitute":"51.293962","longitute":"-1.516186","amountGenerated":"9","pricePrefered":"15","distancePrefered":"10","energyType":"4"},{"index":21,"seed":"DJDUMALUDV99JPUBIPKHJNVBY9BUFEEOHTETHAQEKPOFKDXFEFUPR9JOABPERHVXIQPBFJYLAW9QPWYTC","address":"T9KEBLLMPDESNDBPZBXQKECTRFIDMJQAVJJKQQQDEQHQFGWJDN99E9AVL9KGERTDZCYTBKZCXGJFQSTXX","optimalPurchaseTarget":-100,"optimalPurchaseTargetScore":-100,"availablePurchaseTargetList":[],"optimalSaleTarget":-100,"optimalSaleTargetScore":-100,"latitute":"51.108246","longitute":"-0.087409","amountGenerated":"5","pricePrefered":"16","distancePrefered":"13","energyType":"1"},{"index":22,"seed":"AIOQNARWYAOJCTODYPVGMMNQHYSP9YEP9RWLDYIKMMNCIFOPJJIUUNYPTGCFMKASENUE9SFSMNFEFXGPE","address":"T9DXTBVSFZKBAE9MNHGNNLEQNLFFUH9NARFXFFWAPLZQYRNRHYM9VYGYOHZHSHTSUIRJG9ICWHEXNKHLC","optimalPurchaseTarget":-100,"optimalPurchaseTargetScore":-100,"availablePurchaseTargetList":[],"optimalSaleTarget":-100,"optimalSaleTargetScore":-100,"latitute":"51.007869","longitute":"-1.962436","amountGenerated":"7","pricePrefered":"15","distancePrefered":"12","energyType":"0"},{"index":23,"seed":"NBDXJM9ELFMGBQDDHIDMJAAGPLMBJGDMBKBCDOWBOVHSXLXACSTDTWMQ9PQQOGMXXADXCUCNHLWROYGUO","address":"KKVVFEVHBABDRXMYBUXOCACPGPXU9BZZILRMIJLHFAQJKWIZMEAKYZMILWSVNVMNPEVGPNUQOYRBIEFQX","optimalPurchaseTarget":-100,"optimalPurchaseTargetScore":-100,"availablePurchaseTargetList":[],"optimalSaleTarget":-100,"optimalSaleTargetScore":-100,"latitute":"51.609779","longitute":"-1.599338","amountGenerated":"6","pricePrefered":"14","distancePrefered":"12","energyType":"4"},{"index":24,"seed":"ICSDJDNLAODAXKFWDHLBRYEUGVRORCBTGOVOBLQGARPULUFNAQLBWWOE9SBWENURQLTAODHOFO9RCTJKT","address":"CZDUQDAOWHOFRCZTAGEZFKMXUXZKGIRHY9JPPT9KBEOPPZSEGSKGYPNSJHKWIUAYPKJEECBFUEGMAMUFW","optimalPurchaseTarget":-100,"optimalPurchaseTargetScore":-100,"availablePurchaseTargetList":[],"optimalSaleTarget":-100,"optimalSaleTargetScore":-100,"latitute":"51.260062","longitute":"-1.526471","amountGenerated":"8","pricePrefered":"15","distancePrefered":"13","energyType":"4"},{"index":25,"seed":"X9LIAXURUGC9XKOBBJUIWPGRKYYJFFKRVFCMO9PJDUDVL9FGDXDCVXLHDLLPMNNLFMTIPJXWJ9CURDYLV","address":"FZZEYTCWWSUUVVYNL9MBTMJNNJRBGYGELOMEKHDDANDSYNQQUOSRUTLVIXFZVFLTKWTIFQBIGQOULOR9A","optimalPurchaseTarget":-100,"optimalPurchaseTargetScore":-100,"availablePurchaseTargetList":[],"optimalSaleTarget":-100,"optimalSaleTargetScore":-100,"latitute":"51.262861","longitute":"0.003825","amountGenerated":"7","pricePrefered":"15","distancePrefered":"11","energyType":"4"},{"index":26,"seed":"VDJYVIRYHLKQHTBO9FPOF9FSFMGYU9YHPILLNSQDLLIHLAHIII9GTVJGXXWQVFLUOYTHUKYBCBYNCOLML","address":"VRWAC9NGAJQCHYKZLRXDRLNXPOATDAZUVKLJXWSEFLIEXTECZKXEFWW9MBLJOETXXXZSFDDQYDVRRQCTW","optimalPurchaseTarget":-100,"optimalPurchaseTargetScore":-100,"availablePurchaseTargetList":[],"optimalSaleTarget":-100,"optimalSaleTargetScore":-100,"latitute":"51.993081","longitute":"0.093895","amountGenerated":"7","pricePrefered":"14","distancePrefered":"13","energyType":"2"},{"index":27,"seed":"SLVPYSFUFLW9OUBPTMEQLXCIALEUGNJTRYHKNKKJYHCAERWTITCXEGQGHUPAACPIAGBAECGAGSWQMRORD","address":"JLUAADREMFTR9LWIQ9GSYXTT9WAFKWHIXNECIH9YKTLJXWUMPGCKWHOXMHTEWXYCBT9LWHONYVAYHZSN9","optimalPurchaseTarget":-100,"optimalPurchaseTargetScore":-100,"availablePurchaseTargetList":[],"optimalSaleTarget":-100,"optimalSaleTargetScore":-100,"latitute":"51.328032","longitute":"-0.481186","amountGenerated":"5","pricePrefered":"16","distancePrefered":"11","energyType":"1"},{"index":28,"seed":"IKSFMGGGVIEKGHC9BQ9JFFSNUBKHSICKJMHYEQOXIJIWEFQGRFAKNTQGPJEQWVFLETTRULTXXQ9BRBTXN","address":"DBUYAUESXNVVGMRBIZNESKMARXDDQPPHRBFXMCGHHKM9NACMFHWLNDBPVQNNHSBBBPDTZGDJBBW99OCUW","optimalPurchaseTarget":-100,"optimalPurchaseTargetScore":-100,"availablePurchaseTargetList":[],"optimalSaleTarget":-100,"optimalSaleTargetScore":-100,"latitute":"51.042974","longitute":"-0.540353","amountGenerated":"9","pricePrefered":"16","distancePrefered":"15","energyType":"3"},{"index":29,"seed":"QTK9R9THXAQDCPOEAYNVULY9MXXHU9JOQFXWOQ9TCKRRMHUSBHDD9YYNNCQPWWDWOMKLGGSEDQDXDFETD","address":"LKGUMGOWDJRPDHAUGOEQRXBRYVNNABGFHWVOHBHQRVHRQJIMIHIQKLKPJBUPZOQNRWBQW9SLAIALRUHYW","optimalPurchaseTarget":-100,"optimalPurchaseTargetScore":-100,"availablePurchaseTargetList":[],"optimalSaleTarget":-100,"optimalSaleTargetScore":-100,"latitute":"51.956268","longitute":"-1.764497","amountGenerated":"8","pricePrefered":"14","distancePrefered":"11","energyType":"1"},{"index":30,"seed":"CGG9QAXNI9QTNRMENXJMTSKWWCOL9KMTOQHSJMRJY9SSHMQPBGRTCEXKLOPVQR9AUKERPTRATTFSLTGMI","address":"DUSFRQKLBIMAFRJN9KJSWFWKOYPJZYPOZMNCCSHYUNCSKTJIVIGFAIGOZNQTVXDAU9CTJIMSPFUBENVNZ","optimalPurchaseTarget":-100,"optimalPurchaseTargetScore":-100,"availablePurchaseTargetList":[],"optimalSaleTarget":-100,"optimalSaleTargetScore":-100,"latitute":"50.974239","longitute":"-0.012350","amountGenerated":"9","pricePrefered":"14","distancePrefered":"11","energyType":"2"},{"index":31,"seed":"K9UYXHYKGFNX9WHKCV9OMVPFIMFPCYAAUMP9LSTOYEBRTKYIXDODJUARGYVYOG9KBXTIYFXDGWJXQWAIU","address":"H9BAMHYOHLKENQLJJFAMMHWHAAHYJGBJETLOPGPIEO9OYIVAXSVFMYDWYVQOWCFAAAMYWYPV9VSAX9WSW","optimalPurchaseTarget":-100,"optimalPurchaseTargetScore":-100,"availablePurchaseTargetList":[],"optimalSaleTarget":-100,"optimalSaleTargetScore":-100,"latitute":"51.830206","longitute":"-2.299565","amountGenerated":"7","pricePrefered":"16","distancePrefered":"13","energyType":"1"},{"index":32,"seed":"DIMNETTKYPGDQDUAWOYUNYJCPHQHNLIMRTMJJWDLFS9MSQMWMNMMXCPGBGMXUBDHEJTEDKR9LHTVRKJGW","address":"ZNDBDS9EARGTWEP9LUZICNISSSFOXPVVPPFKJTXFOFDIGVVHZTIUMUYPOMEOXBESCJI9GOOQJWJRNNWA9","optimalPurchaseTarget":-100,"optimalPurchaseTargetScore":-100,"availablePurchaseTargetList":[],"optimalSaleTarget":-100,"optimalSaleTargetScore":-100,"latitute":"52.303740","longitute":"-1.961675","amountGenerated":"5","pricePrefered":"15","distancePrefered":"11","energyType":"3"},{"index":33,"seed":"WHDNEBWYFL9GJDFGWCBNNFBDCMSOTOPOQKHF9OWHRWF9XNESCELPW99POYCGLUW9EVNQLTVQIHM9PEYSA","address":"ADYRBUZSJYXOVXGDPFHJOUAXYABQBSQYO9WAKXOEXHOFEQTZPDIMSMFTUWWPJLBYXUFGBSIZTTEWSIHMC","optimalPurchaseTarget":-100,"optimalPurchaseTargetScore":-100,"availablePurchaseTargetList":[],"optimalSaleTarget":-100,"optimalSaleTargetScore":-100,"latitute":"52.394259","longitute":"-0.894818","amountGenerated":"6","pricePrefered":"15","distancePrefered":"12","energyType":"3"},{"index":34,"seed":"QSUUJFETOXICOCAGLOMVHT9FJTMQNVDKV9QNLRWIRWSFALYDQDSQVQKSMDESXXXOJYRFOFCWBBOFDTWYJ","address":"DAOCPUDSHWWZNYYZKCWQKCGBUOKOLODJOHKG9DAZPDWQVTJVIWRUSRCKAGPCZXLLERWFCJJGJPG9XMNZD","optimalPurchaseTarget":-100,"optimalPurchaseTargetScore":-100,"availablePurchaseTargetList":[],"optimalSaleTarget":-100,"optimalSaleTargetScore":-100,"latitute":"52.217861","longitute":"-1.068924","amountGenerated":"10","pricePrefered":"16","distancePrefered":"12","energyType":"1"},{"index":35,"seed":"WAF9NWOQCLOFEPQCKHNOFBU9DYEVGJDQQXJNJHWI9M9LDSCDODENMGXACCTDDFEWUGACBEHDMPGJEKWRH","address":"QVXXGCFFG9NPSTFZRZJCQ9KECESMGNVUKXBOEDJAXBGMKFSUIYWZFNKRWVGPUEUECYEKABCATOODMZYQY","optimalPurchaseTarget":-100,"optimalPurchaseTargetScore":-100,"availablePurchaseTargetList":[],"optimalSaleTarget":-100,"optimalSaleTargetScore":-100,"latitute":"51.323503","longitute":"-0.723522","amountGenerated":"7","pricePrefered":"15","distancePrefered":"10","energyType":"2"},{"index":36,"seed":"JTNIBQETQPFBOYHWKPVEOLCMGQYIABFAEKLBPAKVMQHHDIW9GPACPIPVXC9TIINICXNMFRAAXEUMNSIAS","address":"DKFVOHO9WMHSZFJSBMBNJYWHBNQOMDU9RVMGXSACEILSOJYEPCIOFWDKNFZVQGYHZXJXZEQZRCZYKN9TW","optimalPurchaseTarget":-100,"optimalPurchaseTargetScore":-100,"availablePurchaseTargetList":[],"optimalSaleTarget":-100,"optimalSaleTargetScore":-100,"latitute":"51.640520","longitute":"-0.062418","amountGenerated":"6","pricePrefered":"15","distancePrefered":"14","energyType":"2"},{"index":37,"seed":"IRPVUXLLQTOLXRYYFNFUPROBJSVSGV99HNMOSWASXXTOHMWYUWRFRRRSCVXOHHPUMBVKJIPXYHEEYDSEJ","address":"AAQBEGRIEFC9MWNGVSZYYRZSWGHSURSZRAUZJVUBYJXHPTQIVVDLQPXUURQDHHQLDIJKUAWWFIWTWHCIC","optimalPurchaseTarget":-100,"optimalPurchaseTargetScore":-100,"availablePurchaseTargetList":[],"optimalSaleTarget":-100,"optimalSaleTargetScore":-100,"latitute":"51.729696","longitute":"-1.699650","amountGenerated":"7","pricePrefered":"15","distancePrefered":"12","energyType":"1"},{"index":38,"seed":"SCIDEBROVHYGIDKVYCRDQNRE9LKEYWUQIRRFGQANG9XULVFVWJWNEHPKTXMQUVN9R9HJJPEFLJKWPCQSA","address":"BBWMGFAPWAJAJVCZJXAAJWPMWEAVGQXPQJKVDBSMKSAAYGDURDMRAQ9YCAMTVGWRIZVYBDVVHIQJVMICW","optimalPurchaseTarget":-100,"optimalPurchaseTargetScore":-100,"availablePurchaseTargetList":[],"optimalSaleTarget":-100,"optimalSaleTargetScore":-100,"latitute":"51.698220","longitute":"-1.114602","amountGenerated":"7","pricePrefered":"16","distancePrefered":"14","energyType":"3"},{"index":39,"seed":"CJQDBWJWFXQKBDFXHWBNFUBRRCWBAAXYMKEIWYRPXFSPDWTPXUFQHVXBNBOGMQQMQ9QKFBBPYXNRUQSBG","address":"N9OFZVZGSPBKPAJGYATUMJ9ATAHDUZBKHMGLUFXBCOXDRZHTPGSUAOCQUZOJOQXKDFIDTKSJSOCTEANIB","optimalPurchaseTarget":-100,"optimalPurchaseTargetScore":-100,"availablePurchaseTargetList":[],"optimalSaleTarget":-100,"optimalSaleTargetScore":-100,"latitute":"51.952071","longitute":"-0.989379","amountGenerated":"9","pricePrefered":"14","distancePrefered":"15","energyType":"1"},{"index":40,"seed":"9PQQAWOHSHUBA9MIVMEC9RTY9UXFGOWJGIKFELEEBQBBTLNLJKNLVAVTVFBQVKWASJJHKSXLNGNDDBHBG","address":"JBYVMKBNUAST9IPPWBLMAAXWOB9LNFMHUITKNRV9YDN9ATBDIKOPASPEIDKBXSWZWMWRVNZ9OVGOEDSJW","optimalPurchaseTarget":-100,"optimalPurchaseTargetScore":-100,"availablePurchaseTargetList":[],"optimalSaleTarget":-100,"optimalSaleTargetScore":-100,"latitute":"51.953006","longitute":"-0.622236","amountGenerated":"9","pricePrefered":"14","distancePrefered":"10","energyType":"0"},{"index":41,"seed":"PDNNSBQEHSECJDWRYHMMMCLYHNHDPKYK9QYXQWGUHFGYERWTDOTOGFANQXXFSSDWIOLLUNKIPUDUEOPOA","address":"SF9EZXKIBVHYWXLNGNDCQ9UDNULCWRLRQTGNUULQXGJVBOCOI9ESLMVCIRXAPUSRZGMEVSIJBCLDMKQKY","optimalPurchaseTarget":-100,"optimalPurchaseTargetScore":-100,"availablePurchaseTargetList":[],"optimalSaleTarget":-100,"optimalSaleTargetScore":-100,"latitute":"52.379687","longitute":"-0.334401","amountGenerated":"8","pricePrefered":"14","distancePrefered":"11","energyType":"1"},{"index":42,"seed":"DCNQJ9JVDNYVBWTLDFYEAR9XYWHXQMVMQIPANFFAXNRWBYCHVSIJEDAOTWAVTSIBPMEAFDEYBIHEDKNBG","address":"HPCGASAUTFWCTBBMRMVOGUZA9KMKISSXTUEUERFILSWMSNTWWLORCRZIJMCICAUPVPHHBEFLJOGVMDISW","optimalPurchaseTarget":-100,"optimalPurchaseTargetScore":-100,"availablePurchaseTargetList":[],"optimalSaleTarget":-100,"optimalSaleTargetScore":-100,"latitute":"51.359339","longitute":"-1.792401","amountGenerated":"8","pricePrefered":"15","distancePrefered":"13","energyType":"1"},{"index":43,"seed":"HCJTDIPDEVSCMUILALCRXNJUTEYPHUVTKFFIJIDPDISDKNJCXISF9YIDBRJYG9KWQAXSSWIBECV9B9VST","address":"JTUPWLESIQWI9RBRJOLRSYDJVYNWDZIDBKUWXEJDAOEWIJVRHGXGYGIZAUVBCBRKNFCAXWETGYMUTJXHD","optimalPurchaseTarget":-100,"optimalPurchaseTargetScore":-100,"availablePurchaseTargetList":[],"optimalSaleTarget":-100,"optimalSaleTargetScore":-100,"latitute":"51.251757","longitute":"-0.751505","amountGenerated":"7","pricePrefered":"15","distancePrefered":"13","energyType":"2"},{"index":44,"seed":"Y9HYCTXMS9PP9EQIVHVXUABRIJQMIKNJMQRSHDFUJRLTRPFGHDKWQT9WHVEGWAWJUXXXUTBWFKPGXMMAG","address":"UCMWXGTEYZPVKL9JS9CNXFTXQDBGTX9GEYQHLSPCSDWJGBYAGOZPMQ9DZAMUHHEFCWNK99GRFRRX9NRMD","optimalPurchaseTarget":-100,"optimalPurchaseTargetScore":-100,"availablePurchaseTargetList":[],"optimalSaleTarget":-100,"optimalSaleTargetScore":-100,"latitute":"52.215072","longitute":"0.180887","amountGenerated":"8","pricePrefered":"15","distancePrefered":"14","energyType":"4"},{"index":45,"seed":"EDOKLVUYDKDFOXE9VBIPOT9CBOWGBJXDTTRFVCGIMLHSY9JETCTRQQQMKSXJU9VHPIQ9IJ9IRRIVGVPIF","address":"FAMGREZASL9AMPJCWDFWFBHMUEQCVZYKZAKTWONAMPXKCASOX9MZTCIUQSCIFUHVUW9EDDNFKAVZOO9QX","optimalPurchaseTarget":-100,"optimalPurchaseTargetScore":-100,"availablePurchaseTargetList":[],"optimalSaleTarget":-100,"optimalSaleTargetScore":-100,"latitute":"51.699915","longitute":"0.252134","amountGenerated":"9","pricePrefered":"16","distancePrefered":"13","energyType":"2"},{"index":46,"seed":"NJWXHWJMGEYSL9DFNAMTDHVDPLJMPGAHHSBCHNHUAHAXJISRJOYKXWIO9MTHOMJMPQ9WNES9GPX9JULQG","address":"HO9QVEBBJTWKDIWCUXQWYV9AZSDXAYOWNAJMSBAO9XYXQDCQANXJQFMQTLBPABDUI9LNFXBMXEBFSSEGA","optimalPurchaseTarget":-100,"optimalPurchaseTargetScore":-100,"availablePurchaseTargetList":[],"optimalSaleTarget":-100,"optimalSaleTargetScore":-100,"latitute":"52.070752","longitute":"-0.236082","amountGenerated":"10","pricePrefered":"15","distancePrefered":"13","energyType":"0"},{"index":47,"seed":"FYPUSLKFPRVGMQUNYCJRAGETMOQOKQS9PUJYNOUID9SQLOOQPVDTOFCJFWCNECRABMCDIWOVWGJRSAPXM","address":"IKPCDLT9JUO9ZWICFBPEKRCML9BGMSYDORUX99XNKAREDMRLXWR9CQ9IIC9JXEWWJLYTHYNADMYHDSUOB","optimalPurchaseTarget":-100,"optimalPurchaseTargetScore":-100,"availablePurchaseTargetList":[],"optimalSaleTarget":-100,"optimalSaleTargetScore":-100,"latitute":"52.213579","longitute":"0.142749","amountGenerated":"6","pricePrefered":"14","distancePrefered":"15","energyType":"1"},{"index":48,"seed":"UXA9HIVKNENWTNOSLYRRXEVJGGHVWQBPSEFDUBWSHDMQYHRULVVSNIVYQQUWFQFENDKEGJWAKITONCJTU","address":"ETBBI9BXECHKZ9FQXZYWGYWJILDRUEQWBQYVSWYKZSKIGXHLMCVUMKBQAK9HTJMQXOYRETKCPFSXYCEGW","optimalPurchaseTarget":-100,"optimalPurchaseTargetScore":-100,"availablePurchaseTargetList":[],"optimalSaleTarget":-100,"optimalSaleTargetScore":-100,"latitute":"52.388817","longitute":"-0.862102","amountGenerated":"8","pricePrefered":"15","distancePrefered":"11","energyType":"1"},{"index":49,"seed":"NHACOWYACXBFSOSYXCVFTHAIYXFGYAQSQYCPDKHIVFLCXIQFWKQGWORTWAUGYASWCCXXYMTLVOASGYXXX","address":"CEDJVESZXEEPBLSU9SAPGPRSSKVCPPZ9DFEQAFWZCHD9XHMKRVC9ATHMUMSULFHPKXXLHQUV9XXEQMVKD","optimalPurchaseTarget":-100,"optimalPurchaseTargetScore":-100,"availablePurchaseTargetList":[],"optimalSaleTarget":-100,"optimalSaleTargetScore":-100,"latitute":"52.191685","longitute":"0.207489","amountGenerated":"10","pricePrefered":"14","distancePrefered":"11","energyType":"1"},{"index":50,"seed":"AXIQTM9IYIOFLAFWFPCOUPDYWKMYDRCYSEFJJ99EAHMAGMIPQNTXLKPJGPTLOQOJKHXOBVOYTCXRDWXVR","address":"IBEGAYOZEEZGDYMPWEYLUDZCYISVXROGZXVNLVUMMNCESYSCIBDX9QPOTQGGQXWXFYKRESRIFOOFEXCFC","optimalPurchaseTarget":-100,"optimalPurchaseTargetScore":-100,"availablePurchaseTargetList":[],"optimalSaleTarget":-100,"optimalSaleTargetScore":-100,"latitute":"52.169958","longitute":"-0.286248","amountGenerated":"9","pricePrefered":"16","distancePrefered":"15","energyType":"3"},{"index":51,"seed":"TTSUY9IKYYHTYTOVLEYTU9KFPMPCNRPBQGUWPLAJYOCLNPWYLB99ICLTRUXRBMOKKDRYCYRGUHS9VEHL9","address":"YBIIVWPBLJYPV9OO9GDNHSHAKYOKPPYIXOKAVOCHEZKRGSMYDMKHPTBPLHLFKLYJXPQSUONWIIBSEGARA","optimalPurchaseTarget":-100,"optimalPurchaseTargetScore":-100,"availablePurchaseTargetList":[],"optimalSaleTarget":-100,"optimalSaleTargetScore":-100,"latitute":"51.591451","longitute":"-0.484510","amountGenerated":"7","pricePrefered":"16","distancePrefered":"13","energyType":"2"},{"index":52,"seed":"VMYKVWGEVJCOBWHXLUHBWPQVTFFMPRUXIDQIMGAGLMOGRYXGHFUJIITQHLGTWXEOSCCKOURRHQMQPCMPD","address":"9VSGZOMHBFALJCNKGEVXHBHEO9LIRSEUTVRXZGIRU9DLOMMBAPXC9HLQXIDNGPAMJLG9AJPMIOHYQJYSD","optimalPurchaseTarget":-100,"optimalPurchaseTargetScore":-100,"availablePurchaseTargetList":[],"optimalSaleTarget":-100,"optimalSaleTargetScore":-100,"latitute":"51.871300","longitute":"-0.612998","amountGenerated":"8","pricePrefered":"16","distancePrefered":"11","energyType":"3"},{"index":53,"seed":"HTJBVNSH9SWWWYNJLEKRAUXYLAH9CNNRYXY9OTLHOPBTUKCMQQL9KYMLNKWFDXXCUTLXWBPYEIGMWXHFJ","address":"XVNYTCTZFMXQAFDEMHBDRLJFTKYFHMJFUIIRU99MEWUGABXZWXUNWYSYSC9FGDHBRWTGPMDBABXEBQNWX","optimalPurchaseTarget":-100,"optimalPurchaseTargetScore":-100,"availablePurchaseTargetList":[],"optimalSaleTarget":-100,"optimalSaleTargetScore":-100,"latitute":"52.153820","longitute":"-0.944898","amountGenerated":"6","pricePrefered":"15","distancePrefered":"11","energyType":"3"},{"index":54,"seed":"MFGUD9GVGBYRNTXPVHWMVVYWSVPXGTWJXMMGIUXVU9SMISAAVTKHQEDVGAPMSBBHKAWIIEV9NFCQTUPTF","address":"WSTSDFNZFJGSDQJDWMFIWRDUXPPQHZPHMVPSSTZMLVTMSNAJVROUBAQYLAPL9EIUIJHOIXWYKVAGKM9KZ","optimalPurchaseTarget":-100,"optimalPurchaseTargetScore":-100,"availablePurchaseTargetList":[],"optimalSaleTarget":-100,"optimalSaleTargetScore":-100,"latitute":"51.983152","longitute":"-0.842448","amountGenerated":"6","pricePrefered":"16","distancePrefered":"12","energyType":"0"},{"index":55,"seed":"RLBBUQLMXPRUPQHOYQXUWIBCIQPOP9KWFLPYVGYSOACG9LJNGNDWXNAFXLNWEWFCXKR9VBBRPDQDBRBTH","address":"GCYSOWX9G9BCPQCVEPCNESUDQGWWOZGCEIGLTKBRAWHCBWILXQBZMAZJZSVNTUJJPEAI9XYZNYWTQCYCW","optimalPurchaseTarget":-100,"optimalPurchaseTargetScore":-100,"availablePurchaseTargetList":[],"optimalSaleTarget":-100,"optimalSaleTargetScore":-100,"latitute":"51.468637","longitute":"-0.246891","amountGenerated":"9","pricePrefered":"15","distancePrefered":"12","energyType":"3"},{"index":56,"seed":"USLRSOGHAAMCWTXCBOQFICERPGDDLHXNBBDISCY9MRQFGQ9AEYWSNXTXWWBHDHHQJJX9SCPLBCSPFXISV","address":"AFNDPTKOCKQLQOBNXUZHPPOBGPKWIFMKKZAXXCIXVIXDMBROJOSTVWXBERMSUOJSBDEQVSMHAGTPVFDJB","optimalPurchaseTarget":-100,"optimalPurchaseTargetScore":-100,"availablePurchaseTargetList":[],"optimalSaleTarget":-100,"optimalSaleTargetScore":-100,"latitute":"51.511330","longitute":"-1.019919","amountGenerated":"10","pricePrefered":"14","distancePrefered":"13","energyType":"2"},{"index":57,"seed":"RMFTNALDUBQTCUGYNTAVGPRFVPCC9ICGHEBOFCT9KVCEWWINDDJICNIRLMECJSGQCMMEGEOTOCIS9BATM","address":"HIRTSDFDZ9OOWF99CUAJYGBBFMUQTFOVIPISWOGRAXGFMFYZLZXSXBEYGMUFSKSSOBXWBABDEPBSRJB9W","optimalPurchaseTarget":-100,"optimalPurchaseTargetScore":-100,"availablePurchaseTargetList":[],"optimalSaleTarget":-100,"optimalSaleTargetScore":-100,"latitute":"51.469920","longitute":"-0.138335","amountGenerated":"9","pricePrefered":"14","distancePrefered":"12","energyType":"2"},{"index":58,"seed":"DPPWIEEXSYWXYAKCYKVOEWKCGG9W9XXCHJOALPMRUKWPLXPRRAOSHYUKCTKVYDAIR9CVVLINVAARXKMPC","address":"QHKCDIDOLDPDBRXQXUFTTVKWUETWWCSLCRFBW9OYUAEWAPMIKGQZSSHWSYGYXPUHQKFE9JBHPGRVEG9GC","optimalPurchaseTarget":-100,"optimalPurchaseTargetScore":-100,"availablePurchaseTargetList":[],"optimalSaleTarget":-100,"optimalSaleTargetScore":-100,"latitute":"51.033802","longitute":"-1.384018","amountGenerated":"6","pricePrefered":"16","distancePrefered":"11","energyType":"3"},{"index":59,"seed":"KVYJKLMRGEEQFMRGVQATPLLGBMSNOKLYLHWCVUSYVVFEJVKUYETAOVNPPUNJIIXMSPTTXXPCYRQNIOXIN","address":"GJPSDKEYQPMNNCKSGFZPUPBJS9OCZIPYSYULMGFNFTNMRVFHKDVVDXWIWQAKGZGGNUW9BJRYFFCBCUSXX","optimalPurchaseTarget":-100,"optimalPurchaseTargetScore":-100,"availablePurchaseTargetList":[],"optimalSaleTarget":-100,"optimalSaleTargetScore":-100,"latitute":"52.100256","longitute":"-1.263719","amountGenerated":"10","pricePrefered":"15","distancePrefered":"14","energyType":"2"},{"index":60,"seed":"UWVPSNCUTFOAYIAEEVFWARVYVWOG9EGIMTMBTUVKVOWYPJG9ECMMIQHOUGRDVYRAHCSYQNN9MJUGLUMCN","address":"YYAZGLRHGNDDRBUIQHWHMDTVJRMPLIBNCNJFH9NAITIJSDQXAHQGRHSTPZBOUSAAFDXTDBQUNWBWUXIN9","optimalPurchaseTarget":-100,"optimalPurchaseTargetScore":-100,"availablePurchaseTargetList":[],"optimalSaleTarget":-100,"optimalSaleTargetScore":-100,"latitute":"50.975299","longitute":"-1.029967","amountGenerated":"7","pricePrefered":"15","distancePrefered":"15","energyType":"1"},{"index":61,"seed":"ATSYSOETVUTNGMXBYGACECLHEDXWSWBLFHQQOKTKLEVKFENVGDCRXBJCXFVOUBTYCUGQNFFULOTERETTS","address":"UHTCLLVFHKMXKKDWVUF9AQFVJLPNOFEKMPDUCJGEPKWDIQDJVFENHHD9FKKQPIXPJUXRINSZABNEYDT9Y","optimalPurchaseTarget":-100,"optimalPurchaseTargetScore":-100,"availablePurchaseTargetList":[],"optimalSaleTarget":-100,"optimalSaleTargetScore":-100,"latitute":"51.179977","longitute":"-1.805347","amountGenerated":"6","pricePrefered":"16","distancePrefered":"11","energyType":"2"},{"index":62,"seed":"BNCYMBXF9FLQJTMSHAUPEQN9LDXKUUYNJVASYKDYWMDWHVVHK9G9WUTWDLFGLTWTPMWHMSGFVAHACL9ST","address":"EFJWD9TJZWLCINFYHAHCYKJLEVUQXMFEZFYOCKSYCGKOUW9AMJDOTU9QJNWFX9ZEOCRHMORPOMHAQBIC9","optimalPurchaseTarget":-100,"optimalPurchaseTargetScore":-100,"availablePurchaseTargetList":[],"optimalSaleTarget":-100,"optimalSaleTargetScore":-100,"latitute":"51.813445","longitute":"0.173608","amountGenerated":"10","pricePrefered":"14","distancePrefered":"12","energyType":"2"},{"index":63,"seed":"OPDXIEYIEDTEIFLRVTLIIEDFHVDEGWOTSYHYUVXJTTRULKKABHECQTNM9CFGQASTMMCVMQBABKOYJDWVX","address":"VKUKLVNLPSBLLRVTPPRGQXAIOKYYYENWJBPWCPMZYDEJJ9TAOPMXIWGZLXHU9TBZQBXAXFUFTBCKETPPC","optimalPurchaseTarget":-100,"optimalPurchaseTargetScore":-100,"availablePurchaseTargetList":[],"optimalSaleTarget":-100,"optimalSaleTargetScore":-100,"latitute":"52.224761","longitute":"-0.699964","amountGenerated":"7","pricePrefered":"14","distancePrefered":"14","energyType":"1"},{"index":64,"seed":"WBDKXHJIGG9SGXHHBNSJLGRLS9OTQPWIJWXATU9WTNOKFNJLYSRKWIAJGBVWYNDTKFKXCAEVBAISCYUQY","address":"SMFMOLYSNVJVUKYFGUNXRPVIYNJSZAPLLVNIQBZSTEAGKNCVMDTVOZFUZIEYEKQZGQIEDBJH9SVHQYYRC","optimalPurchaseTarget":-100,"optimalPurchaseTargetScore":-100,"availablePurchaseTargetList":[],"optimalSaleTarget":-100,"optimalSaleTargetScore":-100,"latitute":"51.366004","longitute":"-1.133866","amountGenerated":"7","pricePrefered":"14","distancePrefered":"15","energyType":"2"},{"index":65,"seed":"999XBUMMGESCGRNQRCMEVLLEN9APDHMLJTTQE9HXOHNSIUAACHXDUPSPCIDJDUT9IEWJIFKLDOBFRYFCV","address":"WOUOHBPTNLLSGQEUEOHVIWIB9WXGNMOBFFDGIPTRWWMTXDJYXBYHCXALXBHPCYDNZWIDOH9DZHA9GHUSA","optimalPurchaseTarget":-100,"optimalPurchaseTargetScore":-100,"availablePurchaseTargetList":[],"optimalSaleTarget":-100,"optimalSaleTargetScore":-100,"latitute":"52.219985","longitute":"0.225702","amountGenerated":"6","pricePrefered":"14","distancePrefered":"15","energyType":"3"},{"index":66,"seed":"RVKVRQKQQFSSFDFWFXFON9BOTJOUAQAHOUUNKVUFRJCPRRBUHPSTDIJPFVJAQCJIIMWHIQQMNECVHCNXI","address":"OPQOMSLJSCQDGIYWCZHIHOBDIUKJLAYLIYBRHMCEOQAR9AQQMTGNHKRXWPPXQCHS9IOOFDHIBVSJLAZXA","optimalPurchaseTarget":-100,"optimalPurchaseTargetScore":-100,"availablePurchaseTargetList":[],"optimalSaleTarget":-100,"optimalSaleTargetScore":-100,"latitute":"52.033718","longitute":"-1.972702","amountGenerated":"5","pricePrefered":"16","distancePrefered":"14","energyType":"4"},{"index":67,"seed":"STBTIVSOHWNTVHUVLMEIFRPI9XFWE9PEOBHYAFADHPKONEJ9NF9DOJQJ9OIPHUCWAKDWCBPRMSKUGPDUV","address":"JAYQIEDDUTECBTHJBPFSNXOLTMKO9PB9HXUWGFVQNNZWNLABZYKCIZPEYTOT9MHDOWSZWHPVDFCXTZCUD","optimalPurchaseTarget":-100,"optimalPurchaseTargetScore":-100,"availablePurchaseTargetList":[],"optimalSaleTarget":-100,"optimalSaleTargetScore":-100,"latitute":"52.209027","longitute":"-1.640498","amountGenerated":"9","pricePrefered":"15","distancePrefered":"15","energyType":"1"},{"index":68,"seed":"TF9RKUOUQSDF9NTOBFEVRE9TMIISHTEUSFPNKCXSMLMEFIGLGPGVPVDVNIGJUEVDQVCETDNJAMCCIOVCA","address":"AEETEEGQI9FYWQJBWZBLDBDCXMHUZGVPTUHSNGLYEJMGB9RBHVFKJGTXJQPMNOUNZODWHATDHPQPZTONC","optimalPurchaseTarget":-100,"optimalPurchaseTargetScore":-100,"availablePurchaseTargetList":[],"optimalSaleTarget":-100,"optimalSaleTargetScore":-100,"latitute":"51.207204","longitute":"-1.649835","amountGenerated":"9","pricePrefered":"15","distancePrefered":"11","energyType":"1"},{"index":69,"seed":"LLVWNXHNUDWHTTDJ9GECYUK9IPEGXQGCWYRYDOKGAVCFRMOTROSWCQGNYV9LHSICUDLLXR9CVCVHBUVY9","address":"ILVHDZWOAXPVGEGNDSVTVSBWPHOZN9RXEDFFEJH9IZXISMSGUOZBURZPLEATWKGSDTSVEFAOFESONG9AZ","optimalPurchaseTarget":-100,"optimalPurchaseTargetScore":-100,"availablePurchaseTargetList":[],"optimalSaleTarget":-100,"optimalSaleTargetScore":-100,"latitute":"51.231521","longitute":"-0.258601","amountGenerated":"7","pricePrefered":"15","distancePrefered":"15","energyType":"2"},{"index":70,"seed":"UKGRUPENGRRLWCR9DDLPSDSJAEFVTCUBOWIXVL9GDFNEXVBTSNJDSPFIABYEQGFIXJBWDEEOKAAK9RWTN","address":"SBYVFKLVZZLYOFCEHUDMOZWASXXYHSMIACFWWTQRCUPMDZIOIMGPAZAAVUEJVNQTZBQLZ9SWVFKIZQVYX","optimalPurchaseTarget":-100,"optimalPurchaseTargetScore":-100,"availablePurchaseTargetList":[],"optimalSaleTarget":-100,"optimalSaleTargetScore":-100,"latitute":"51.047903","longitute":"-1.607091","amountGenerated":"6","pricePrefered":"16","distancePrefered":"10","energyType":"3"},{"index":71,"seed":"THEYNFSJC9SDYSQCRFYBWPLRYCJKX9QGNXYCCIB9DQUGIFIDHE9SEKYKPLNNACNJRSIYOTCESRGIEGVBW","address":"9XUQDODLDWWVYWWGVAFIOPSVUUHCTLDEDEHTPVZYPQCHXVWVOOL9QQISZPKEAGNGEV9O9XWPKWSDEHVQW","optimalPurchaseTarget":-100,"optimalPurchaseTargetScore":-100,"availablePurchaseTargetList":[],"optimalSaleTarget":-100,"optimalSaleTargetScore":-100,"latitute":"52.366709","longitute":"-2.023424","amountGenerated":"9","pricePrefered":"16","distancePrefered":"15","energyType":"4"},{"index":72,"seed":"VGKKJEKHTBITGDNCSJMEAVTAPOXJE9VXPPPLYAEPVAWSFSVPQCQKYRGEROLRNPLELLKBUGDCAUUYOFDMY","address":"S9RKBNEZIBCCPGFXMAADTAEBHKO9LFOWKMLCDWE9TTYESCUSYEXASKA9Q9IAHTDOOGEIHQCIAERQMQAFB","optimalPurchaseTarget":-100,"optimalPurchaseTargetScore":-100,"availablePurchaseTargetList":[],"optimalSaleTarget":-100,"optimalSaleTargetScore":-100,"latitute":"52.001671","longitute":"-0.799931","amountGenerated":"9","pricePrefered":"15","distancePrefered":"14","energyType":"1"},{"index":73,"seed":"NIHTSEERINFENKISGPOKUTOUODUFTIQSFFNSUMTFEXGXELYPXBBIITBHKVVSRACXPNNCRQFXIHM9DTMPE","address":"ZQJEXNVNYTVJZKRSTLGCUAPELPBCOOZOLCHHKIVUCKJSCSBGHDPFOPJHFBXOLUQCWC9ZCKTJMGRDPYNVB","optimalPurchaseTarget":-100,"optimalPurchaseTargetScore":-100,"availablePurchaseTargetList":[],"optimalSaleTarget":-100,"optimalSaleTargetScore":-100,"latitute":"52.086881","longitute":"-2.171732","amountGenerated":"10","pricePrefered":"15","distancePrefered":"14","energyType":"3"},{"index":74,"seed":"FKULELWQXBXPUYHNFEUADBPAGNAUPCXL9GGTQOLHKRLEHUJOHYIGVAQEENFTXQVONGWK9POKWEELQT9LD","address":"HHRWI9DOTRXXKWTTMV9RYHVYMCWTQNCKFBCGKQLRLWWUDNCKVRUQJ9BYHIJBWTSLUJYXRXGAEWOFF9XWW","optimalPurchaseTarget":-100,"optimalPurchaseTargetScore":-100,"availablePurchaseTargetList":[],"optimalSaleTarget":-100,"optimalSaleTargetScore":-100,"latitute":"51.668982","longitute":"-1.402009","amountGenerated":"10","pricePrefered":"15","distancePrefered":"10","energyType":"4"},{"index":75,"seed":"LXGUWRWQABFWWEUIQUHT9XDTTSTHPRCASLRHLOYVWLHOMTYJWJVSUFHEAMKDJETG9RVKRFTDAASYXKDSV","address":"ZLTSORMJWYQR99PBZUGAATEZTDPDZ9YSMPNX9JCY9IYWRAJLCPNCIKHUPNCCLZKHSWBMKGDPQHZRESFCW","optimalPurchaseTarget":-100,"optimalPurchaseTargetScore":-100,"availablePurchaseTargetList":[],"optimalSaleTarget":-100,"optimalSaleTargetScore":-100,"latitute":"52.173155","longitute":"-1.928593","amountGenerated":"8","pricePrefered":"14","distancePrefered":"13","energyType":"1"},{"index":76,"seed":"AATIGWUEJEKK9HUYFIGEUBVDDECEQQJBXGSAVYEALUSBAOLMIEKIXAGHABKFKUY9ENDCKNEHKTBJGDLMO","address":"XNHCFLHYVIZV9DGKJWBJGFGDCNGRX9AWCTNRETYBVMDOGCXZPDLKOXHVEDNKIIYZMRXYVBJFXIIFUXQXC","optimalPurchaseTarget":-100,"optimalPurchaseTargetScore":-100,"availablePurchaseTargetList":[],"optimalSaleTarget":-100,"optimalSaleTargetScore":-100,"latitute":"51.118786","longitute":"-0.356615","amountGenerated":"9","pricePrefered":"15","distancePrefered":"14","energyType":"0"},{"index":77,"seed":"SAQUD9UXIJOPFGNOHEMIVFJILOUWLEKUSGNFBVEOWWQCWIJL9HYSSYGLTPVPSXXVMYFERXSSXAWFCMTYH","address":"XGVLFZWLGVQDZIUVFVWNPMAYNVNOGRJQZRNFOHUYCLGNBMJDCUCUVZQRGOYRWEOQFTYDJNHQJDGYAWOVY","optimalPurchaseTarget":-100,"optimalPurchaseTargetScore":-100,"availablePurchaseTargetList":[],"optimalSaleTarget":-100,"optimalSaleTargetScore":-100,"latitute":"51.146733","longitute":"-1.051759","amountGenerated":"7","pricePrefered":"15","distancePrefered":"11","energyType":"4"},{"index":78,"seed":"UKWHUSNDKXBFNKUKQHGJURTMXBOKLUWWK9YWUFSQFCHVTDBBSFVOFWHHWLTSNJKFIYPXDSTHJJVVHALEL","address":"UUJWMWWGWILVOSPTYXFRPHTQJIGLMK9OSI9XZUKMXEQCXMZTDKU9MJG9WBAKICKIXKWOTKUPMWOVSKMFW","optimalPurchaseTarget":-100,"optimalPurchaseTargetScore":-100,"availablePurchaseTargetList":[],"optimalSaleTarget":-100,"optimalSaleTargetScore":-100,"latitute":"51.334788","longitute":"-2.368237","amountGenerated":"7","pricePrefered":"15","distancePrefered":"11","energyType":"1"},{"index":79,"seed":"WXMRCUCRRIXTDHNYWIDWRMJNGVTSRG9ATFCBBAXD9UUIUDNJEVTHMRIKOGWPEJLANVJQFCEBLYRFWRQMJ","address":"9JMGIPBLPV9ZWTRORDEYLUSGFBFJKXWLDHXSKKSDYXOKXRFLDOCVYVYRQJWNHXOMPNNKVXJ9QEJXMRC9Z","optimalPurchaseTarget":-100,"optimalPurchaseTargetScore":-100,"availablePurchaseTargetList":[],"optimalSaleTarget":-100,"optimalSaleTargetScore":-100,"latitute":"51.826479","longitute":"-1.472073","amountGenerated":"9","pricePrefered":"16","distancePrefered":"14","energyType":"0"},{"index":80,"seed":"JWTNVLRJAEURFBRSWVMAKKRAEP9JAMKMIWSPHKWPHKSGYPEAQKB9EAOOBJCAQSFVLDGURYJRBLYOYDYPJ","address":"NSNFNQJHJMGLQQXVYBKPAGRCLNK9HSWBKKCANEYGOUCFKF9RAUBWAUQNTHESAUYGTYJSEZJNXYJXWSWFX","optimalPurchaseTarget":-100,"optimalPurchaseTargetScore":-100,"availablePurchaseTargetList":[],"optimalSaleTarget":-100,"optimalSaleTargetScore":-100,"latitute":"51.533693","longitute":"-1.286013","amountGenerated":"8","pricePrefered":"14","distancePrefered":"11","energyType":"3"},{"index":81,"seed":"BMPSORIUXHYVRQRCMR9RASWGEEPFDXNUQPDNMMRPYESIQFIIUFBWCBMYAQBHMFVFLHWO9HVMWXTECYL9D","address":"FHHAPVTZGMOYAPGUINPNPLXONDQCUPYQHIJSUYGZOYDXXDRZKIUENAPIQEIREDLSWJVCAHW9DISJJYAMA","optimalPurchaseTarget":-100,"optimalPurchaseTargetScore":-100,"availablePurchaseTargetList":[],"optimalSaleTarget":-100,"optimalSaleTargetScore":-100,"latitute":"51.249527","longitute":"0.130384","amountGenerated":"7","pricePrefered":"14","distancePrefered":"14","energyType":"2"},{"index":82,"seed":"9KJQYO99HOTY9GELYH9EVIMKTYLIPGVNCMC99AYWSUUMDOSJW9OXODQLB9YGEAFWBGQSYGCKWEDDNP9DY","address":"GPJKHCIMZRZYAQEMIJDTSCOSQXBXHSDINQTHXLIQZRUZQ9IMPDZOMJZKZLFXX9KKBYVZYIZTQIHRPYF9C","optimalPurchaseTarget":-100,"optimalPurchaseTargetScore":-100,"availablePurchaseTargetList":[],"optimalSaleTarget":-100,"optimalSaleTargetScore":-100,"latitute":"51.010632","longitute":"-0.091199","amountGenerated":"9","pricePrefered":"16","distancePrefered":"11","energyType":"3"},{"index":83,"seed":"LURMPBFXIBDOILJRUPRYVSEUVMBQDQJRQWHLOHKNRXVUXBBMGT9LQUYJDIRJWRVTIFUQDYILCSUDRREWA","address":"PDTABNYPCBSKLHUAUCDXFKOWUVSIOUXAMYVXBLNPNXOARVCGMHEBFAZTBUD9FQCDMBZ9QWBLFNHJMZZG9","optimalPurchaseTarget":-100,"optimalPurchaseTargetScore":-100,"availablePurchaseTargetList":[],"optimalSaleTarget":-100,"optimalSaleTargetScore":-100,"latitute":"51.764840","longitute":"-2.077397","amountGenerated":"8","pricePrefered":"15","distancePrefered":"10","energyType":"0"},{"index":84,"seed":"LOFFUKILPXOWK9IRMIGQSFFQSUQNCOTLPPYOYGCLEXWBVJFLY9VOPPUDUSHBHQBGOIQVCGOWA9DYRQVLX","address":"MLEBWEKBZDPTQORASAOJM9UXEO9IWWO9NOQULE9CLZWNUVWLBIAAAYHDJBYFMXFMHONQGVRNO9MLGYZI9","optimalPurchaseTarget":-100,"optimalPurchaseTargetScore":-100,"availablePurchaseTargetList":[],"optimalSaleTarget":-100,"optimalSaleTargetScore":-100,"latitute":"51.457097","longitute":"-2.035697","amountGenerated":"5","pricePrefered":"14","distancePrefered":"12","energyType":"1"},{"index":85,"seed":"CFPPFBA9MKJKDQFLAVB9FGTCLSGYXRA9WUYICA9NCNQJVAQWSS9CXTB9LTLLSLSJEAMTCXXWEOFWMPHXQ","address":"VBLUCL9SWISGVZPLUOPZKQWWPNHOQTMXSXEUHOMABXZVQVMZREJCOAXIJXRMYGUWYBJEJ9TVYXUMHMTRY","optimalPurchaseTarget":-100,"optimalPurchaseTargetScore":-100,"availablePurchaseTargetList":[],"optimalSaleTarget":-100,"optimalSaleTargetScore":-100,"latitute":"51.639977","longitute":"-0.251780","amountGenerated":"6","pricePrefered":"14","distancePrefered":"11","energyType":"0"},{"index":86,"seed":"L9EPVENIPARLUSSAWVXSIQUFPSAIVNABRUQGINYM9NIMNMBKOQLKKXOIMJHNOSHGOKEMQCSV9MKYLSAI9","address":"IZTNBBQOPIWJYZTJYDT9KRO9DPEXI9TMTNXRLKZEVW9PQYQCPVSKUJLELABXSNKLVUNKMNROUKGTUSYZY","optimalPurchaseTarget":-100,"optimalPurchaseTargetScore":-100,"availablePurchaseTargetList":[],"optimalSaleTarget":-100,"optimalSaleTargetScore":-100,"latitute":"51.132045","longitute":"-0.340774","amountGenerated":"9","pricePrefered":"15","distancePrefered":"12","energyType":"3"},{"index":87,"seed":"RUELBOGQHTFDATNILMOFFCSSVXVHEGTMWANLSCXLNTBMVRMLX9YMTJGV99NQJDFFH9VGYYNUGFVKKKKNO","address":"LHSGLEQU9RSPUWRMK9VJQXMUKYB9FLFU9FUOETKUJRPYYNNBIZGNTKEJGZZVPOZJSW9BOGHGUH9CUKVPX","optimalPurchaseTarget":-100,"optimalPurchaseTargetScore":-100,"availablePurchaseTargetList":[],"optimalSaleTarget":-100,"optimalSaleTargetScore":-100,"latitute":"51.772694","longitute":"-0.285079","amountGenerated":"6","pricePrefered":"15","distancePrefered":"13","energyType":"1"},{"index":88,"seed":"MUESPMHIBXKFTLIQUTNPHOLNQMAAHLY9ABSESWLG9QYOSPFOPDJJVFEYJUIMFSPSXE9ASOYUGEUIKCTIU","address":"AQGGFQZEECDCJMFZVAAPMRQDQKMFWVWPDA9QOAHNVY9EBZVHMFSFBKQMVGNNMCIIATJJAYABVGHIKVGZC","optimalPurchaseTarget":-100,"optimalPurchaseTargetScore":-100,"availablePurchaseTargetList":[],"optimalSaleTarget":-100,"optimalSaleTargetScore":-100,"latitute":"52.203789","longitute":"-0.291349","amountGenerated":"8","pricePrefered":"14","distancePrefered":"12","energyType":"0"},{"index":89,"seed":"NKCBPMBDDQHHTTBVSASKAWEXONDOLSKFBHEICGWTULLC9GHLATMPOJKY9POYAPOCLHALCEJFTUQAIGJYQ","address":"GTZHNTVLZUDUOFXTJKKQIMVXFCODDHCHHMHFJCNCBLUEIPEPGFEMEUVZBLKSCOBABLCBBWMAKCOZXIMC9","optimalPurchaseTarget":-100,"optimalPurchaseTargetScore":-100,"availablePurchaseTargetList":[],"optimalSaleTarget":-100,"optimalSaleTargetScore":-100,"latitute":"51.765593","longitute":"-2.094357","amountGenerated":"7","pricePrefered":"15","distancePrefered":"13","energyType":"3"},{"index":90,"seed":"XTXPOWFY9TUOWJUSCLWCRN9EJJYQC9K9XQWYNTTEWQTYCPYEJRDVDVECRVKLTAXVYLUE9UNGAVJATXGQB","address":"BDV9LOPXQKDLMFLCALNJTZRMVJYDMK9QJVMUWRYEJPBYXYMJYIVOCDHFNGUSLAQJJGCPUHMQGWMHWMWGX","optimalPurchaseTarget":-100,"optimalPurchaseTargetScore":-100,"availablePurchaseTargetList":[],"optimalSaleTarget":-100,"optimalSaleTargetScore":-100,"latitute":"51.777041","longitute":"-1.203509","amountGenerated":"6","pricePrefered":"15","distancePrefered":"13","energyType":"3"},{"index":91,"seed":"ULKCPAWXK9YHEJLIHXAWDJMOJ9EQNEK9DEQEE9LLUMBXTPXXKXXCRMSIBL9QQUWCHBUJKGDIEPBSNFIKW","address":"HRLCFSIZTWHJYXT9WDZJOPMKUTXO9VEPLGQAAKDBLKTCPTKHQGMUUWMXZYBXRJ9IOAALBXFQJVRQFKNFC","optimalPurchaseTarget":-100,"optimalPurchaseTargetScore":-100,"availablePurchaseTargetList":[],"optimalSaleTarget":-100,"optimalSaleTargetScore":-100,"latitute":"51.641865","longitute":"-0.882533","amountGenerated":"10","pricePrefered":"15","distancePrefered":"11","energyType":"3"},{"index":92,"seed":"HHHCKETLDFQPMWSHJXUGOXLKGHWRGOVUOEWQAQQSEBEDQMALAC99PLUOTTF9IBHNKKDEVMER9WKFVMIMU","address":"UVDT9LFIPZVS9OWXKSSFUKUXEIYEEUGZGY9ELJCMYHMZFJS9PODASAK9F9HAM9VZRROVMLFEGRJNL9QGW","optimalPurchaseTarget":-100,"optimalPurchaseTargetScore":-100,"availablePurchaseTargetList":[],"optimalSaleTarget":-100,"optimalSaleTargetScore":-100,"latitute":"52.149482","longitute":"-2.114358","amountGenerated":"6","pricePrefered":"14","distancePrefered":"11","energyType":"3"},{"index":93,"seed":"JFLIXSHH9ERWONFVBCYGRFXJHNPPNQUQCDMEBQRNLSYNSQIFLRDJOIVXECKQ9AHMSSHIGGLGKHOOFKQME","address":"OMIMIJ9NUSXNSIOR999LHGECFGTY9YXDCPPFZDUX9QZTPPJPQVGFVKPECMNSSRJMIYWF9JUQCORVWIMPC","optimalPurchaseTarget":-100,"optimalPurchaseTargetScore":-100,"availablePurchaseTargetList":[],"optimalSaleTarget":-100,"optimalSaleTargetScore":-100,"latitute":"51.764627","longitute":"-0.433583","amountGenerated":"9","pricePrefered":"14","distancePrefered":"13","energyType":"0"},{"index":94,"seed":"XVLBUNRIFXRYJPPBCISAJANGYHRAGHDWIWKSYQFQYYPRQYOPPYCPCRP9S9LRLKKXSOWNIHHWEVXEJLMVX","address":"XWHFIVXGWHKCAAAFWXBURALMBAADIWSQDDPDLU9PPUIWV9VMABBAGAQWOWGLRWAYVGQMHQNAMGEXEETEC","optimalPurchaseTarget":-100,"optimalPurchaseTargetScore":-100,"availablePurchaseTargetList":[],"optimalSaleTarget":-100,"optimalSaleTargetScore":-100,"latitute":"52.269604","longitute":"-2.293571","amountGenerated":"9","pricePrefered":"15","distancePrefered":"12","energyType":"3"},{"index":95,"seed":"REWYRBMSEKCJSTREQUDU9MVFOBKMRYVRKBLLFTL9HGNPYMAWSTLXKQPYETXSPSJWMOXXTXOUHEACWCSXK","address":"YEGGTNGCIRZFKJN9UHFZCVRUDBKRXXGKDFHPF9HLCKKHCCBUXSAMDYZCRTSNWN9ZPDVWQQKUKUAGLFZQD","optimalPurchaseTarget":-100,"optimalPurchaseTargetScore":-100,"availablePurchaseTargetList":[],"optimalSaleTarget":-100,"optimalSaleTargetScore":-100,"latitute":"51.099900","longitute":"-0.227848","amountGenerated":"7","pricePrefered":"15","distancePrefered":"10","energyType":"4"},{"index":96,"seed":"KMFYWQJLVMCEGFHLK9ASPPPRNYVY9KDMMKLBWEJTECCEPJVMMLHLF9NRARYJDXF9QYWWJHYUOKUIOBNPN","address":"CDPGCYWLXMFDTTMEFSKCKXTDJHDPLLDYIGOXCFLSWSOHDENFHMNNOUWWU9VFJNXYJLNCXLRUAEKNMV9RW","optimalPurchaseTarget":-100,"optimalPurchaseTargetScore":-100,"availablePurchaseTargetList":[],"optimalSaleTarget":-100,"optimalSaleTargetScore":-100,"latitute":"52.181375","longitute":"-0.267358","amountGenerated":"5","pricePrefered":"16","distancePrefered":"12","energyType":"4"},{"index":97,"seed":"GBQVEFIDGGXWGYN9WVTCIP9D9SVQCAHXJYPVLLDDHTMVPTJRRWWDWLISCONEUCSFNTOI9EYOOFGKWKWYX","address":"PPWJROOMRIRQJB9JBSKSKHMHLCBIQCYFVKU9YJSDJEHPOYGCYBENKAR9LYSBLSLWFQLIEGLLDYCERYCFA","optimalPurchaseTarget":-100,"optimalPurchaseTargetScore":-100,"availablePurchaseTargetList":[],"optimalSaleTarget":-100,"optimalSaleTargetScore":-100,"latitute":"52.023405","longitute":"-1.299160","amountGenerated":"6","pricePrefered":"16","distancePrefered":"14","energyType":"0"},{"index":98,"seed":"XJNURIM9XBVHUUWSANUWMYLOARGTIYTJTPPYQYUEENRQTPMPUDLIUJXWIARXETURYWNYJTYXHUSGBAQCE","address":"OUQWHHFDOYZAMSQHMKITJMGRXXCITLWTEVKHVFRPAPYVIVZMYOPHPARPDJFEHG9FPYPBMA9Q9V9LUJQEA","optimalPurchaseTarget":-100,"optimalPurchaseTargetScore":-100,"availablePurchaseTargetList":[],"optimalSaleTarget":-100,"optimalSaleTargetScore":-100,"latitute":"51.532487","longitute":"-1.569309","amountGenerated":"9","pricePrefered":"15","distancePrefered":"13","energyType":"2"},{"index":99,"seed":"MBDTWIDNANRBGEO9YKJLWCBNIURFLHNNXSWKSXFUDQOTVRYCBPJKVSJGDCDDTSCNSRVT9GLSWRFNTMWSU","address":"XOQBSQOZAWSBREGXATLLWTPUQAUVPLIPLNRBQ9UXEYZJGKRH9BNQGBXMFTSODAVDOGWTKX9ATJJAMOGVA","optimalPurchaseTarget":-100,"optimalPurchaseTargetScore":-100,"availablePurchaseTargetList":[],"optimalSaleTarget":-100,"optimalSaleTargetScore":-100,"latitute":"51.683498","longitute":"-1.574400","amountGenerated":"10","pricePrefered":"15","distancePrefered":"14","energyType":"3"}]