[{"index":0,"seed":"MDODOEBOYKASEUUMDURTAHIVOLNFUNKJAHSOHQJVYAFGHODNGHHNHEVQRDCMOBJYBO9GUYSPANKBUJBFA","address":"JOTBWHOIUBESKUSQJZCWEV9C9SBPKSLURKG9MYKMJBEFRKKSFVWVBZL9JMRCYLZMGET99HYAZ9YBQEBSB","optimalPurchaseTarget":-100,"optimalPurchaseTargetScore":-100,"availablePurchaseTargetList":[],"optimalSaleTarget":-100,"optimalSaleTargetScore":-100,"latitute":"52.021991","longitute":"-2.106017","amountGenerated":"8","pricePrefered":"15","distancePrefered":"11","energyType":"2"},{"index":1,"seed":"POQJYUEVWRMWITJSEICI9XHGCMFTHNTJNNSVOEBFDCKHWFLBMVYLJYJIQTPJ9QQIHRVWWKBN9WJVIOLMX","address":"MLIDZKHAEDUYDIVQHVZDIUNXFSGWKSHYHWUMXICFLV9ACBDCDZNFFJEFLQNZQUOKMGEQCYWQFCGWHALIX","optimalPurchaseTarget":-100,"optimalPurchaseTargetScore":-100,"availablePurchaseTargetList":[],"optimalSaleTarget":-100,"optimalSaleTargetScore":-100,"latitute":"51.337149","longitute":"-0.766031","amountGenerated":"6","pricePrefered":"14","distancePrefered":"12","energyType":"1"},{"index":2,"seed":"CGQTGPQEHJUXHJSQQWOJNTEVHVNPOGMJKBPR9TXRSHVXUCTO9IXQKKXWCYOCFGRD9AYUVIGO9RNVKNGVI","address":"QQMQEAMKIPNNBSNHPUFULZYKUIVMZVFHSOPQDAPMSRKJUBOHQDACVWNWX9SWLOHK9XLVAJIADE9C9SGXY","optimalPurchaseTarget":-100,"optimalPurchaseTargetScore":-100,"availablePurchaseTargetList":[],"optimalSaleTarget":-100,"optimalSaleTargetScore":-100,"latitute":"51.179483","longitute":"0.012312","amountGenerated":"6","pricePrefered":"16","distancePrefered":"11","energyType":"0"},{"index":3,"seed":"OLFGCTVQYQNMSYMECJJEWTCSLGLR9L9DSXW9ALVMNMFTNUAONDONPUPARLNMIHYVWSJPANKMCLXRNAOOE","address":"AMPL9IJYOXDRBDIAB9TXIFKEKVAHKQADJEOHIEVBYOVMSHUNJVCYFPIDMPIOMAFMCAPFNLNQTLYEKELVZ","optimalPurchaseTarget":-100,"optimalPurchaseTargetScore":-100,"availablePurchaseTargetList":[],"optimalSaleTarget":-100,"optimalSaleTargetScore":-100,"latitute":"51.806082","longitute":"-1.499621","amountGenerated":"5","pricePrefered":"16","distancePrefered":"15","energyType":"1"},{"index":4,"seed":"JILB9QDFLEFMDBRKPGSJHX9NGKBNDFHRFSMKMHLTEPFYEOIWXVLNYYIM9FKNOEFUGFIULLHFWJSSUPNMS","address":"KVHRPROKWBDDQCDGZJEHOHSD9HJASMYRBKLDOPJWMBGUVCUSACEFQANOUXNLBKXHHZYAZ9FIAUIRUHYIC","optimalPurchaseTarget":-100,"optimalPurchaseTargetScore":-100,"availablePurchaseTargetList":[],"optimalSaleTarget":-100,"optimalSaleTargetScore":-100,"latitute":"51.281302","longitute":"-0.596900","amountGenerated":"9","pricePrefered":"15","distancePrefered":"14","energyType":"3"},{"index":5,"seed":"RMLPXYHCFVLGWSSPDABWMANYOTIGYPQ9KCLKFXGTWAJSWQWABLGHXRBBISFVUYT9SOXCNMOWDRY9OWWFJ","address":"PHSJHO9DYFFUOECEIXJXDELBXNSGYJSZOMMCVVVJYBMV9SP9SNBWVMAKDMCGTBRPLOLPVAQPEDDJCFTHX","optimalPurchaseTarget":-100,"optimalPurchaseTargetScore":-100,"availablePurchaseTargetList":[],"optimalSaleTarget":-100,"optimalSaleTargetScore":-100,"latitute":"51.050955","longitute":"-1.387312","amountGenerated":"9","pricePrefered":"16","distancePrefered":"12","energyType":"2"},{"index":6,"seed":"PJBIKUSMMJUSKVMSTVRGAFQNVCSVAJCYKIKSJIANISNAHMIAQIMLDYGVFGELGJEPOPBRHSL9DJ9JRYUXN","address":"ABOIFAWLTFTVVGREKKPGOZWFKMDLYBEV9EKLZYBQPQGOKPXPMZSQNGHEYKMZODZVPSCEZFZHMKBGCPIID","optimalPurchaseTarget":-100,"optimalPurchaseTargetScore":-100,"availablePurchaseTargetList":[],"optimalSaleTarget":-100,"optimalSaleTargetScore":-100,"latitute":"51.717494","longitute":"-0.756517","amountGenerated":"7","pricePrefered":"15","distancePrefered":"11","energyType":"2"},{"index":7,"seed":"HR9MUMBJCIYLBKKUFHXGCSORSWXBABAATQ9BEHHANCPMUJITTWXISLR9JI9XCQNJEUJEMVCTVRSFGMMD9","address":"MENJYBKOZPACENQVPT99XIEJNZWDXLMVVMUCTUIEZQORMUNEXKTVTRTXIJTMXJCUNDWDBFAKGRPROSGNA","optimalPurchaseTarget":-100,"optimalPurchaseTargetScore":-100,"availablePurchaseTargetList":[],"optimalSaleTarget":-100,"optimalSaleTargetScore":-100,"latitute":"51.539921","longitute":"-0.166642","amountGenerated":"7","pricePrefered":"14","distancePrefered":"10","energyType":"1"},{"index":8,"seed":"HEPSNLXLHXEHAWIX9YLYXJTWXLFXFKEVQYNUFIKVAXVEHTHOYRXHHCPBDDXWYJUDFCCIJUS9JTCQN9O9D","address":"JKVQMKLYQBYWZXHRVUFKRWJZWQ9YIVBJHALFQAUXQDSPNCWIPRXRSGVVDHETTOGIDR9QTNACDSLGWASQW","optimalPurchaseTarget":-100,"optimalPurchaseTargetScore":-100,"availablePurchaseTargetList":[],"optimalSaleTarget":-100,"optimalSaleTargetScore":-100,"latitute":"52.114231","longitute":"-0.312436","amountGenerated":"9","pricePrefered":"15","distancePrefered":"14","energyType":"2"},{"index":9,"seed":"BTSYGXSQ99GVIFDKFWIUVI9UDEHFVESW9IFSYPYJHWHUIYPCIDSOFMFKFLOGP9ETKNVVOMCNOMMA9VDYN","address":"OIAZCLIARE9MIRNPLTZLTMFJJOZAJJ9JLCVFB9CPWPSXNOTNFSL9FOL9SPOO9HXYWOFVXCNSHERGXBVCX","optimalPurchaseTarget":-100,"optimalPurchaseTargetScore":-100,"availablePurchaseTargetList":[],"optimalSaleTarget":-100,"optimalSaleTargetScore":-100,"latitute":"52.211165","longitute":"-1.157303","amountGenerated":"9","pricePrefered":"16","distancePrefered":"14","energyType":"3"},{"index":10,"seed":"LNPCJQXEKBGQG9MPNXIFDHAARGVFRWHAOPLXQJYHXOIECGSBDYVSJAYLRUQLHGODOKGFWEKAUCUPK9UFE","address":"QCVKIDUOAJPJFKXWHAOFOUUQVFSD9QMHDEVUM9PXTKZRYVMTEMYXCMPBTAXARPH9UHDIUHFNWY9TRCCLD","optimalPurchaseTarget":-100,"optimalPurchaseTargetScore":-100,"availablePurchaseTargetList":[],"optimalSaleTarget":-100,"optimalSaleTargetScore":-100,"latitute":"52.348659","longitute":"-0.279162","amountGenerated":"8","pricePrefered":"14","distancePrefered":"13","energyType":"1"},{"index":11,"seed":"ILWATILYEXQYKWLFMLGFJDUEPIVISVXWNVFADUSFXHFBNMSSUMFOKMWXUMQYSOPAMIERWYHUKJYMJ99AK","address":"YC9TDRGEEXSPYUKOJBADBAWHJFXCOYUVOXYNTINQZCMRLWXO9SPGADELCCJDMKSHJZXLOPSOYUNOLPKHD","optimalPurchaseTarget":-100,"optimalPurchaseTargetScore":-100,"availablePurchaseTargetList":[],"optimalSaleTarget":-100,"optimalSaleTargetScore":-100,"latitute":"51.537931","longitute":"-0.864179","amountGenerated":"7","pricePrefered":"15","distancePrefered":"14","energyType":"0"},{"index":12,"seed":"AQKLCESGJF9KO9PPXLQMFWEUHOKYFN9VKAXHBUBJNXQTOVMQWYWQJLSTJQBRAOXOSITTPDHLTMCUMGPEF","address":"CJBKXOK9KYXPKWLZIVEQKCGLHFBMTPLAYKSZKFGELFUTSRAPWFTOCOGKBVFET9E9MOYWMWRZFPBJ9REPY","optimalPurchaseTarget":-100,"optimalPurchaseTargetScore":-100,"availablePurchaseTargetList":[],"optimalSaleTarget":-100,"optimalSaleTargetScore":-100,"latitute":"51.139274","longitute":"-1.571316","amountGenerated":"7","pricePrefered":"15","distancePrefered":"13","energyType":"3"},{"index":13,"seed":"OHNMYKNF9IVXESCVA9KSIKTCRFWPTGD9DRI9JQDVDVWJYUXNE9ETHNKQARFHTNTIQIQJECQBERWSFVLJP","address":"UYPH9KEYUDILTZDILVA9ENBJNHO9JVLRIHWBWCUBHMDNWPYZNPVUSMVZRHFRAWUDGWFCNPALIVQ9N9GH9","optimalPurchaseTarget":-100,"optimalPurchaseTargetScore":-100,"availablePurchaseTargetList":[],"optimalSaleTarget":-100,"optimalSaleTargetScore":-100,"latitute":"51.557767","longitute":"-0.592079","amountGenerated":"6","pricePrefered":"16","distancePrefered":"11","energyType":"1"},{"index":14,"seed":"PLPQHOECAEAHDV9JHUCNAGURDGWAJPLYVQBBVVRJFDRTMSB9YBWBEQHGYFQPKGLIISPXQOXTHAMSQKANL","address":"LWALPYUVFQQABAUNHL9DSPLQTJDDCCOBAJKDXIMEQFKMLXMFRZQX9FPARHRNITXFE9YDBZRMBTQNXWURX","optimalPurchaseTarget":-100,"optimalPurchaseTargetScore":-100,"availablePurchaseTargetList":[],"optimalSaleTarget":-100,"optimalSaleTargetScore":-100,"latitute":"51.079834","longitute":"-1.037161","amountGenerated":"6","pricePrefered":"15","distancePrefered":"15","energyType":"0"},{"index":15,"seed":"YFOWEH9IYTGCTEENUWJCCFEKVPNIRVIDEVYCJALCOWFRAFSANPBSFKRNCA9NFHQNQTAAIWENDQOJJGBDC","address":"DAHDSLBFTNWGEIVRCLIJHENRSZJUDMONFQYFMHVPXFFGNFGUTVNAGRKJVLDTVNOFCRUIVSAGTTSLVSGSX","optimalPurchaseTarget":-100,"optimalPurchaseTargetScore":-100,"availablePurchaseTargetList":[],"optimalSaleTarget":-100,"optimalSaleTargetScore":-100,"latitute":"51.366068","longitute":"-1.215280","amountGenerated":"6","pricePrefered":"14","distancePrefered":"13","energyType":"3"},{"index":16,"seed":"DADSESRS9UNN9ALNNNPPNOVKUJRDIAACIKQHHAMKLYS9T9RQN9DVSEAFOW9DHXHSNVLJHYCQ9DHTYGNGW","address":"BMFLWMYBEDJHFYIHXGLRTTDEBHKLHQSOSYBAIXWUXRVQJTAOYFVCQLHYELMGBDEVFLLNVFMLDKZCZDFSD","optimalPurchaseTarget":-100,"optimalPurchaseTargetScore":-100,"availablePurchaseTargetList":[],"optimalSaleTarget":-100,"optimalSaleTargetScore":-100,"latitute":"51.103463","longitute":"-1.087175","amountGenerated":"10","pricePrefered":"15","distancePrefered":"15","energyType":"3"},{"index":17,"seed":"QPXMFEMSWYXDFLHDLLNXCEVDNQPJJVQEAIFC9OPCJIFWT9BNPTANDVCAMBJMPKNEYIAHFOSEJIPBODSDT","address":"XNQ9HIA9SGIVVFDQOVDI9JDFMJPUGQJMOMUVGKVQEA9NXCAXQTGMLJERGOVFYASY9EYLGRURPYPE9OTG9","optimalPurchaseTarget":-100,"optimalPurchaseTargetScore":-100,"availablePurchaseTargetList":[],"optimalSaleTarget":-100,"optimalSaleTargetScore":-100,"latitute":"50.967209","longitute":"-1.516450","amountGenerated":"9","pricePrefered":"15","distancePrefered":"14","energyType":"3"},{"index":18,"seed":"PUXMRLJEULGPMBBWTOMSYEFQLIMYKQMHDKCJESESRLHPVUKXJWEVNDGLTFUSWDUCKSWJWXIKLXGIPQBTO","address":"KBXPE9OYWVIAAVUVIGRAZTHZQ9C9HEEWCVVQHSYJECGX9WWCZGDVPYOLNWGYJI9WA9IJBJQQFUPVJCRZA","optimalPurchaseTarget":-100,"optimalPurchaseTargetScore":-100,"availablePurchaseTargetList":[],"optimalSaleTarget":-100,"optimalSaleTargetScore":-100,"latitute":"51.992935","longitute":"0.109117","amountGenerated":"8","pricePrefered":"15","distancePrefered":"11","energyType":"4"},{"index":19,"seed":"WXCYOKJHKPFAWSYSJSIURGVAVCNBK9C9VLGTOUEYMHVDDPJFKOEQRFNXLXOIVBUTYKNQAKNXUXFCKDYQL","address":"GSSQPIOFLIHVYZASVGFYNCIYODJYPMQAPWINIGBTBACLTWXPFHSGKIRFRSYQIHDQH9LQZBPCVLEOTFHGC","optimalPurchaseTarget":-100,"optimalPurchaseTargetScore":-100,"availablePurchaseTargetList":[],"optimalSaleTarget":-100,"optimalSaleTargetScore":-100,"latitute":"52.325114","longitute":"-0.266135","amountGenerated":"6","pricePrefered":"16","distancePrefered":"15","energyType":"1"},{"index":20,"seed":"PXIHBP9JAWROKRFWQVRWOE9IRGMAQNXFCINMXJMRHODMPVITIHOIBIKKWLYNFRNOAHNTCXJAPJUPKMKKS","address":"NHFGNJRYMJSJETFZEULUXRAHSVIAHUWCPOVMCHLSXZSMNHJJXHOKPAKBYTACNWOXYYOSBVHDVNPIXMHUC","optimalPurchaseTarget":-100,"optimalPurchaseTargetScore":-100,"availablePurchaseTargetList":[],"optimalSaleTarget":-100,"optimalSaleTargetScore":-100,"latitute":"52.073907","longitute":"-0.745097","amountGenerated":"6","pricePrefered":"14","distancePrefered":"12","energyType":"0"},{"index":21,"seed":"CL9HBGNIFGINQOFHXLLHTGERNLIQ9LSEDOIGNETHFVTCGKVVIAN9OFQAILUTHBBSSSIBIWJTNYJOIVVEP","address":"GMLQYBCMOKOSXKRWHLSECPZBGEDRXKRYG9W9NFWDVNJIHJSASXAPTYENZZCYGMIAJZGTIWXFRRWOGT9B9","optimalPurchaseTarget":-100,"optimalPurchaseTargetScore":-100,"availablePurchaseTargetList":[],"optimalSaleTarget":-100,"optimalSaleTargetScore":-100,"latitute":"51.482708","longitute":"-2.018751","amountGenerated":"7","pricePrefered":"15","distancePrefered":"10","energyType":"2"},{"index":22,"seed":"TWILENDMNQAUSYVQL9LMPJDUHWPUILXKNIHTDWXEDEYP9MOX9UUTHCTKHOT9RSXUERH9VHVYJBBMNFHVG","address":"GGSAEBZXLMMSCCKBUZLTUYCAH9YOGIOMCYKCOMWDESOYDG9KDVETEWGJDNFCXYKBWRTCPSQMEOFOWOOGW","optimalPurchaseTarget":-100,"optimalPurchaseTargetScore":-100,"availablePurchaseTargetList":[],"optimalSaleTarget":-100,"optimalSaleTargetScore":-100,"latitute":"51.688249","longitute":"-0.124044","amountGenerated":"7","pricePrefered":"15","distancePrefered":"11","energyType":"1"},{"index":23,"seed":"TVWKXXXGPLUFHPVIGRCX9QWEF9MKRQDIKLFBMFCAIQTLACUXQNR9XFVNSENYMFYCGWNXKNCLKKIOOEWWN","address":"9BQFXXAVYED9UZH9KOEDVEXYSDNLYZKCBYCLFGLCFRMOUXUHVWMSPN9QNBWPFCOXRDACDSJQDNLXFVLUD","optimalPurchaseTarget":-100,"optimalPurchaseTargetScore":-100,"availablePurchaseTargetList":[],"optimalSaleTarget":-100,"optimalSaleTargetScore":-100,"latitute":"50.962595","longitute":"0.055268","amountGenerated":"7","pricePrefered":"15","distancePrefered":"12","energyType":"4"},{"index":24,"seed":"UBTBRVFWRUEPNDILVCSQNYSYBFAGJY9TGVDFAGBQRKCXCTWASIOJAHUWB9EID9TQABHNTWRRPQQYTBJHA","address":"PEGZVRAEGCQSLORRENFNCN9LXFQAQN9ZMKXWZRTDGFCZWZOSFRGZYBIHSDMPZBSFOZLWB9JMFREISYFKW","optimalPurchaseTarget":-100,"optimalPurchaseTargetScore":-100,"availablePurchaseTargetList":[],"optimalSaleTarget":-100,"optimalSaleTargetScore":-100,"latitute":"52.322263","longitute":"-0.731756","amountGenerated":"7","pricePrefered":"15","distancePrefered":"15","energyType":"1"},{"index":25,"seed":"TAYVCPJHPWTTDAFRXHQQ9OBQ9FNBLOJGNEYSKVSDCKIILQHWXPVURNQOXHWKIDNWHHTWQFFEADDFDUBJE","address":"RIEDAIKCAJRNZZNYEJEFDGNHHFJMCTXVKZSHNPL9FBSYKPBM9KWZBIWNFDCGWJYUODYLHOUFBNC9B9UMX","optimalPurchaseTarget":-100,"optimalPurchaseTargetScore":-100,"availablePurchaseTargetList":[],"optimalSaleTarget":-100,"optimalSaleTargetScore":-100,"latitute":"52.184926","longitute":"-2.286459","amountGenerated":"6","pricePrefered":"15","distancePrefered":"12","energyType":"2"},{"index":26,"seed":"EDKKCEPH9SITVSVWSSKGQKORIGKAQAARAWNYS9EBXHBVFEETAFHFPXNLDFE9EHVGJOGVSQNJGO9DDDHPM","address":"VUXRLSIETXCAAXRNMKOKOQFCBNKWTXMFVZMLGNJQGQPFWIFQCFHMVYKHKYDKLMYTEQCNJLHNHYPJZEUAY","optimalPurchaseTarget":-100,"optimalPurchaseTargetScore":-100,"availablePurchaseTargetList":[],"optimalSaleTarget":-100,"optimalSaleTargetScore":-100,"latitute":"51.680796","longitute":"-0.069855","amountGenerated":"8","pricePrefered":"16","distancePrefered":"12","energyType":"4"},{"index":27,"seed":"RUQCJCQDHRGGSJXWBCRICYVJYSHAQVAJCLGTLELWXBPVMAGSEMNSGKYPJHKC9TRFWKXPKXRURFQKNATTX","address":"CMMJYKKJMWLSTVNAHCMOOFWVRO9RCWSEVMID9LRXQMU9WXZ9YAIBWF9UCWOUEQIKLXLVNVXVKZTWWTOUX","optimalPurchaseTarget":-100,"optimalPurchaseTargetScore":-100,"availablePurchaseTargetList":[],"optimalSaleTarget":-100,"optimalSaleTargetScore":-100,"latitute":"52.135715","longitute":"-2.376743","amountGenerated":"8","pricePrefered":"14","distancePrefered":"11","energyType":"3"},{"index":28,"seed":"JGFFDBMWMPCTYHNNTTIKIYFNWFRJKYMORICYMFFHBPBCRHMKENRXURXEKTAANMEPYHTXJPBJ9BEPOHTEI","address":"9EAXESQLFJUPESLOWTUIKMWJAHSJFD9PGGYKLGRCG9NEHNUMQTAOQNCXGLUSWKVLNHLOMIIYFO9CMGNSW","optimalPurchaseTarget":-100,"optimalPurchaseTargetScore":-100,"availablePurchaseTargetList":[],"optimalSaleTarget":-100,"optimalSaleTargetScore":-100,"latitute":"51.086815","longitute":"-1.903522","amountGenerated":"8","pricePrefered":"14","distancePrefered":"12","energyType":"2"},{"index":29,"seed":"DUKUOMQKPUPTRCXMQUCEOXUYQDTEURHKRWWJYBTFBMCDDXXCBINLYFKXXKGKLBPRVTVUOBJDLYWBPBFFB","address":"ADVDRABMTDYQAMA9ZAY9DDRYCUPOCRYVYZTDNIBBJTVDTEGLDQJDH9DQPXZOVK9TCKHOSCMHLYNWKTHTB","optimalPurchaseTarget":-100,"optimalPurchaseTargetScore":-100,"availablePurchaseTargetList":[],"optimalSaleTarget":-100,"optimalSaleTargetScore":-100,"latitute":"51.589038","longitute":"-1.879204","amountGenerated":"8","pricePrefered":"14","distancePrefered":"10","energyType":"3"},{"index":30,"seed":"VJBWHO9DOPXHVTIBOXTCUCPCCLHX9Q9ITDO9RJABKGDWQXP9TPKKISEAURKAHYIEUHBUPHOXUMTYOFBUE","address":"XPREKEYDNEISBWTMP9OITPOZHNCPQCPVJEILTLWQ9OOWTCETVUEPJARTVKAWAEUZBFMZJB9XQQLILXTDW","optimalPurchaseTarget":-100,"optimalPurchaseTargetScore":-100,"availablePurchaseTargetList":[],"optimalSaleTarget":-100,"optimalSaleTargetScore":-100,"latitute":"52.001963","longitute":"-1.958125","amountGenerated":"7","pricePrefered":"14","distancePrefered":"13","energyType":"3"},{"index":31,"seed":"YVCEQYWLFKKAVIMEBOFIBFBELSLWRYAKFHD9L9CIVOQBBELVXBNQYPJMHEYSNBEEUPYCUITT9GD9XVCAM","address":"L9GONHZWXNCZLEHHTZL99TAANHCIBGMMBITS9WWNWJORQGGMBLSRYRUGGULEHBWLJJV9HILDE9KT9ZUAZ","optimalPurchaseTarget":-100,"optimalPurchaseTargetScore":-100,"availablePurchaseTargetList":[],"optimalSaleTarget":-100,"optimalSaleTargetScore":-100,"latitute":"51.687228","longitute":"-0.530971","amountGenerated":"6","pricePrefered":"15","distancePrefered":"14","energyType":"3"},{"index":32,"seed":"EVUMDSMOOAKLQOQMWMFXUIJXGFBJGEWIXJVSRHOVSCNT9FXRYVURCFJMRFAWTRSCRCF9JKYNNSRAMJ9MJ","address":"XLBGJNFP9MNMOBFDHUVUBEDBGRWNFTJEFV9UEVJRENDPNHVRLQXTVHDPCUJPEZSKJNVMBBSBHFSSIOSWY","optimalPurchaseTarget":-100,"optimalPurchaseTargetScore":-100,"availablePurchaseTargetList":[],"optimalSaleTarget":-100,"optimalSaleTargetScore":-100,"latitute":"51.346222","longitute":"-0.078557","amountGenerated":"6","pricePrefered":"15","distancePrefered":"12","energyType":"4"},{"index":33,"seed":"BBGOWRVMGMRLLVWIMDOVJJNJHFPJNAVHGQSJIOLHDEXMBESWVDIBRCANVNDFHEXQSPP9SL9LWCXAKLRBQ","address":"LZNTHSOKTHTZLUL9XPSX9TGSALIUUOZVXTFJRQHMAREXMTXIVAKYSAQBYKBJQSGYXWDVHIEDAASLVEOZX","optimalPurchaseTarget":-100,"optimalPurchaseTargetScore":-100,"availablePurchaseTargetList":[],"optimalSaleTarget":-100,"optimalSaleTargetScore":-100,"latitute":"51.428270","longitute":"-0.475359","amountGenerated":"9","pricePrefered":"15","distancePrefered":"14","energyType":"4"},{"index":34,"seed":"LHHJWAPF9HFABEVRLV9GVEN9BKIUVEHVTCB9OG9SWQUXMLMLYBAIWYLGGWNOMOYBDR9IEGNJVHKOSAVEC","address":"NPHKAMNNUKLRERBAJNYFVTQSDSGJVCDGGNMDKICSIBTBCTMKDQISZOQNXHYREBIEPMIYTATHTGVIVEI9Z","optimalPurchaseTarget":-100,"optimalPurchaseTargetScore":-100,"availablePurchaseTargetList":[],"optimalSaleTarget":-100,"optimalSaleTargetScore":-100,"latitute":"51.971395","longitute":"-0.000651","amountGenerated":"7","pricePrefered":"15","distancePrefered":"14","energyType":"0"},{"index":35,"seed":"SALXCHHFXVAHWLDXWHLDSVCUCSQR9D9PTMEPKGIWLE9SJSPEIIMKYDKLPYHBNVNPWBIDVYX9PNGEAPNOL","address":"DIRJRIAIBDLFDQKJE9RDKRFMNBRKCSYA9ZNML9UREXVMRZUEKIGNCPCQVM9JQPLTZCQH9XHZYZIBCLRDX","optimalPurchaseTarget":-100,"optimalPurchaseTargetScore":-100,"availablePurchaseTargetList":[],"optimalSaleTarget":-100,"optimalSaleTargetScore":-100,"latitute":"51.354417","longitute":"-0.627534","amountGenerated":"5","pricePrefered":"15","distancePrefered":"13","energyType":"2"},{"index":36,"seed":"MUIKIBYSEGFRGVCENKPNSSEUSIDQNSOP9CXTEHSMYHHCVIIVVBAKULOMEDGDJ9XCIWPTYYDEXIPNANWYS","address":"TA9FJFNXMFZ9CKMOBEEJLZKVQIECQGJKYLGMDSWSJLDABEVUHGTXLZUUZGHICMHBE9XLRKCYCEH9MBVGX","optimalPurchaseTarget":-100,"optimalPurchaseTargetScore":-100,"availablePurchaseTargetList":[],"optimalSaleTarget":-100,"optimalSaleTargetScore":-100,"latitute":"51.789947","longitute":"-0.003231","amountGenerated":"8","pricePrefered":"15","distancePrefered":"12","energyType":"4"},{"index":37,"seed":"BCDFGGEIHEWCAOJMLDTTECUKCBPGIGYJVQQ9CUSIMUXDBW9NRJNMOXJIOKTLRGMQVQPJ9UNCONLPVMLY9","address":"VFKMS9EUHPIRCGDVBWWTYMA9VM9JKPPIBGYDBUOQZSQSWDBPZORSQCS9WEKIBUBJBRI9DEQ9DQDPGMBDB","optimalPurchaseTarget":-100,"optimalPurchaseTargetScore":-100,"availablePurchaseTargetList":[],"optimalSaleTarget":-100,"optimalSaleTargetScore":-100,"latitute":"52.248127","longitute":"-0.333678","amountGenerated":"7","pricePrefered":"15","distancePrefered":"10","energyType":"3"},{"index":38,"seed":"IEUFEWNFIOV9S9W9BD9RKIMFMFMTXDQCQPUSATWXQEXUXWOJJTNVXVUVUIJWPXER9HHGUFBFGTDFQJYHL","address":"GBDIFDJUBYOQFSOVJORPSGASXNDRGXFDQEUHWKNFVQKDNBAZWTCXMRBY9KFPOOZZYUCHIUTICVZFHLYNC","optimalPurchaseTarget":-100,"optimalPurchaseTargetScore":-100,"availablePurchaseTargetList":[],"optimalSaleTarget":-100,"optimalSaleTargetScore":-100,"latitute":"51.212247","longitute":"-0.568243","amountGenerated":"6","pricePrefered":"16","distancePrefered":"11","energyType":"3"},{"index":39,"seed":"CIAPGOIRGMXGASDLKLMNJNIHAPJE9TGQWWTHFSHA9YHRHOWPLDWGHRHEXYQBRFCDUIMCGDTBGCBVEPFIC","address":"SFJKCBHJCHKZUOMHPDSNSFSZSIQGAQNTFUWJLXTJOCQDZWYACXBDHHOAXLVFYNISOVXNMRBAPMLVPQPAY","optimalPurchaseTarget":-100,"optimalPurchaseTargetScore":-100,"availablePurchaseTargetList":[],"optimalSaleTarget":-100,"optimalSaleTargetScore":-100,"latitute":"51.978747","longitute":"-0.302931","amountGenerated":"9","pricePrefered":"14","distancePrefered":"13","energyType":"4"},{"index":40,"seed":"VBOPOMHEFPASKRVFJNFPBDVNCEGTSJNLCLAV9YFCTS9PUPOPLMQDRHUMY9WUACBORV9WXAGSGHJCCAKQY","address":"MCALWMSGYKRNCQ9MQIQFKOZJR99LLGLHPAZH9VONNUTCYTCTKCAGSUSMCTTGWNEHD9IAZSSKAOZPHXLUZ","optimalPurchaseTarget":-100,"optimalPurchaseTargetScore":-100,"availablePurchaseTargetList":[],"optimalSaleTarget":-100,"optimalSaleTargetScore":-100,"latitute":"51.532538","longitute":"-0.152125","amountGenerated":"7","pricePrefered":"15","distancePrefered":"15","energyType":"2"},{"index":41,"seed":"BH9ELJCKYHPRA9CVHONVDVDTYKCEJRQJJFLDPYXMCURWCNFPMNNSYGWNDY9JWIDQJCPMY9NMXOQGOGXUH","address":"ZQIHVE9MBDORDLJTWPNGMIKQLLUGYPREOKBLVFI9OUQ9CGMCFWNKCERVHYTCINDBTJRZUSPUMDXSUPGBC","optimalPurchaseTarget":-100,"optimalPurchaseTargetScore":-100,"availablePurchaseTargetList":[],"optimalSaleTarget":-100,"optimalSaleTargetScore":-100,"latitute":"50.968662","longitute":"-0.222414","amountGenerated":"10","pricePrefered":"14","distancePrefered":"10","energyType":"2"},{"index":42,"seed":"USIDXG9LF9L9FVSSCHBPGQECQOLWWEDMWYMXTHNEBANEHGKEFAEEOOIKFUEORQXK9DQCJFMTMPGSNNB9K","address":"ESOATGPTBXMADOQTLCNIB9ZJMZIFZDIFSAEYVTVZ9DVYTTNVXFJQAKTPGUBHYATIKEXIXBZYWKVRIIZLX","optimalPurchaseTarget":-100,"optimalPurchaseTargetScore":-100,"availablePurchaseTargetList":[],"optimalSaleTarget":-100,"optimalSaleTargetScore":-100,"latitute":"51.804161","longitute":"-1.734338","amountGenerated":"9","pricePrefered":"16","distancePrefered":"14","energyType":"3"},{"index":43,"seed":"TYSGQTFDYBLTGIB9RVFTUKIHSMQDKDKKCPADFICUCNWVLYFC9DVWCQTIIERGFTVSIBYJMH9O9HTXBLRXC","address":"EFHSKUFMPLPVRUWNECR9EGZVREJEALS9YNZMIEOVARNBFAPOKDICILZEPVE9DIDIZYVVRGYSMSLIOGZPA","optimalPurchaseTarget":-100,"optimalPurchaseTargetScore":-100,"availablePurchaseTargetList":[],"optimalSaleTarget":-100,"optimalSaleTargetScore":-100,"latitute":"52.253397","longitute":"0.217355","amountGenerated":"9","pricePrefered":"16","distancePrefered":"13","energyType":"3"},{"index":44,"seed":"YAYEDNR9YRVCWPJVNOMRPUAEGPKEYIPACLUY9LYFQUBOMXLTQHMROONCFJXGXVHDWEFMEXHGFCJNPDKLW","address":"BPRYQTRVDCOZ99SHDIECSNSYYWGKUJWWNCKV9ZIODYW9VRWGEBNY9VQUDVEHSGZBUASPPODAVAKOPZSDW","optimalPurchaseTarget":-100,"optimalPurchaseTargetScore":-100,"availablePurchaseTargetList":[],"optimalSaleTarget":-100,"optimalSaleTargetScore":-100,"latitute":"52.215210","longitute":"-0.171150","amountGenerated":"6","pricePrefered":"14","distancePrefered":"11","energyType":"3"},{"index":45,"seed":"R9FRPNFKYRUJPPDKTQSOXPAXIJKU9DDSJDQ9NBMPYGELKCCNODRUXSN9JHVDFMRCXVJGFLFXKQVBPRCK9","address":"FJQPDZLENQDMTSG9PXGJXZKBWKBKIFGGUWMLNRORPIGUFPHWNRTSPAFYFEQGIUASXXTNGXBUUGPZEU9BB","optimalPurchaseTarget":-100,"optimalPurchaseTargetScore":-100,"availablePurchaseTargetList":[],"optimalSaleTarget":-100,"optimalSaleTargetScore":-100,"latitute":"51.245786","longitute":"-0.000775","amountGenerated":"6","pricePrefered":"15","distancePrefered":"15","energyType":"0"},{"index":46,"seed":"GMYLOUSBPHHGNCPTECEIRAWUSJXIXA9KUXETXOVLMJITKWWVXXOVOQQFKKPJXJCXLWWCKSCYWIOXVETDM","address":"TFMNZXWYIMMGUST9RNZKJVKPYJRTIXCIHESHFVMRMWNJHYQ9HTBCNQGPOTLURYNMBARXHOGMZNIPAAHSW","optimalPurchaseTarget":-100,"optimalPurchaseTargetScore":-100,"availablePurchaseTargetList":[],"optimalSaleTarget":-100,"optimalSaleTargetScore":-100,"latitute":"52.416592","longitute":"-0.386440","amountGenerated":"8","pricePrefered":"16","distancePrefered":"13","energyType":"1"},{"index":47,"seed":"GGSUNNPFXMHTHDKCGIQKJXUJUCFYSJFUGXVIFRSXY9WOBYXODTTMVBFYJLTXYGSRSFURAPAPOJRSMVVNQ","address":"ESSUWNYVPPGAXVRCNOZPDDAQLH9LJYKOWSPMQZKYKIWCIDYJ9DSJQ9QJXON9XUNEGNMVGWGTVXPK9HHTD","optimalPurchaseTarget":-100,"optimalPurchaseTargetScore":-100,"availablePurchaseTargetList":[],"optimalSaleTarget":-100,"optimalSaleTargetScore":-100,"latitute":"51.921650","longitute":"-0.771325","amountGenerated":"6","pricePrefered":"15","distancePrefered":"15","energyType":"1"},{"index":48,"seed":"FWDDKBLLUXILULKYGCYFTICRHRPVNQTWOIDBJKPEOVVDLRFNSQGEHRGXHN9HDEXTGE9WUNDB9IK99YILQ","address":"LIASMXWAHCJPHQXHPDKRUHESRFK9KLASWRCEJQUCOTQPUNXZVAISRODOOZVLNQEGPWIGSPLYIAPGOOUOW","optimalPurchaseTarget":-100,"optimalPurchaseTargetScore":-100,"availablePurchaseTargetList":[],"optimalSaleTarget":-100,"optimalSaleTargetScore":-100,"latitute":"51.540043","longitute":"-0.797028","amountGenerated":"6","pricePrefered":"16","distancePrefered":"13","energyType":"4"},{"index":49,"seed":"C9AKMUYJSUV9T9DIVNGFEEJRMJQWKDJVGHSJJIQQXADLDRNYEKIDGKLOJYUVLIUHUCPDCQC9IRDAFQDQL","address":"CHTZFCWMTYROGCRRAPHXTRROVPJBFU9BPQCYCNOJZANHDCZAAJJSAXWOVVPENXIDLXICCBDXXDOOMVXRD","optimalPurchaseTarget":-100,"optimalPurchaseTargetScore":-100,"availablePurchaseTargetList":[],"optimalSaleTarget":-100,"optimalSaleTargetScore":-100,"latitute":"52.255623","longitute":"-1.562564","amountGenerated":"7","pricePrefered":"15","distancePrefered":"15","energyType":"4"},{"index":50,"seed":"KWSKPXDD9FEJFPOCGMRWSKJFSWCORESOJCDGILQPQNLMEXMMAMDFYJTHDDFXJWSLGFUPWAK9EQKVVAYRT","address":"AXQFOWDWMCVKTM9KCNOTEYICJMDDUGJPBFIZWYCVEXONFWHXZXGLVSBNSVYDPMCRFBUUVLFAE9ZCEPJHA","optimalPurchaseTarget":-100,"optimalPurchaseTargetScore":-100,"availablePurchaseTargetList":[],"optimalSaleTarget":-100,"optimalSaleTargetScore":-100,"latitute":"52.350477","longitute":"-0.634267","amountGenerated":"8","pricePrefered":"15","distancePrefered":"12","energyType":"3"},{"index":51,"seed":"HEKWUYXPL9IKKDXFOGILPPIEFPIIXSMYMCBEWBQUNIDOMDVCIQGFFVUBLNWKNGYSTCQSSICHDN9GPCFFQ","address":"YBD9TN9EAJSFNQTQRXMWBNIBMYTDEDGMKPGQEORDOINUJMTJQHFONLBLHBJDQJGZAZSYPI9VORLDRWGYY","optimalPurchaseTarget":-100,"optimalPurchaseTargetScore":-100,"availablePurchaseTargetList":[],"optimalSaleTarget":-100,"optimalSaleTargetScore":-100,"latitute":"51.399864","longitute":"-2.220443","amountGenerated":"6","pricePrefered":"15","distancePrefered":"15","energyType":"2"},{"index":52,"seed":"PSSQUD9JOVYCXHVJXLUOICKHBKTGF9O9OV9UOEEQUOKGVXYRXHD9TS9QOCXKDTBTOSBXXPEURKLRWP99M","address":"IIGFXX9GOXNJYJSIN9NGIBJOMJPDEXJEHCEPQDYOENQYXHQVDQRZKNOORYYPSXADRTYNDNGBAQLKOHWMY","optimalPurchaseTarget":-100,"optimalPurchaseTargetScore":-100,"availablePurchaseTargetList":[],"optimalSaleTarget":-100,"optimalSaleTargetScore":-100,"latitute":"51.571974","longitute":"-0.908869","amountGenerated":"8","pricePrefered":"14","distancePrefered":"11","energyType":"0"},{"index":53,"seed":"TSOCTFHOVWSUWHVGBQQKWCXVGHESYIVQDEMUHIOLG99XXHYAHDWVGYCWMBHNMPGFXWCFXWDTBKPYNLBAU","address":"AHAFACPHGSMVQQIAZCYRHRKTNBVKLYGMVOLIEBEJLZMNLYHFBVKOQT9KJEBRFPGCINRMSVNNQFWH9C9YZ","optimalPurchaseTarget":-100,"optimalPurchaseTargetScore":-100,"availablePurchaseTargetList":[],"optimalSaleTarget":-100,"optimalSaleTargetScore":-100,"latitute":"51.815004","longitute":"-0.807376","amountGenerated":"6","pricePrefered":"15","distancePrefered":"10","energyType":"3"},{"index":54,"seed":"RAVPV9IOGISGHGDGEOQJFHKYAB9USEPOJEPOJHAREOQKIXEJUWPBQGYKTOQFENJJKISOEBVELHMY9XD9K","address":"PIPUJLHGWCVIDNJCUPAIJJDNANGTQEMNRL9NRUYCYEJBLOEMDVAHWTMAUUYUXRYFHQSZATMHOFNEPKLCZ","optimalPurchaseTarget":-100,"optimalPurchaseTargetScore":-100,"availablePurchaseTargetList":[],"optimalSaleTarget":-100,"optimalSaleTargetScore":-100,"latitute":"51.274516","longitute":"-2.034920","amountGenerated":"7","pricePrefered":"14","distancePrefered":"14","energyType":"2"},{"index":55,"seed":"PQRSHTWULY9SKJHAKRAUKOO9NHGAXWGXDOPCYWTDGPWDPXJGKKQV9RSXERSHPSLOFSRAHFCLFQPNEBXAR","address":"ZMVWLXYBCNQHYQFUNEBFNTCEJABJBPLTXGFTWJKV9FSZSKPP9HASXMFJSXHRSYHGMCCHWFCHODAEYVEK9","optimalPurchaseTarget":-100,"optimalPurchaseTargetScore":-100,"availablePurchaseTargetList":[],"optimalSaleTarget":-100,"optimalSaleTargetScore":-100,"latitute":"52.201713","longitute":"0.232348","amountGenerated":"6","pricePrefered":"16","distancePrefered":"14","energyType":"1"},{"index":56,"seed":"TFC99AGKHJFCJQFHFFUTFKNAUFIVAYLTQPRV9AQLLNBSRICHJYOSQGDIWPLANYSPLBCDYSTPKQSX9DISC","address":"WFBFOTZCBPKPTYPUSMDESWILJDSOMGLBFDCGPXBQMHMILVPETUPTEJMK9ARWHUEUGOBFBKCSKL9AEATN9","optimalPurchaseTarget":-100,"optimalPurchaseTargetScore":-100,"availablePurchaseTargetList":[],"optimalSaleTarget":-100,"optimalSaleTargetScore":-100,"latitute":"51.356478","longitute":"-1.175742","amountGenerated":"6","pricePrefered":"14","distancePrefered":"13","energyType":"0"},{"index":57,"seed":"SHICAYMMLAULDLPFCWUSQWDESR9CAEGLNMVIKPJ9DGIMECTKORURYDQXQCVUYQVE9BPU99HTBOGFYXB9T","address":"KPISYCFGIIOVIIJFJYSS9NQFDCYANYGHBFCZEUCAMIEIAQGLIDIZXDWCMEA9TRWWXKMXYKCECKDFRVXGA","optimalPurchaseTarget":-100,"optimalPurchaseTargetScore":-100,"availablePurchaseTargetList":[],"optimalSaleTarget":-100,"optimalSaleTargetScore":-100,"latitute":"50.990578","longitute":"-2.211568","amountGenerated":"8","pricePrefered":"15","distancePrefered":"13","energyType":"4"},{"index":58,"seed":"ADYDWIINCLVVQFGWMAY9KGANPTNAEIJTDQPVGJPDL9QSHQRNQMWXYAME9KPPEIKTIXJQKXXAYGOQDADGX","address":"MOEPQQTONZUFSTXJJFCDAFOSJJYUHHVJKBAETRFIYLSUYGXGFW9BRXHQIESXLTHMZSKMAKFIQMPJYYTWA","optimalPurchaseTarget":-100,"optimalPurchaseTargetScore":-100,"availablePurchaseTargetList":[],"optimalSaleTarget":-100,"optimalSaleTargetScore":-100,"latitute":"51.375793","longitute":"-1.534944","amountGenerated":"8","pricePrefered":"16","distancePrefered":"11","energyType":"4"},{"index":59,"seed":"NKLCSWQMIJQEBUNDKCYSWNBX9SBKTLUPYKVHLMMMGS9OBRTQKXXSIDCWRRCUGYWIA9CHKTCAGSJUXKCLS","address":"LNGYKXTJOYZKRAIKGKVUDHJRUKYBRVEZIPBOOOHYVMBKAUXZKCZGPPXSL9LZDXIIJAZLVTDMRWXCRHSU9","optimalPurchaseTarget":-100,"optimalPurchaseTargetScore":-100,"availablePurchaseTargetList":[],"optimalSaleTarget":-100,"optimalSaleTargetScore":-100,"latitute":"51.150898","longitute":"-1.447152","amountGenerated":"7","pricePrefered":"16","distancePrefered":"14","energyType":"4"},{"index":60,"seed":"RVDKBFBWYTVPPKXGHVESMDXNNCWLXQTXTOUKKXCKYEMKNYHVQDHTMEEOYULDSDCQMCGUGFMUDUNVPDOXW","address":"JFDQHSIBUSGFBRUZKETWIBPGKF9SXNMUNKLZMVAZECTPCRGELDROOSTNKXUKCVPCEQVYPLUNOMLMNQJRC","optimalPurchaseTarget":-100,"optimalPurchaseTargetScore":-100,"availablePurchaseTargetList":[],"optimalSaleTarget":-100,"optimalSaleTargetScore":-100,"latitute":"52.365500","longitute":"-0.949079","amountGenerated":"6","pricePrefered":"16","distancePrefered":"11","energyType":"1"},{"index":61,"seed":"REFBWFBESQBJDNIUCHDMBCWY9INYFBAFJSVJOPTYRKRGSNBGYLGKF9TVUNITAIGUFIDAYAMCFHMWGLLTK","address":"9TPXVIFJMZEDRWCNGBFBWQEUQWTCVSDVMLOAPBJMEATPIUOGYEDOUSFJRGFBHHGFQNSOSBYGDXKUTXOTW","optimalPurchaseTarget":-100,"optimalPurchaseTargetScore":-100,"availablePurchaseTargetList":[],"optimalSaleTarget":-100,"optimalSaleTargetScore":-100,"latitute":"52.100563","longitute":"-2.314900","amountGenerated":"7","pricePrefered":"16","distancePrefered":"14","energyType":"1"},{"index":62,"seed":"LGSWGCFABHQHYGVIYMVPTAIDJYJKRDXQMQI9LFNXEOWFGFUSRHMQAI9DFWDQRCEAEMJSTUDHKRAURGGUJ","address":"BHEVGCRH9RTPPANMWFYAWNVLDCO9KTFOOMUIXNPNMZZDEQRTUIOERDURQNZKNRSG9MPHU9DUUXYUSSKY9","optimalPurchaseTarget":-100,"optimalPurchaseTargetScore":-100,"availablePurchaseTargetList":[],"optimalSaleTarget":-100,"optimalSaleTargetScore":-100,"latitute":"51.889895","longitute":"-1.958544","amountGenerated":"8","pricePrefered":"16","distancePrefered":"11","energyType":"0"},{"index":63,"seed":"TJTRILBAYMN9UACJIDLBLCVXUFET9MMBJDSM9BTDFLGOAKXCGV9VXENTHHVWDKGDADDHEWIJUENPEUPGE","address":"VQ9LDOHRUOMBJJIWMQCEVHUKTJXGKVFYHSOQHCDAUZUXBARMMTQIWEONKGGQIAXOQRU9VATEDFVJIGHJC","optimalPurchaseTarget":-100,"optimalPurchaseTargetScore":-100,"availablePurchaseTargetList":[],"optimalSaleTarget":-100,"optimalSaleTargetScore":-100,"latitute":"51.931112","longitute":"-0.563809","amountGenerated":"8","pricePrefered":"16","distancePrefered":"12","energyType":"2"},{"index":64,"seed":"DEOOSIANJFNDUNXNCHCMGKKXFQJHJORS9DLFOELDSEBWJVWSDVSGBVOVBHTC9CWED9LTTPLMH9TLDYPPC","address":"VZGGSWBJDGYXTQUEFHTGULMOP9SZBTNUZODGLVZNOXBBXLEPERRNTWJCKERWGVDETQBUYPFPO9PXGZTCY","optimalPurchaseTarget":-100,"optimalPurchaseTargetScore":-100,"availablePurchaseTargetList":[],"optimalSaleTarget":-100,"optimalSaleTargetScore":-100,"latitute":"51.810622","longitute":"0.256822","amountGenerated":"9","pricePrefered":"15","distancePrefered":"11","energyType":"2"},{"index":65,"seed":"K9KGJMGLKUQFOKIKKWGUNAXQM9YJR9XYRHCULGVYQR9NGTOCFRNVYMNYEHAGFWHCUFXQWQFYNTLMDM9MW","address":"SDXTJJLADBQJMPXIAEGNUENUXGTUOXQWEPQYTK9GMEKLUKJTZAWTIVPLYJUIQR9UDBDOFAJERRWOCEJBC","optimalPurchaseTarget":-100,"optimalPurchaseTargetScore":-100,"availablePurchaseTargetList":[],"optimalSaleTarget":-100,"optimalSaleTargetScore":-100,"latitute":"51.822763","longitute":"-1.639446","amountGenerated":"7","pricePrefered":"15","distancePrefered":"13","energyType":"1"},{"index":66,"seed":"NYJGUEHFFQ9SDMABS9UIGDOQPP9HQJYCQ9DWADLNQMCQDBYIXU9BVTJMTOVDCNXU9DNUOMODCEEEJCWHA","address":"OVUZNTPTYVNSYNSKTHEYPTPHPHTTTBPVWGPJIB9H9WLHPFL9SKJVYNIDIHB9CZPCZZHLB9PMSJBCX9WPB","optimalPurchaseTarget":-100,"optimalPurchaseTargetScore":-100,"availablePurchaseTargetList":[],"optimalSaleTarget":-100,"optimalSaleTargetScore":-100,"latitute":"51.626367","longitute":"-1.106651","amountGenerated":"5","pricePrefered":"15","distancePrefered":"15","energyType":"1"},{"index":67,"seed":"CXEFCPYOBUSALS9HLLUBHDSJLBPMJRVMLFBOVJAKQSMCVSBYJKSULOQUOJJVUXNDWNLRNYFKWUYGNV9XI","address":"J9GCYXSBYUCOTINUMMDOER9RFDNYYPGYEXWMRLVIF9CQCOCRGGPASQLURUMKDQME9RAQJFNZEWEFTEXIW","optimalPurchaseTarget":-100,"optimalPurchaseTargetScore":-100,"availablePurchaseTargetList":[],"optimalSaleTarget":-100,"optimalSaleTargetScore":-100,"latitute":"52.059322","longitute":"-2.381822","amountGenerated":"9","pricePrefered":"15","distancePrefered":"14","energyType":"3"},{"index":68,"seed":"UXFMEQXIGMBXPPBADDEFT9OKQCTXVA9UCKXAIKIJFTLP9LNGEHMIERAKNXCFVNKHMXHSBTDXGXQRNF9HO","address":"VUKUHHRSNYCMEDFCNYWTXWQI9EOLRTRZR9TLMDFCYGGQNRVHCRIUWHJPLWZSCTFVCPRBQERNVHBGFYHQD","optimalPurchaseTarget":-100,"optimalPurchaseTargetScore":-100,"availablePurchaseTargetList":[],"optimalSaleTarget":-100,"optimalSaleTargetScore":-100,"latitute":"52.020005","longitute":"-1.564305","amountGenerated":"7","pricePrefered":"14","distancePrefered":"14","energyType":"1"},{"index":69,"seed":"LQKHNHSFAJQALOLXLFGOIVIOWA9DHWCNKPYJFHECBDNY9BKCCEERQJABAHILLQLUIGCYBMGWCFTPVPBCL","address":"PVCEWTWBXZUUKHOKPLQOMOQBEWRSMNISYUUHYAOTLCQYVLAORVZLFQGHQHEOLHLNHCGZRIP9QRBIVFSCD","optimalPurchaseTarget":-100,"optimalPurchaseTargetScore":-100,"availablePurchaseTargetList":[],"optimalSaleTarget":-100,"optimalSaleTargetScore":-100,"latitute":"52.155246","longitute":"-0.985242","amountGenerated":"5","pricePrefered":"14","distancePrefered":"11","energyType":"3"},{"index":70,"seed":"NRGRLTYBBMSJGLWYHFGLCYSCTAXLJSBTFFHPQGLSESDHBEMKGWECWDPKJVYMMYUFNWOXARFKBWRX9FOAL","address":"ECFDZFGCQADOREOFLJ9JAYJKKSRFCODTJIYBWZJLDPDMALUVQPSYQWHBQ9NIZKRZ9LMYLYUJXFDNNNVV9","optimalPurchaseTarget":-100,"optimalPurchaseTargetScore":-100,"availablePurchaseTargetList":[],"optimalSaleTarget":-100,"optimalSaleTargetScore":-100,"latitute":"51.514695","longitute":"0.284805","amountGenerated":"9","pricePrefered":"15","distancePrefered":"12","energyType":"4"},{"index":71,"seed":"OYPFYRTLNAGMM99CHGKQWMANRCAQECUVYSTUYRJOIWAGDDIQWHCTWYHKUJ9ARYOIGJVDOCIEJTOIWTFGW","address":"GERLVMOXTBBZIGOGNFGMXHCHZGWULR9AVFY9WHGWDSPAYFEXRIGAXVYZZ9SUECFE9HMCHHJ9RESZOWDV9","optimalPurchaseTarget":-100,"optimalPurchaseTargetScore":-100,"availablePurchaseTargetList":[],"optimalSaleTarget":-100,"optimalSaleTargetScore":-100,"latitute":"52.062367","longitute":"-2.297665","amountGenerated":"8","pricePrefered":"14","distancePrefered":"14","energyType":"1"},{"index":72,"seed":"MVKGYBFFKPERFJPBDIOVAY99DAXQNRREIBTJIFYDUGNVIFYKGDFXPXXOBVFIJRG9BSDKTUECUANXVGUSO","address":"OLXGK9ZOEJXLZWYGFO9YJQZFAOWJPSAXFYMUIDRTV9BVOMEFNZ999NZGFZGUYEOLTQVJLIFHGVNQYYKSC","optimalPurchaseTarget":-100,"optimalPurchaseTargetScore":-100,"availablePurchaseTargetList":[],"optimalSaleTarget":-100,"optimalSaleTargetScore":-100,"latitute":"51.434993","longitute":"-0.065583","amountGenerated":"5","pricePrefered":"14","distancePrefered":"14","energyType":"1"},{"index":73,"seed":"DIYIAIVPHHIHMSOYERYSIWFJJKHTDVWJYLGWVBHBXYLVBSOCUBGGKALHJKCLISAEGMSDENGUHONNRTANS","address":"XDIASCJKF9GFWENODCWPLPKHTYSWAYQKNEDCCRSTG9QQXEZZAE9YVP9QFWXIRXAYXRBSDNDFUKLIJQWXY","optimalPurchaseTarget":-100,"optimalPurchaseTargetScore":-100,"availablePurchaseTargetList":[],"optimalSaleTarget":-100,"optimalSaleTargetScore":-100,"latitute":"51.333103","longitute":"-1.835500","amountGenerated":"6","pricePrefered":"16","distancePrefered":"13","energyType":"0"},{"index":74,"seed":"BATEILIPXFRHXCLSR9LUVRSWIETXKPJPAXICKPHBYFXOFBJXJWPTBJUJKOOFXYJYJFAXSJPQSVYRGI9UC","address":"NIMLGNLKRJV99OCNJPKIMXNWYMLKEMAYOEYMNTSAQQWPW9REDIBYYTJADLGIAAANEWNJEBIWSTAMUFWCD","optimalPurchaseTarget":-100,"optimalPurchaseTargetScore":-100,"availablePurchaseTargetList":[],"optimalSaleTarget":-100,"optimalSaleTargetScore":-100,"latitute":"51.623960","longitute":"-0.071879","amountGenerated":"6","pricePrefered":"15","distancePrefered":"14","energyType":"1"},{"index":75,"seed":"CMCKTGBYGQYRHPBCETJFVSJWJ9BEJWNPQSUMOOIIKDVW9VEHRHMQSM9MRDOGYWXOXTSQADEYHDBYYEOKL","address":"NOBUHNCRZRJHCJVSNTIFMINEKVYIZOJLTS9AOFWIJPEDJBCAHGBLXBGANBGLSUTRYKQFBFSWOBLFTDQQ9","optimalPurchaseTarget":-100,"optimalPurchaseTargetScore":-100,"availablePurchaseTargetList":[],"optimalSaleTarget":-100,"optimalSaleTargetScore":-100,"latitute":"52.111273","longitute":"-1.889252","amountGenerated":"9","pricePrefered":"15","distancePrefered":"14","energyType":"1"},{"index":76,"seed":"NNSLOPKWFQOJJOAQFSUDEXXNVE9AHFYFDPSQKAXVFIPELGWRHQNCOBDDBYAYSQKCOFDPLGVCCFOQKRYIU","address":"OVBTYVPHHGPFXXRJPZPHMXMCCXRRMMSHCEQYMUZDQYKTLMRIRTJUANCUCBQIRKALBFEHGAJVAHCVAOUMD","optimalPurchaseTarget":-100,"optimalPurchaseTargetScore":-100,"availablePurchaseTargetList":[],"optimalSaleTarget":-100,"optimalSaleTargetScore":-100,"latitute":"51.169104","longitute":"-1.362701","amountGenerated":"6","pricePrefered":"15","distancePrefered":"15","energyType":"0"},{"index":77,"seed":"OFULLSFRUEHUTSJLBCYQSDHDUHB9HOKW9PFGFEGOLXBXWVKRNBQHBKSNFKPLNY9BPCLXCGBU9LOXHHMNG","address":"JILDIYLDUV99K9NPULRBHXLRXATXBLBPUHCISLNQHAUTKBIKDGMGQUVJXTOUTITUKLWMEHASECBFDQTRY","optimalPurchaseTarget":-100,"optimalPurchaseTargetScore":-100,"availablePurchaseTargetList":[],"optimalSaleTarget":-100,"optimalSaleTargetScore":-100,"latitute":"52.186054","longitute":"-0.157498","amountGenerated":"9","pricePrefered":"15","distancePrefered":"13","energyType":"1"},{"index":78,"seed":"DJRXUUOHXVPHNJGOVMCAYPQQKMLQQDELRBNHLRRBDPQIAOTJAGBTCFCJPX9QIRJWMOXBNVGOJX9SQLOXX","address":"WDASPQTEVVHQCWLQMWADHVPLOEIAKWKNJMADTSPTOCOOZYPQBRWLCF9WCPBIGQDSBPDBSSODIWVYKENFC","optimalPurchaseTarget":-100,"optimalPurchaseTargetScore":-100,"availablePurchaseTargetList":[],"optimalSaleTarget":-100,"optimalSaleTargetScore":-100,"latitute":"50.963810","longitute":"-1.403512","amountGenerated":"8","pricePrefered":"15","distancePrefered":"13","energyType":"3"},{"index":79,"seed":"TBMXG9WWV9BJHLBASPWMCTNKFGWLIPBGCVH9DPNIDUPDBYACXMEXDCJPMMVKT9YR9IVNWRNRKSCSY9VTW","address":"ZSFTWBJGZPQRILVFHJPPYX9QCGKRIGRSHFCWINYIIE9IQDIEXCIPQIM9LYNOCUYSDOWIPNIWBJPFTAOZW","optimalPurchaseTarget":-100,"optimalPurchaseTargetScore":-100,"availablePurchaseTargetList":[],"optimalSaleTarget":-100,"optimalSaleTargetScore":-100,"latitute":"51.353540","longitute":"-0.755398","amountGenerated":"6","pricePrefered":"15","distancePrefered":"10","energyType":"3"},{"index":80,"seed":"UFGJVY99CLECIMTYXNBCTLTUWVLEDSATRPMVXTOMBWJNNOMNDGH9FTXMUGDJBCFEVLDIXX9ARIBVBWNDL","address":"WUHGDBXJHYRIDPHINBOIZEVZVHWDOOGYVHMKTTFIEJEBCLKYPTYEOKVY9FUZLHFAEXCPLNIMOVNQDJCQW","optimalPurchaseTarget":-100,"optimalPurchaseTargetScore":-100,"availablePurchaseTargetList":[],"optimalSaleTarget":-100,"optimalSaleTargetScore":-100,"latitute":"52.128279","longitute":"-0.620928","amountGenerated":"8","pricePrefered":"14","distancePrefered":"11","energyType":"3"},{"index":81,"seed":"NO9UEDODAXRN9CIFDRWHVUBQQIJEPA9YWNKTYIMPGMGCLMEGFSCKENTNLEVB9G9PVHAGLUHBXTSFJWCIV","address":"IB9YJIULRMRDFPGGCMRLKLLEULYFZCDRCUOLZUMNNAZD9ZCBIXZFIOGQJJKRU9HQUJNEZQMF9NKGNGNPX","optimalPurchaseTarget":-100,"optimalPurchaseTargetScore":-100,"availablePurchaseTargetList":[],"optimalSaleTarget":-100,"optimalSaleTargetScore":-100,"latitute":"51.085195","longitute":"-0.997806","amountGenerated":"8","pricePrefered":"14","distancePrefered":"15","energyType":"4"},{"index":82,"seed":"UBLLNYMSNYGLOVEVJLWIUPSKPURCATVOKHPVSWXEDQJC9SHALPQRSCMTFXOFWTKCSUSNCYFBJKLBODXYQ","address":"XUTGHEVXPOGNUNFTFOA9QXULXELTMEOGRMMJIYBDRECUKBREYTNVKAVUS9KWXCQBXWAQPUNKSW9QYCTCC","optimalPurchaseTarget":-100,"optimalPurchaseTargetScore":-100,"availablePurchaseTargetList":[],"optimalSaleTarget":-100,"optimalSaleTargetScore":-100,"latitute":"51.096230","longitute":"-0.901930","amountGenerated":"6","pricePrefered":"15","distancePrefered":"14","energyType":"4"},{"index":83,"seed":"MSMPQRDYQMDAAPSQILNOVTCSARAJMUTDOCMJEFRCWSIHOOCLMCGVTAWRNARSECDUTSIBSIQVGKGAYHGMP","address":"XCLUNHWPTQRCXAEHTJDRVFBOLUMPWMRUMKOBZQEEOIBGLNHEMQXSLGHWSDXGJWRPFGNMQWZCRPLIMKGBY","optimalPurchaseTarget":-100,"optimalPurchaseTargetScore":-100,"availablePurchaseTargetList":[],"optimalSaleTarget":-100,"optimalSaleTargetScore":-100,"latitute":"51.316933","longitute":"-0.130378","amountGenerated":"9","pricePrefered":"15","distancePrefered":"10","energyType":"1"},{"index":84,"seed":"NAXAMKMXVFWALHERVI9QRNAVSIPEBYDNJOFMENKPHBROBANOEMLQHWUFAGJWARPOFVBHJQOPEBEXHDW9T","address":"LXSURMTLLYANYBYJFKWIEMKD9EZZSRJLXJXHAGZTDYASXWXZYJCXTKXAJODWYMCBJ9MNFRBKCKYIZKGVD","optimalPurchaseTarget":-100,"optimalPurchaseTargetScore":-100,"availablePurchaseTargetList":[],"optimalSaleTarget":-100,"optimalSaleTargetScore":-100,"latitute":"52.310295","longitute":"-1.586924","amountGenerated":"6","pricePrefered":"16","distancePrefered":"11","energyType":"4"},{"index":85,"seed":"PKURLOAJWSGCQRDEMXLYXRBLTLEFDSWL9VPNOGSBSUBJMBDFHAQYQRCW9GPAVIWMCGXMUVIUEFWHEQPGJ","address":"CPQDBQXVLAUIMHJB9ABYDOKEWZDISIKOVKLNJAXPJLAXQJCTKRRSGP9QQ9SIBTIDYYQJYOUALFPOSXDKC","optimalPurchaseTarget":-100,"optimalPurchaseTargetScore":-100,"availablePurchaseTargetList":[],"optimalSaleTarget":-100,"optimalSaleTargetScore":-100,"latitute":"51.913541","longitute":"-0.165069","amountGenerated":"6","pricePrefered":"14","distancePrefered":"13","energyType":"3"},{"index":86,"seed":"BRBBYBPOGKJLY9DNUQ9NEKOSDUHOTGT9JDTQTFFTFEDQYPYURHPTRCC9DGWKHA9WDWVP9YALXSVH9TTBJ","address":"QCTJYCOZ9CDDEJFVKRWAYRGYFVRBAQYVWJWTJXBMSBONWCEIAQRILORVCQQVWW9WJEINTMBCSZ9QNUMG9","optimalPurchaseTarget":-100,"optimalPurchaseTargetScore":-100,"availablePurchaseTargetList":[],"optimalSaleTarget":-100,"optimalSaleTargetScore":-100,"latitute":"51.165638","longitute":"-1.535065","amountGenerated":"6","pricePrefered":"14","distancePrefered":"12","energyType":"4"},{"index":87,"seed":"GMBGKPPWYQIXXSWEUOIHVGRPGUOKYHCCCBWHBXIUHX9IRLWOOIQRIWPIOMNKXNUILXMEAFEDVJXAWU9DX","address":"Z9LXWXF9XLVYIXRXPXJDMVLXDV9OCONKDAHSTPDKJNMRCRPXFTMGANRQRJZLLETXESJWPXFJDVVSSKVAD","optimalPurchaseTarget":-100,"optimalPurchaseTargetScore":-100,"availablePurchaseTargetList":[],"optimalSaleTarget":-100,"optimalSaleTargetScore":-100,"latitute":"52.090218","longitute":"-0.053571","amountGenerated":"7","pricePrefered":"16","distancePrefered":"13","energyType":"3"},{"index":88,"seed":"HPIMGPVBHVVITBGVCKKSRIXHMVOL9ELBWTJPQOCDDJCRKPJWKCSNLQGXYMYDBFKJUASFJIXWGJTIENGRH","address":"DTJHXAJQQXQRKRMSGOHCMHPTJOTVXLBFHIRKELMCYYLLHOTUQHYJHRG9BFENFIVROVDIRQOXQQPQJCPFA","optimalPurchaseTarget":-100,"optimalPurchaseTargetScore":-100,"availablePurchaseTargetList":[],"optimalSaleTarget":-100,"optimalSaleTargetScore":-100,"latitute":"51.315380","longitute":"-0.546384","amountGenerated":"8","pricePrefered":"16","distancePrefered":"11","energyType":"0"},{"index":89,"seed":"KCFKPOUAPPWHWFCSYCDAULEKCQDFCG9CX9OLCQHUR9GLIAVMDKHQCRNGAVFJJCACGDVYBMGMAOUNVPDAJ","address":"EN9QGPOUUNLRSGMNWZTILZIUKEMKXMULVH9AAQOAEVQDYVADRCEOBHBRIQLPUIKMEOIQUMOCXSOIXOWC9","optimalPurchaseTarget":-100,"optimalPurchaseTargetScore":-100,"availablePurchaseTargetList":[],"optimalSaleTarget":-100,"optimalSaleTargetScore":-100,"latitute":"52.158145","longitute":"-2.305268","amountGenerated":"6","pricePrefered":"15","distancePrefered":"12","energyType":"0"},{"index":90,"seed":"KCYHAGRAFRYRNANKKTWDVYVCBARGYCFBSORPIWGJDBHQEVYLJDXMQETDKDMDUUF9LBOLTO9XBNEFC9PDY","address":"E9ATZGWDQMTRTCMEQKPAGDRQSKAQMZDQ99XTHH9RJOIEJWNSEUJYRHPZXECBONUSKTFQNTDVKDUDUNPBW","optimalPurchaseTarget":-100,"optimalPurchaseTargetScore":-100,"availablePurchaseTargetList":[],"optimalSaleTarget":-100,"optimalSaleTargetScore":-100,"latitute":"51.268809","longitute":"-1.713466","amountGenerated":"9","pricePrefered":"15","distancePrefered":"10","energyType":"3"},{"index":91,"seed":"EWEXQBGCPYQDPOMDUAJECKAHLM9JEPH9LPFICEUNKWIJOCHGOQMMFKSHLPFBCAMUMLMDWEYS9LSPOTIFJ","address":"AZNMTKXBQCRWAPOUYRQIBUIDHFUKZXVQPHIN9XDKEASZNJMXSZWPXTFNTHZREHWNLJQTOFIFIISPICMRY","optimalPurchaseTarget":-100,"optimalPurchaseTargetScore":-100,"availablePurchaseTargetList":[],"optimalSaleTarget":-100,"optimalSaleTargetScore":-100,"latitute":"52.272539","longitute":"-0.795111","amountGenerated":"7","pricePrefered":"15","distancePrefered":"12","energyType":"1"},{"index":92,"seed":"TUXGX9UKJBHHHQIU9QPSECABEUFSEHSDSQSQQPUDHJRPXFPIRHHATGHKUPPIFLDPDOMAGBUWKITWRNRE9","address":"MOKMTMUHNOZ9FT9IFYMHMIQIYWYUA9XNGKYDQCELGUQAZNOKQHUZXF9GS9DPQOLOSKRWUYVMUYGVQWKAD","optimalPurchaseTarget":-100,"optimalPurchaseTargetScore":-100,"availablePurchaseTargetList":[],"optimalSaleTarget":-100,"optimalSaleTargetScore":-100,"latitute":"51.035967","longitute":"-1.555006","amountGenerated":"8","pricePrefered":"15","distancePrefered":"11","energyType":"3"},{"index":93,"seed":"MNRSMJELVVNVXPFWMWTKSJRBLLOCYIXCINJYXTAYKDHPCVRKIKDYEFNAFEKTANGOXRRK9QMSQ9FCMNKWK","address":"YQFUNYLTV9N9JWQ9OIYWGQHKXNPHLBQTXGFRXAJAWWFSXWDLHHPDIF9IRRDENG9FNIPF9LVVHFLDWIY9X","optimalPurchaseTarget":-100,"optimalPurchaseTargetScore":-100,"availablePurchaseTargetList":[],"optimalSaleTarget":-100,"optimalSaleTargetScore":-100,"latitute":"51.353556","longitute":"-2.259357","amountGenerated":"7","pricePrefered":"14","distancePrefered":"13","energyType":"1"},{"index":94,"seed":"FWNMMDNRYYUQQNQUAETMQLUWBGGDPANHEHYSYNBCJNOIJIU9EXLQWIALAOGURVFUEKDLJBIPPBJOWEMWP","address":"WKCTHTEZLPQODJJOVXLBBEGRTULXDTEVXCMMJXLGOJEOU9DYVDTWDJBZRAIOBXA9IVHU9ZUIKBCAUFEP9","optimalPurchaseTarget":-100,"optimalPurchaseTargetScore":-100,"availablePurchaseTargetList":[],"optimalSaleTarget":-100,"optimalSaleTargetScore":-100,"latitute":"51.852453","longitute":"-1.228073","amountGenerated":"9","pricePrefered":"15","distancePrefered":"14","energyType":"3"},{"index":95,"seed":"TAJGRBFV9WWGTIFUMMKVNNPHPMEWSNHDQSTXKFEINDUYRBNRHSIVIHSMY9SNCEWX9LK9FNLDYGCAFHMSY","address":"GWWWLXKOJBWENULDAT9QYKLPSZRBUZYNTRGDPRHRFOGXDHK9PAOZCWWYVTINOGIPRPTAVGWMIONILJDLB","optimalPurchaseTarget":-100,"optimalPurchaseTargetScore":-100,"availablePurchaseTargetList":[],"optimalSaleTarget":-100,"optimalSaleTargetScore":-100,"latitute":"51.791244","longitute":"-1.380804","amountGenerated":"7","pricePrefered":"15","distancePrefered":"11","energyType":"1"},{"index":96,"seed":"BMNLXY9MIV9OLRYETC9IMNPOUGKHWPHJMKTRYLLKHEQTRHPDIYVYNWNDVMRITLIIWGLW9PCTTOLJXMGGP","address":"RFTBSIJNJJXINQQQQLTS9WKPBDMGGE9KNWQIKHZCZOFMIR9METRPWNDUDNRYLEKXVIJWRA9JBQTVFVUMC","optimalPurchaseTarget":-100,"optimalPurchaseTargetScore":-100,"availablePurchaseTargetList":[],"optimalSaleTarget":-100,"optimalSaleTargetScore":-100,"latitute":"51.508330","longitute":"-1.949377","amountGenerated":"7","pricePrefered":"15","distancePrefered":"11","energyType":"0"},{"index":97,"seed":"LPSOVKNOGPOJCTLWKG9SPTGASNPEAMOJGQIKIAAERHXEOVCEHEDKBLD9EJFVTVGTJETYMYFSLCSWJXJVU","address":"NYEUOYQEQYMDTNEBRUQJYOYJIADDNNAMACKRLTCFQEJHDBLROMAXCNJDGNOICVIFQVVVKFWTWN9DKBQWY","optimalPurchaseTarget":-100,"optimalPurchaseTargetScore":-100,"availablePurchaseTargetList":[],"optimalSaleTarget":-100,"optimalSaleTargetScore":-100,"latitute":"51.447922","longitute":"-0.161475","amountGenerated":"8","pricePrefered":"15","distancePrefered":"13","energyType":"1"},{"index":98,"seed":"IVFQNIL9HPMVNDIEHYRGPRPTVJBPWMMWBSEFCOPLCJOEYTXWDIRLNNIOQ9SVFFDCT9RMNMXJPYCCBKPQA","address":"VVEXSWNCUIEWZ9PNMPQVIFRPAYKYRLHJNDPSGYGTEWGLITSIKGRH9JO9IJNQRIOPXQSKVWGYJZBYXMESD","optimalPurchaseTarget":-100,"optimalPurchaseTargetScore":-100,"availablePurchaseTargetList":[],"optimalSaleTarget":-100,"optimalSaleTargetScore":-100,"latitute":"51.631658","longitute":"-0.611716","amountGenerated":"6","pricePrefered":"15","distancePrefered":"14","energyType":"4"},{"index":99,"seed":"JF9FEA9NWVUSPIJF9HQMDRXLUS9QOSDFWMUJTMGWXDJGJYBAIQGJDWPJXLJYQOSELKUOEO9DFJAVRIEGY","address":"PVMDFBRHAZ9NCWLOLHBL9TLIEURZCFJBFP9SNREJMWUGEYBBNYWHVHY9OZOQLZZNJIFYWRKI9PHJEKGND","optimalPurchaseTarget":-100,"optimalPurchaseTargetScore":-100,"availablePurchaseTargetList":[],"optimalSaleTarget":-100,"optimalSaleTargetScore":-100,"latitute":"51.242037","longitute":"-0.885486","amountGenerated":"6","pricePrefered":"16","distancePrefered":"14","energyType":"4"},{"index":100,"seed":"GJKXKXORJXABGWFKPKYIGEQVDTFLEMHJPHMAPHCRNUVINMWYMPEGDSYUOMIQTCKEFM9BA9SKENUKGGPGQ","address":"WUNXDS9VWBBXYMSNGZTPGPGBEAHUPLEQNDGDRT9J9ZFKKZVUXOSXYPFJXHKIQFKQRCVSRSDZHGEUUYBMY","optimalPurchaseTarget":-100,"optimalPurchaseTargetScore":-100,"availablePurchaseTargetList":[],"optimalSaleTarget":-100,"optimalSaleTargetScore":-100,"latitute":"51.732029","longitute":"-1.558553","amountGenerated":"10","pricePrefered":"15","distancePrefered":"12","energyType":"2"},{"index":101,"seed":"BFSFNM9ABI9OGXYKDAAJNHOKTLDQPJSTGYMUKVKDHFKPEHPEFAJHIYCDQJQUOPIXQPQMISHJNBXFJNREN","address":"D9UMYTEVSUHQVKLBTGVFSDCDWCZVQT9AJNAPCWUBYZDDGCRYCRMFVHHICZEYEGAVCGYDQQOGVSG9EBQLY","optimalPurchaseTarget":-100,"optimalPurchaseTargetScore":-100,"availablePurchaseTargetList":[],"optimalSaleTarget":-100,"optimalSaleTargetScore":-100,"latitute":"51.960484","longitute":"0.030752","amountGenerated":"10","pricePrefered":"15","distancePrefered":"15","energyType":"3"},{"index":102,"seed":"QDNJQSXVUNNSIGYVLQWWLBOMP9XJPYBFUEHJNNNWUPESEGRGCIMJMTJFNHBGWSVSTHKGJQVOKFXKNQHHA","address":"9QRWNADVTUVWYLFPZHG9XNAHIHLHTCUFWZQRYXYWTGWZVHHRULGOEZWNLXKJFP99WQCWLYEGXQGDHEDCZ","optimalPurchaseTarget":-100,"optimalPurchaseTargetScore":-100,"availablePurchaseTargetList":[],"optimalSaleTarget":-100,"optimalSaleTargetScore":-100,"latitute":"51.798025","longitute":"-1.617642","amountGenerated":"9","pricePrefered":"15","distancePrefered":"14","energyType":"1"},{"index":103,"seed":"X9WXENFWQFUSTVTQL9XCIOXIKPDYKUQLXOGOSWQHVLCHQOOMCJWBDOTMOBKVPC9EMJBGNGHBRMPSQ9WMT","address":"GSN9HNZIIEGHZFRAYIGPIJKXBREVYTOU9BNIVHPKZZYPIRIZECC9IXGZ9SVVKEOAKLKHOMKISMSOGLN9W","optimalPurchaseTarget":-100,"optimalPurchaseTargetScore":-100,"availablePurchaseTargetList":[],"optimalSaleTarget":-100,"optimalSaleTargetScore":-100,"latitute":"50.978116","longitute":"-1.545747","amountGenerated":"10","pricePrefered":"15","distancePrefered":"15","energyType":"1"},{"index":104,"seed":"BEN9LKEEIVFDUUGSVTR9BHXJ9PISCWOUGTRDLKQICMKCPPVIXFKVTOOVHWSWFXPSEHWFNSDVXNDQTJOYY","address":"NTXVKJFUJSPABWMVKEJARTHVMXDCRDUNOYOZXOEJTAPGITGENRTUYBWSXBNSMFJTPPINDCBDZAZPINQIC","optimalPurchaseTarget":-100,"optimalPurchaseTargetScore":-100,"availablePurchaseTargetList":[],"optimalSaleTarget":-100,"optimalSaleTargetScore":-100,"latitute":"51.252262","longitute":"-0.985086","amountGenerated":"6","pricePrefered":"15","distancePrefered":"13","energyType":"2"},{"index":105,"seed":"KIMFDXXYYYAARLNWLFMNOBISKKXTCRGMVKQVRSPJSTHGXOXYIQ9KLGYIITF9MDIVKGBMEDBSDAEXXTEQH","address":"AQEZEEWRHIBCZQOUUEODMYTYDWWDWJHYUUMSKKUZHTKLJVFGPAYHPAHCCEFRYUSXEMKZKCIMEHPRAGALB","optimalPurchaseTarget":-100,"optimalPurchaseTargetScore":-100,"availablePurchaseTargetList":[],"optimalSaleTarget":-100,"optimalSaleTargetScore":-100,"latitute":"51.509185","longitute":"-1.350001","amountGenerated":"8","pricePrefered":"15","distancePrefered":"10","energyType":"2"},{"index":106,"seed":"QJHSCQJXKCPUGOJJKDSYJYQUAWTQXXDWLJFNBKXCWPUKADANKBVJBNINMAAQNFIVCAMFVRWECLEXCFX9L","address":"MNJTGPI9LNCXKWTDJFKCKENZSAOFGMMCROQBBXCRRXNCQHQBUHTAUXOEFRZXQDUVVFTJULJLOXBBVADGD","optimalPurchaseTarget":-100,"optimalPurchaseTargetScore":-100,"availablePurchaseTargetList":[],"optimalSaleTarget":-100,"optimalSaleTargetScore":-100,"latitute":"52.141650","longitute":"-1.672474","amountGenerated":"8","pricePrefered":"15","distancePrefered":"13","energyType":"1"},{"index":107,"seed":"EVXXVHONMBRPLUWERUJAGWFNTXYGKFONPVJYYVVUEMFCPB9PXPVFXBRLNDDWERRMMCPUAIOCWHPTOPOBE","address":"C9KSEGYXXQBNLEVVRMQDLZLTMDFAHGDZVDYSKYTZMAPIPJAHLVLVMYKPLOIGKDQSMSLYBJSBP9FPROUXD","optimalPurchaseTarget":-100,"optimalPurchaseTargetScore":-100,"availablePurchaseTargetList":[],"optimalSaleTarget":-100,"optimalSaleTargetScore":-100,"latitute":"51.081460","longitute":"-1.052571","amountGenerated":"5","pricePrefered":"16","distancePrefered":"12","energyType":"1"},{"index":108,"seed":"VO9H9HDPVTHYCAMKUSWICOVYMXWF9FPQWNTF9MFCIGYXYAWAUFM9VYISQFXBTQCDXJFERYBKNY9KAABTB","address":"FXBNBZYAHYLTYAVFCKMYS9ZMNTSESOEMCS9ZLHBESHTRMZVHTDCCDHKFJJLDLOSKTIRAKQMPMGNFEBOUW","optimalPurchaseTarget":-100,"optimalPurchaseTargetScore":-100,"availablePurchaseTargetList":[],"optimalSaleTarget":-100,"optimalSaleTargetScore":-100,"latitute":"51.338771","longitute":"-2.202201","amountGenerated":"5","pricePrefered":"14","distancePrefered":"14","energyType":"3"},{"index":109,"seed":"IABUTUJWPSJASNRBECFAYTEQWTFWAEXOQFSBRGXFKABILHNMU9DUG9BSCUTNEVLBMIGIQLAWKB9ABIDNH","address":"VNRFQODRKRSTVBIXWSQJTZRQYDHZRWQ9GBTMOVE9PVM9DDDSZCV9JXDOU9GEJGSBLGRYNWTQDPFTZDEPC","optimalPurchaseTarget":-100,"optimalPurchaseTargetScore":-100,"availablePurchaseTargetList":[],"optimalSaleTarget":-100,"optimalSaleTargetScore":-100,"latitute":"52.183466","longitute":"-0.226645","amountGenerated":"8","pricePrefered":"14","distancePrefered":"11","energyType":"2"},{"index":110,"seed":"UNAHA99XTFJUXHHGONKRMIV9BA9LMKKXRDLWJK9WLDVTRNQEYMTIYRNLNLTTLMCQLAS9QFXCQOJWXA9FE","address":"GMEBOROTSBCISNRLOAMLSPQTBBCRBZBPMCT9BPFAEAJKTZM9IXALRWYNHUEOUZPC9UGLCZEVKLNXVTLAD","optimalPurchaseTarget":-100,"optimalPurchaseTargetScore":-100,"availablePurchaseTargetList":[],"optimalSaleTarget":-100,"optimalSaleTargetScore":-100,"latitute":"51.139232","longitute":"-0.589603","amountGenerated":"9","pricePrefered":"15","distancePrefered":"14","energyType":"3"},{"index":111,"seed":"CGKGVPVOL9OMYPOKO9OTJDRIL9VJPRGIGRTLPYVPHQNTJNCXGSQMI9VTXRUSIFDMLIAYMCURQVOOIPKKS","address":"JEJAAHJGTT9CML9SSUYVUBRTATOB9XVRKBRBR9OSFRFSN9OVKKKZBLDJCFIPEHBQDWBZSDIH9AGXEFAOX","optimalPurchaseTarget":-100,"optimalPurchaseTargetScore":-100,"availablePurchaseTargetList":[],"optimalSaleTarget":-100,"optimalSaleTargetScore":-100,"latitute":"51.300097","longitute":"-0.613360","amountGenerated":"9","pricePrefered":"15","distancePrefered":"14","energyType":"0"},{"index":112,"seed":"HDHCPCQNCYFQGOIUDEBUDKAHGXNWFMGQMT9PEPTXNKKFEXVSTBXIYYXWHKUHSKOVAXMBIDKTKNHYYOBIS","address":"TGUHSPRCJ9GYADZOFQHHRXOBPSUDVXOUACFLTCQHEJQ9KIYKPAWQLHQDOTJSKZXMIGSCFRHCYPUCEUYBW","optimalPurchaseTarget":-100,"optimalPurchaseTargetScore":-100,"availablePurchaseTargetList":[],"optimalSaleTarget":-100,"optimalSaleTargetScore":-100,"latitute":"52.323103","longitute":"-1.212407","amountGenerated":"9","pricePrefered":"15","distancePrefered":"13","energyType":"1"},{"index":113,"seed":"FTNIAGJXDKNSERBWRSTYWFTWJNPRXMJCHHMNVLQSFVDFMUWATU9YDNMMFAMOPCEII9GKWK9NLNTYCLIAY","address":"SZNOWMWYPZJDS9U9RAGJNQCDWTEVRTDPWPVPRLOWNOHSNMHAYKAJIBBSYOMVAIZDQSNRXKUTINISST9EC","optimalPurchaseTarget":-100,"optimalPurchaseTargetScore":-100,"availablePurchaseTargetList":[],"optimalSaleTarget":-100,"optimalSaleTargetScore":-100,"latitute":"52.218776","longitute":"-1.778411","amountGenerated":"9","pricePrefered":"14","distancePrefered":"10","energyType":"2"},{"index":114,"seed":"SODKONOGMYRJWMMTRFBVAQD9NJSQFEKX9COWGFGPS9EWJFIOIRJNCRWDLAHIQY9IYMQARYBPNQIWGMLYI","address":"MJBCEUYOHDFBIVEFR9CJZQIWIZGJNMYZAUKQVYYMG9VXLBJBYDNZAWXHQWTDYUJYITSSNU9Z9NKCMYZLC","optimalPurchaseTarget":-100,"optimalPurchaseTargetScore":-100,"availablePurchaseTargetList":[],"optimalSaleTarget":-100,"optimalSaleTargetScore":-100,"latitute":"51.035351","longitute":"-1.357863","amountGenerated":"5","pricePrefered":"16","distancePrefered":"13","energyType":"2"},{"index":115,"seed":"GPICQDFKDVMPRGO9AHXLTKTVOCACADNENXSQORNBDUPQS9ITYOMLTYDEYLGAHHTJUOKDKIVWJLABWORST","address":"PASDUKQZMMSKNTEQYIILAFWIPYZEDMQBRFSXZMFSDWBU9IDCUAAGSCVKYW9SYOBWOPSFERTITBCIJNSAC","optimalPurchaseTarget":-100,"optimalPurchaseTargetScore":-100,"availablePurchaseTargetList":[],"optimalSaleTarget":-100,"optimalSaleTargetScore":-100,"latitute":"52.330279","longitute":"-1.666312","amountGenerated":"8","pricePrefered":"15","distancePrefered":"14","energyType":"0"},{"index":116,"seed":"DCQSWLE9YBIQVESGXYXTMWWEEGKXFEX9PTRAGJBAPISKQRPAHWMBCVXHKUHXGIHYLORHFUEXUIYFBXUNC","address":"NMRVWVYRJWWZGM9HGOSTZGZYCPCQOJZNLEJNCQAVSVQVIPXZJRQTEQKIMPSFOIOMQXLBOQZHWKDUFQLLC","optimalPurchaseTarget":-100,"optimalPurchaseTargetScore":-100,"availablePurchaseTargetList":[],"optimalSaleTarget":-100,"optimalSaleTargetScore":-100,"latitute":"51.680734","longitute":"-1.009598","amountGenerated":"10","pricePrefered":"15","distancePrefered":"12","energyType":"1"},{"index":117,"seed":"WIPKGMXHNNFVMEQRKLOWCHFOIQELMGNGLQUSJLBXXXDEWEGDAOIKYYYKRLCUOH9BDFPQNPBONVIAJTCRB","address":"CGEQPGXRCOQGXJ9GMHJXKV9ZUPOFLLYMZOEVNSIRZGLIRJSVUALDQPWAL9JVCTKBXLULRWLWDXALUMRAC","optimalPurchaseTarget":-100,"optimalPurchaseTargetScore":-100,"availablePurchaseTargetList":[],"optimalSaleTarget":-100,"optimalSaleTargetScore":-100,"latitute":"50.986790","longitute":"-0.045605","amountGenerated":"9","pricePrefered":"14","distancePrefered":"13","energyType":"3"},{"index":118,"seed":"WJRIHBWNCVKFRRYUNRYLROROSTBCE9LKTMMEFWJRR9BGMAXAWVPMMBWNSQXJJAELMAKCLDD9GYNNKFAOL","address":"FJHHRJPREJNZNKQUVRWNWUEOXLURJOS9YAGSFAFL9MOIJYJVBPFPIIONWVQTCSLEJIKAVQDGAISTKPJZW","optimalPurchaseTarget":-100,"optimalPurchaseTargetScore":-100,"availablePurchaseTargetList":[],"optimalSaleTarget":-100,"optimalSaleTargetScore":-100,"latitute":"52.005233","longitute":"-1.261951","amountGenerated":"5","pricePrefered":"15","distancePrefered":"13","energyType":"3"},{"index":119,"seed":"MRWINDG9GYQBWHAHYOQEDTXJLPQWWTR9HJDJNNAGKTXAWJDKXPMTDCCUJRIPFLEKMQKMYCUKROKLNDCVP","address":"ZZIHBMSOMQUFZFPERBSNCUOPTQSLHQL9R9LOWI9CMXBFAOUGLPOBKEMROSBOCVULFJTGRMUDCPKOQBOOB","optimalPurchaseTarget":-100,"optimalPurchaseTargetScore":-100,"availablePurchaseTargetList":[],"optimalSaleTarget":-100,"optimalSaleTargetScore":-100,"latitute":"51.725147","longitute":"-0.742305","amountGenerated":"8","pricePrefered":"15","distancePrefered":"11","energyType":"1"},{"index":120,"seed":"BBVKFJWVSYWCRGDDHREBDIBJEX9BRLXHIHEU9ERWJEXJFHGWEEXBEDHKFE9RMXEXURWFON9MJVULAQWBM","address":"HYXFBAVMISK9GXWRUCWBQDVBGWAKIYEIOYEIAXIODRPLXJCZVRBJBIVNRDCIF9NRNIQPDYFCAHW9OL9JZ","optimalPurchaseTarget":-100,"optimalPurchaseTargetScore":-100,"availablePurchaseTargetList":[],"optimalSaleTarget":-100,"optimalSaleTargetScore":-100,"latitute":"51.296946","longitute":"-0.374461","amountGenerated":"5","pricePrefered":"16","distancePrefered":"12","energyType":"2"},{"index":121,"seed":"PLTRHTQKGCWQYYSKFGHYXOTHRQHIRBINSOIJHHGPGELHPDOMDSBGHPIQJRTUQNLBPRWRBNTLXTNRIMHCO","address":"KTYANWPREPHXGWCDLKHKXCCRFGJORCD9FHAXGHXBAKMEKIUSFDORKPTLHNKTRZTRVSGJETSISTTLCRXGC","optimalPurchaseTarget":-100,"optimalPurchaseTargetScore":-100,"availablePurchaseTargetList":[],"optimalSaleTarget":-100,"optimalSaleTargetScore":-100,"latitute":"52.434024","longitute":"-1.525843","amountGenerated":"9","pricePrefered":"14","distancePrefered":"11","energyType":"1"},{"index":122,"seed":"NAUPGJPNDUUAEEHPPSCW9UAURTLUOPVESJJWFAFUHSHOJPGTXRFLXXQJULVEMCICNQXUF9JYROQEVMHEB","address":"BJUBOHNWDBHURNVJIAMUNXAIKAMXMPEYXJOVDFAXUCWAOCTSEFLTNGQDZZPWHDWXDARPYPYCSXNMPECTD","optimalPurchaseTarget":-100,"optimalPurchaseTargetScore":-100,"availablePurchaseTargetList":[],"optimalSaleTarget":-100,"optimalSaleTargetScore":-100,"latitute":"52.144235","longitute":"-0.048828","amountGenerated":"7","pricePrefered":"15","distancePrefered":"13","energyType":"4"},{"index":123,"seed":"WSLBTCSYIHBEHRGQISKXMXDAKWKRNBXRSOOVVEDBNMQEDAFTCTTMLVGNUTCXJLYFEQHWPANINGOMECAHI","address":"9FGJXZIVGHFCNCUOZYPTUXZLXU99VAMCBJZNQRNFBUYEDRPKTWCUYAYXHZWWMVTLRIKVMFNLFSEIQRQTA","optimalPurchaseTarget":-100,"optimalPurchaseTargetScore":-100,"availablePurchaseTargetList":[],"optimalSaleTarget":-100,"optimalSaleTargetScore":-100,"latitute":"50.966743","longitute":"-0.846691","amountGenerated":"7","pricePrefered":"15","distancePrefered":"11","energyType":"1"},{"index":124,"seed":"XOSYPBE9DDVVYACNGKMRWIDFGPBHRKACKPWFWBKSRA9PNEXFYEAMKVNUEOV9QMIGTOFJITQHKTNIB9EPW","address":"9KONJURI9XGK99JZFNLYPBFGLYGKKUXKBZHAIRYVBXBMUJVZELHKOUBVYHVTHSQZYJCQXAALFXICIBBCX","optimalPurchaseTarget":-100,"optimalPurchaseTargetScore":-100,"availablePurchaseTargetList":[],"optimalSaleTarget":-100,"optimalSaleTargetScore":-100,"latitute":"52.188651","longitute":"-0.995295","amountGenerated":"8","pricePrefered":"14","distancePrefered":"13","energyType":"0"},{"index":125,"seed":"YUXHPBYHIDEONNJQE9PDKSCIJAFJLBIHIQIFG9DIIQUYGXRQLKANDCATSAMQNFMFFKWMMSBJINGGBEYTE","address":"QVNLXJIGYS9VUBJHHPNSFVAV9CJYXPH9BAWVTD9CD9TNDHDHEFKJHDCDVQWEOYXSQUCPYTEKMXGPSDCUZ","optimalPurchaseTarget":-100,"optimalPurchaseTargetScore":-100,"availablePurchaseTargetList":[],"optimalSaleTarget":-100,"optimalSaleTargetScore":-100,"latitute":"51.986274","longitute":"-1.862355","amountGenerated":"6","pricePrefered":"16","distancePrefered":"15","energyType":"2"},{"index":126,"seed":"PCGRRUGFDENEJYUEQ9OJL9UIJPSYCSOPHPIFOWQYQKONRC9ISEPPWRLQQQIRTBQDJQQJDONAHWXWOTDPF","address":"ZK9XIJT9XXSMZWYBUYLQHVIJUNWWVN9BNB9LGUOIZAWGBRCXUMDCVHUBEQPFCOQQMREESTS9EDHWEXXOC","optimalPurchaseTarget":-100,"optimalPurchaseTargetScore":-100,"availablePurchaseTargetList":[],"optimalSaleTarget":-100,"optimalSaleTargetScore":-100,"latitute":"52.360867","longitute":"-1.863486","amountGenerated":"5","pricePrefered":"14","distancePrefered":"12","energyType":"4"},{"index":127,"seed":"TMKJYCKYALUSWVPEJPKGQXDBIIJDWTFVNSSOWNJDJOLDSKMROEIDHDELFYDLQMWPKH9NPBTDXAHONMOSL","address":"WOXADMKQXBGSY9ODGBSJPHDQWXAHLR9PLCMLTVUZYNWJ9KFADVCVPSETG9TKZCKUSAGCBLENRQOOJBBJC","optimalPurchaseTarget":-100,"optimalPurchaseTargetScore":-100,"availablePurchaseTargetList":[],"optimalSaleTarget":-100,"optimalSaleTargetScore":-100,"latitute":"52.071353","longitute":"-1.740901","amountGenerated":"7","pricePrefered":"14","distancePrefered":"13","energyType":"4"},{"index":128,"seed":"RAWSUYDWEJVEMNB9WHJQICCLWCKXPMOVMKGCSFSGVDTRWQGKLIURHQLSSEGQRXKXPGBGNTTFDC9FDQCTU","address":"KZBIKGOLTIBUTBRTVFOEJSROYIWYBZJVOEMSI9UV9YTMUCNVZ9WZHVPJXJUCOOUWTOQYOVPKKRXFMUUJW","optimalPurchaseTarget":-100,"optimalPurchaseTargetScore":-100,"availablePurchaseTargetList":[],"optimalSaleTarget":-100,"optimalSaleTargetScore":-100,"latitute":"51.979716","longitute":"-0.626138","amountGenerated":"10","pricePrefered":"16","distancePrefered":"14","energyType":"1"},{"index":129,"seed":"RHKAADPVQVPDIDQXB9OGCHYYFUFBNANWYIYBXJDWTRRUCYCBUXQPURQXHGKXFROUQUWFBLLWLEPGIPPDY","address":"SAHJIFAHNDVQPNJOURTTLGNPEZRKRGBOYUAWMUWHEL9QRCNYOTKJPDOPNYWLFQAHFISIBEJNVUOUBVIGD","optimalPurchaseTarget":-100,"optimalPurchaseTargetScore":-100,"availablePurchaseTargetList":[],"optimalSaleTarget":-100,"optimalSaleTargetScore":-100,"latitute":"51.728457","longitute":"-2.033206","amountGenerated":"8","pricePrefered":"16","distancePrefered":"12","energyType":"1"},{"index":130,"seed":"UIMXOAPEA9FBGYOUOEDGWTLONPKEDOEXBTNOTNTXAQIWKRGNUHPDMK9HGCQQLHPMRKKRNIYMU9SAV9DOW","address":"UJLEMNYMPLQVFFQJTKMFHTGREOKPJZMLTSL9CPFXGDTCMBJRRYBVOHKDQLSDZLZUTUZSQKCLJZSVRSXUD","optimalPurchaseTarget":-100,"optimalPurchaseTargetScore":-100,"availablePurchaseTargetList":[],"optimalSaleTarget":-100,"optimalSaleTargetScore":-100,"latitute":"51.843434","longitute":"-0.629014","amountGenerated":"6","pricePrefered":"15","distancePrefered":"11","energyType":"2"},{"index":131,"seed":"MPCMLATUJQYYQP9FA9WDJSLUVEVL9JYHBRRKIEJQIULGUMYCNMJTVAYLABSTJCDGPNWJFDXFBFQHXRAIQ","address":"SIGZPGFNFGH9LPWATPNQYSCZKHUDFQUFT9ZFIUQGMPMV9JNSPWQIQ9JXSJYVAC99W9DLJVKRSSB9ZYANW","optimalPurchaseTarget":-100,"optimalPurchaseTargetScore":-100,"availablePurchaseTargetList":[],"optimalSaleTarget":-100,"optimalSaleTargetScore":-100,"latitute":"51.748481","longitute":"-0.767040","amountGenerated":"10","pricePrefered":"15","distancePrefered":"13","energyType":"0"},{"index":132,"seed":"TX9FQMJIWBTLCTQIRELBQXNPUPYIVU9N9SKVWDMHHEXTDXYS9BWSD9RXIYXRCFWTDSLPGFMMVHPHPHXTI","address":"IZIRAHMKHMECCPN9IY99KYVFMMYCN9H9TKHSWVITOZCXSETCXLJJKRIWTDZDTMHQHOWAPAWQVPOKEPSPC","optimalPurchaseTarget":-100,"optimalPurchaseTargetScore":-100,"availablePurchaseTargetList":[],"optimalSaleTarget":-100,"optimalSaleTargetScore":-100,"latitute":"51.102242","longitute":"-1.179046","amountGenerated":"6","pricePrefered":"14","distancePrefered":"15","energyType":"0"},{"index":133,"seed":"OFDLD9QLXPLCXRHXEOYPDMDRG9F9QJNTGSUSYYRKVVUYEHTMKBAEIGJY9DKJECSPMYUOQWXYGIONKHTUF","address":"NGXXQFTPTOMWHVWSDZKICZCBMFMPXAJH9LELVOJWUEXZXSSFZBTS9PWBUBOAAWSECICIBUKMECJYYIR9X","optimalPurchaseTarget":-100,"optimalPurchaseTargetScore":-100,"availablePurchaseTargetList":[],"optimalSaleTarget":-100,"optimalSaleTargetScore":-100,"latitute":"51.760207","longitute":"-1.172003","amountGenerated":"7","pricePrefered":"15","distancePrefered":"11","energyType":"2"},{"index":134,"seed":"BOPETPYMCBVEIWEHEABJOYOKYHAJCPRHUHOCYSFHDADXVFLXWSXLYAWTBMUXYRHROHJ9XL9OJKJERXSLS","address":"WD9PSKDHDDHYCBXJCCUWTOHXTYOSTBUOQFTBXOCPZLEZLEYQOPEAPDR9NHLBMKZGNFLISMHNNNCBHUCPW","optimalPurchaseTarget":-100,"optimalPurchaseTargetScore":-100,"availablePurchaseTargetList":[],"optimalSaleTarget":-100,"optimalSaleTargetScore":-100,"latitute":"51.609518","longitute":"-1.063054","amountGenerated":"7","pricePrefered":"16","distancePrefered":"14","energyType":"3"},{"index":135,"seed":"FHHVNQKOUOKVGBGKJRSGCPDCJEWQEVLAEMYBLQQUPBGQCYUUHQJVKTSTNPBSYSNPNEUXDMOPIDMGWVGBW","address":"FVHNFUDCWIKCQ9XCWWENMVJEMR9BCZNAPHSCJKZENAJFLTFNXMSXZCGCQZYRKTGYHDFMAPVCQJNPXQJKW","optimalPurchaseTarget":-100,"optimalPurchaseTargetScore":-100,"availablePurchaseTargetList":[],"optimalSaleTarget":-100,"optimalSaleTargetScore":-100,"latitute":"51.393659","longitute":"-0.507101","amountGenerated":"9","pricePrefered":"14","distancePrefered":"15","energyType":"2"},{"index":136,"seed":"UOBLHTHHXHFHMUNASFCKXTMKEHQCLHUGEMQPVEPERFCJNEAFTNIAJKRM9FLMRTFYADMPUPGAEEVVLNDTR","address":"SXEODDKSGH9MCWGZLOBQAKGZKDAZTGHPQCHZRSVLUXLAOYRZWXCQOQSRXEXQXBZJBBF9QJJUESWFUGLRX","optimalPurchaseTarget":-100,"optimalPurchaseTargetScore":-100,"availablePurchaseTargetList":[],"optimalSaleTarget":-100,"optimalSaleTargetScore":-100,"latitute":"51.423495","longitute":"0.024728","amountGenerated":"10","pricePrefered":"15","distancePrefered":"11","energyType":"3"},{"index":137,"seed":"A9QNM9OAKVJSYCVLDGCLJBDDHACIMTEEQJF9NILVOCSDUAWJBLNBURBOTXITWDDVAKRLXDRPNWHFSULUY","address":"PAILNMTOXCQRE9PEQY9R9NYDCQARYUUKEJYCHNNUFLHXIQY9UPRUGUZYJWZGEIMOXABGMSDUXMGOTKGFC","optimalPurchaseTarget":-100,"optimalPurchaseTargetScore":-100,"availablePurchaseTargetList":[],"optimalSaleTarget":-100,"optimalSaleTargetScore":-100,"latitute":"51.891629","longitute":"-1.847347","amountGenerated":"6","pricePrefered":"15","distancePrefered":"14","energyType":"2"},{"index":138,"seed":"YLWJCBMLMJCNBWRUPSUVIDCFEXODTRACSNRMWH9RANADANLQWJEXVYK9XVXATR9DNAGXQMKNDVGJJBGKW","address":"VP9BYXQH9OXT9P99FW9VAFJPCQTGUEOMKJOE9RHIUJGQTIFNOTCOMHSPCGAYYVIFZLBVQLGQ9BPOGMKDA","optimalPurchaseTarget":-100,"optimalPurchaseTargetScore":-100,"availablePurchaseTargetList":[],"optimalSaleTarget":-100,"optimalSaleTargetScore":-100,"latitute":"51.724381","longitute":"-1.046567","amountGenerated":"6","pricePrefered":"15","distancePrefered":"10","energyType":"1"},{"index":139,"seed":"DQXSNTUFQR9AYRYSCSSLBLPDAM9QAIXXHAQBAAWKTQBKMFCVFJPIDMMOSIVGP9BDARRXIFSSMBSLRUWO9","address":"DTESGDDMGOJUQYJWQ9IDXZEPNJFSMAJUZISYFRWTITRIJGURJKZFADXPPHHHWOMXAWJRKIRVJDLAEWPPZ","optimalPurchaseTarget":-100,"optimalPurchaseTargetScore":-100,"availablePurchaseTargetList":[],"optimalSaleTarget":-100,"optimalSaleTargetScore":-100,"latitute":"51.980511","longitute":"-1.663239","amountGenerated":"6","pricePrefered":"14","distancePrefered":"15","energyType":"1"},{"index":140,"seed":"RPOITEDAJDHQATTKPUNPCVPIJRHOXJMBCTDSMXCEXXVK9OKCVH99SPTEMSWYDGXEWEKLJLGGSNCJAADFG","address":"EUXJIEUJSXMJWPWOLRXGPUQOMDG9P9IRDBPRJJSOCPHMJLSJVYUFEYLXSXKKVBKXVYKKVCRJBXUUQMLGC","optimalPurchaseTarget":-100,"optimalPurchaseTargetScore":-100,"availablePurchaseTargetList":[],"optimalSaleTarget":-100,"optimalSaleTargetScore":-100,"latitute":"51.867703","longitute":"0.104259","amountGenerated":"9","pricePrefered":"15","distancePrefered":"11","energyType":"4"},{"index":141,"seed":"YG9FMXHFSUCRMX9YLHHBMKQDSNPVRRAMSCAYUMGPVJMOJHIFXVVILNARLANENKQDAAKXEOPIBJKPVKNJS","address":"WGLNPOAZALFBFAANOPZEDDCVTOHTAQ9IXS9XUTWGXYWTE9YOPPZ9YJYVMGVFNSLWCKGAGEERP9UW9HYLA","optimalPurchaseTarget":-100,"optimalPurchaseTargetScore":-100,"availablePurchaseTargetList":[],"optimalSaleTarget":-100,"optimalSaleTargetScore":-100,"latitute":"52.008981","longitute":"-2.344102","amountGenerated":"6","pricePrefered":"16","distancePrefered":"10","energyType":"3"},{"index":142,"seed":"QTIUEOROV9YQCCIELHSQRTORQXSDGUFSFMREKHDYUAMLD9JWRISFQHOKFBLULJWBYLDDDFL9OMLKYQBDL","address":"N9KITZUPZYSYAQTRVNHYVXCYQPGQTTNGVMTXNAUENMNQYUQLIVNSCXKFOQFXTROPYXSZBPSURCVCHEGGY","optimalPurchaseTarget":-100,"optimalPurchaseTargetScore":-100,"availablePurchaseTargetList":[],"optimalSaleTarget":-100,"optimalSaleTargetScore":-100,"latitute":"52.329419","longitute":"-2.214602","amountGenerated":"7","pricePrefered":"15","distancePrefered":"13","energyType":"3"},{"index":143,"seed":"NHINBXW9OEBTJK9PMUOLQRGQEKXQWSOYBG9FORGEIXTTAAOLOUXXOKUKUWXFU9WLNSGORTNGPLFXS9RHU","address":"9WQINHOROGPICAIWIZONLZBKDVEIDRNUYKVURJPQ9TIATYKHOJDXYFTMPNWZZUPYQKQJOCYVBNXJBHKDC","optimalPurchaseTarget":-100,"optimalPurchaseTargetScore":-100,"availablePurchaseTargetList":[],"optimalSaleTarget":-100,"optimalSaleTargetScore":-100,"latitute":"51.904354","longitute":"-0.084025","amountGenerated":"7","pricePrefered":"16","distancePrefered":"15","energyType":"1"},{"index":144,"seed":"YQDSOJTMYAP9CDVLNMMUFBVNWR9JTIILAAWMXHRGEFNVRJPRBVCAIWJMWTALVDNA9XMXU9YGYXWQ9CGWQ","address":"DRBNHAYWUTSYTQ9IBOJZFBZEVMVWMDSMJPTECWIPWBZCFKVCDKVBTWGFBGFMIITPOGWDOCDZXDMGNPNLD","optimalPurchaseTarget":-100,"optimalPurchaseTargetScore":-100,"availablePurchaseTargetList":[],"optimalSaleTarget":-100,"optimalSaleTargetScore":-100,"latitute":"52.213828","longitute":"-2.285508","amountGenerated":"7","pricePrefered":"15","distancePrefered":"11","energyType":"2"},{"index":145,"seed":"999LBTXINWACIWSTCEWEXBOFX9LEDLACQQTCTUIIXUHMJKIVTCSRM9JQRLDPDHVTJJYKCVKDXNNEGPKWX","address":"UPOLYDTIEAZZAPOCMEPRVOXAAEPBX9ZMCAGUPOYWXYGWXEAWFCJIPFNHVUBVRUXDTDJKEVWPAVNODOFAW","optimalPurchaseTarget":-100,"optimalPurchaseTargetScore":-100,"availablePurchaseTargetList":[],"optimalSaleTarget":-100,"optimalSaleTargetScore":-100,"latitute":"52.257895","longitute":"-0.100552","amountGenerated":"5","pricePrefered":"16","distancePrefered":"12","energyType":"3"},{"index":146,"seed":"GQDXG99KCLJKIKOPNSBX9AKDLWEHMOUJMRCHD9EWDGPLMUSRA9NW9QETCKOJBIFWUHTM9ROWHNFMXRIET","address":"STWJDJGBGHSNLDPHZZEOZLFUYKVIIWPZBHDAUFXLNACVPPGRFPYBGLDGBFZBLPTVNPUVCM9FEBDTGNIF9","optimalPurchaseTarget":-100,"optimalPurchaseTargetScore":-100,"availablePurchaseTargetList":[],"optimalSaleTarget":-100,"optimalSaleTargetScore":-100,"latitute":"51.333746","longitute":"-0.200979","amountGenerated":"8","pricePrefered":"14","distancePrefered":"12","energyType":"3"},{"index":147,"seed":"LAHWKONDMTTQVXAKXOHR9LHOSVXHBVJVJJPFYNIRCLULCRVCTPURAVEDCV9MYBVBSOVYYMCKBMYKNQNWN","address":"AINVGPAFSCMPXPHHPFQMYRASF9XZFVIQRAUCWCBUCMJBWXKURSDOXERRVOYTJFLLACZEWJCLV9YJAHKMD","optimalPurchaseTarget":-100,"optimalPurchaseTargetScore":-100,"availablePurchaseTargetList":[],"optimalSaleTarget":-100,"optimalSaleTargetScore":-100,"latitute":"52.037546","longitute":"-2.282729","amountGenerated":"9","pricePrefered":"15","distancePrefered":"12","energyType":"1"},{"index":148,"seed":"NQCASOAFJDTSUBFVFNPMIPRUKNGSKKC9OXLHKYXDKKSFTDWEEFYFYGFPAQUXDXREHIVGHIOGQQFFWKDBK","address":"MRZYGVPIGAQAEAZMBQJCGTYTQTPQCBMRXPLTKLGDOUMYCEIAVRJOXGEODFRUNLUFMVDMODMENEDPWE9GW","optimalPurchaseTarget":-100,"optimalPurchaseTargetScore":-100,"availablePurchaseTargetList":[],"optimalSaleTarget":-100,"optimalSaleTargetScore":-100,"latitute":"51.169410","longitute":"0.185500","amountGenerated":"6","pricePrefered":"15","distancePrefered":"14","energyType":"2"},{"index":149,"seed":"YMCGNW9YVBRT9KRQOGFPMADWHFRETTVJQTQBSKGVQINMWOAOLXYTEKEWKO9POXJUEBQSLKIQIUUMNPENN","address":"EEYK9W9OCTXUQYXUHJEOYVKOKNQTVFNTPXKVJKUMWLOFGD9BKEPIRKWAVTEFNBQGJRHOWKDWSEYZWPKTD","optimalPurchaseTarget":-100,"optimalPurchaseTargetScore":-100,"availablePurchaseTargetList":[],"optimalSaleTarget":-100,"optimalSaleTargetScore":-100,"latitute":"52.345289","longitute":"-2.081820","amountGenerated":"6","pricePrefered":"14","distancePrefered":"10","energyType":"1"},{"index":150,"seed":"FWKCPNYQOYFFXVOPICVWKGUUYXPMCUGAR9YGUBGPWVESOGFIFPIDJTUGDP9WQCGDUFQQSAMXBLFFSYFQP","address":"PQJQBLXAJHSODHEQC9EMTBXSNBEHOJELZXJXNKPKYLRRXEHZJJVFUTNGLPUQVVCHPFPAXJYHHGJGIFTBW","optimalPurchaseTarget":-100,"optimalPurchaseTargetScore":-100,"availablePurchaseTargetList":[],"optimalSaleTarget":-100,"optimalSaleTargetScore":-100,"latitute":"52.438487","longitute":"-0.907455","amountGenerated":"6","pricePrefered":"16","distancePrefered":"15","energyType":"2"},{"index":151,"seed":"TMUFGDYMIEBBNAFVMWJFEUTEQEWRRUNDANGCESSSYUMQXXJYIJDXEUDWKWUPGBNUJRUTPTSS9NO9TTSIS","address":"RMJLABFQPGWHBTCLJTHYKB9ELXJFVPN9NXYQUVODGHDQAKUFPACMAZUSN9AONTMXVOEUVXZIPQKDA9VUW","optimalPurchaseTarget":-100,"optimalPurchaseTargetScore":-100,"availablePurchaseTargetList":[],"optimalSaleTarget":-100,"optimalSaleTargetScore":-100,"latitute":"51.213326","longitute":"0.041631","amountGenerated":"8","pricePrefered":"16","distancePrefered":"10","energyType":"2"},{"index":152,"seed":"NU9VOFAPEQPVGTSPDNVUGHTE9DTVIISTQXTIOQHKRYDSW9OY9IEQLTXOGH9EGCBKWEKPBUATGMBMEGXPU","address":"RESTTHJYGWXSZRTTPTYONRABYWLCZCPZWBLYVVJJBSDTYJKFRVBDKVEIILBOVYPVVDDXFVQUXZ9UCQEPX","optimalPurchaseTarget":-100,"optimalPurchaseTargetScore":-100,"availablePurchaseTargetList":[],"optimalSaleTarget":-100,"optimalSaleTargetScore":-100,"latitute":"50.978930","longitute":"-0.562908","amountGenerated":"7","pricePrefered":"14","distancePrefered":"14","energyType":"3"},{"index":153,"seed":"C9IIFXC9ACFFXUDUULSJ9LOQDVHNLFBXWHP9JCIJRVRVHXDPRVSQBWABBFAS9YJVT9FLHCFBNBMBGVBDP","address":"W9OKOAAWSWIRSXCMDYUCXTEHRRFIQZLPIWGUTPHGUFNLZCSNTRXZ9PCEHA999MXFMSUJUVBH9FKGOHKDZ","optimalPurchaseTarget":-100,"optimalPurchaseTargetScore":-100,"availablePurchaseTargetList":[],"optimalSaleTarget":-100,"optimalSaleTargetScore":-100,"latitute":"51.760096","longitute":"-0.147939","amountGenerated":"6","pricePrefered":"15","distancePrefered":"12","energyType":"2"},{"index":154,"seed":"OCJUQWYNIFJPVGNDJPKSLAOUOHPHQEEQRMONUEBMYGVXLMUXWEWAQNGEGXOWVSWIMWIXBCF9PYN9DMLI9","address":"MGPTYODYOYQLLVIZKXYFKNKZTZAPGYGRBCUTUUYGPLGS9RCEBZWJAKLMBHXD9IXCUBFOVT9EDMRQNTUVC","optimalPurchaseTarget":-100,"optimalPurchaseTargetScore":-100,"availablePurchaseTargetList":[],"optimalSaleTarget":-100,"optimalSaleTargetScore":-100,"latitute":"51.857063","longitute":"-1.791043","amountGenerated":"9","pricePrefered":"14","distancePrefered":"14","energyType":"3"},{"index":155,"seed":"QSLLIPAEENVPKWESPT9ELWBXTKSBGHLGEXYGA9TGXRQVHXJCRVXOPKNPFXOBDAY9FLJCRTGPHHULJJTDK","address":"OQDNZWXINAMVPGUTGVHMCUDLAQGWMLXKLMERBX99JAVSBLKOBQZPUNJIAHNJNYQUZEHCIC9JTLLVVJSTA","optimalPurchaseTarget":-100,"optimalPurchaseTargetScore":-100,"availablePurchaseTargetList":[],"optimalSaleTarget":-100,"optimalSaleTargetScore":-100,"latitute":"51.261084","longitute":"-0.503982","amountGenerated":"7","pricePrefered":"15","distancePrefered":"10","energyType":"1"},{"index":156,"seed":"FYQDSC9JVKTUTKJQVEKRLGVAPKWFJYDL9GNVCHCPSSRDK9GKVWFVATDRAASGF9GWGQUOKXHUQHCSSGVNV","address":"BSQWBDWFCVLU9JQOXE9APFFRY9IUQFWYAOSQGPNNNMYSCGAXMZFRUNZOOENAGPNTEXCHRUFTZVCPFMVPW","optimalPurchaseTarget":-100,"optimalPurchaseTargetScore":-100,"availablePurchaseTargetList":[],"optimalSaleTarget":-100,"optimalSaleTargetScore":-100,"latitute":"52.342180","longitute":"-0.952760","amountGenerated":"5","pricePrefered":"15","distancePrefered":"13","energyType":"2"},{"index":157,"seed":"BAYJQBWLETNIBELLBGBSAUTJSKBGBMHXCMOOLHOKWYEUKUWIBK9HBNINGTDKJHABROSGO9AKODK9XAQSH","address":"EXUUMHRS9HGWDOSBXHMIGDUVBSAEXEYJOXNNCRXLQUVBOITZQXQVQL9LUDLHTBMTXKZSGA9UYWC9XOOEB","optimalPurchaseTarget":-100,"optimalPurchaseTargetScore":-100,"availablePurchaseTargetList":[],"optimalSaleTarget":-100,"optimalSaleTargetScore":-100,"latitute":"52.159316","longitute":"-0.540534","amountGenerated":"6","pricePrefered":"14","distancePrefered":"14","energyType":"2"},{"index":158,"seed":"AWYENWPVJRVPTVFGMEGPRPLR9SOTXUUVOWLUVLSNVJWWBTMJHWIADDDUEBMEPIPNFYOHYLCDJYGRHXDGQ","address":"MKDRWOHR9TWJWYAXUTALAKGGGERWFKIWCMFFNKNUMNBL9TWVJSTFJFIB9TCCWGESANCVJO9J9OFIOTQSD","optimalPurchaseTarget":-100,"optimalPurchaseTargetScore":-100,"availablePurchaseTargetList":[],"optimalSaleTarget":-100,"optimalSaleTargetScore":-100,"latitute":"52.088654","longitute":"-0.711253","amountGenerated":"8","pricePrefered":"14","distancePrefered":"15","energyType":"3"},{"index":159,"seed":"KITQAGBMHCBAONBFTVTOXKCORPBLSR9DROESBCDMLFYDRVC9NNHFVDEKQYOWT9VQPTSPEGW9UXQFTUMTL","address":"CCSFQHSX9N9DACSGRULVWJLHEIJRYSGPYYGABPSGFZSJDOQBCMWEEVKQYGIPSTBHZGICDHXEMCKXFTTOW","optimalPurchaseTarget":-100,"optimalPurchaseTargetScore":-100,"availablePurchaseTargetList":[],"optimalSaleTarget":-100,"optimalSaleTargetScore":-100,"latitute":"51.733700","longitute":"-0.882899","amountGenerated":"10","pricePrefered":"15","distancePrefered":"14","energyType":"0"},{"index":160,"seed":"FWYVJUNRBKAOSLJSSHJQYMOFXQOUOGIVJCTNDUFEJ9JD9XVG9FYNLY9GQVIGAPMNNJCYVAXUMT9CBTEVQ","address":"XETZZKRHLKAGNODYIFW9OMWUHGDBXWHYZL9VNOZZTVGTP9UQIW9NWZZVUOBLMZBVMWWJKG9OQWN9IVBRD","optimalPurchaseTarget":-100,"optimalPurchaseTargetScore":-100,"availablePurchaseTargetList":[],"optimalSaleTarget":-100,"optimalSaleTargetScore":-100,"latitute":"51.154023","longitute":"-0.156917","amountGenerated":"9","pricePrefered":"14","distancePrefered":"13","energyType":"1"},{"index":161,"seed":"HIAMMKUXWTOEGPWFPSRMVYQTVSFH9LFEINAMEADYELJUFVKBLWBULYVXSU9HDJIBPOCVCLDE9PGPCOSJQ","address":"BTIFGDWTEEFTQIONIATFKVNMDSRTHHPBIESJEYZYPCADWHMYCWOURWDEBBAHYQTGLLE9HCU9OKNNRI9YX","optimalPurchaseTarget":-100,"optimalPurchaseTargetScore":-100,"availablePurchaseTargetList":[],"optimalSaleTarget":-100,"optimalSaleTargetScore":-100,"latitute":"51.149562","longitute":"-0.862622","amountGenerated":"6","pricePrefered":"15","distancePrefered":"14","energyType":"1"},{"index":162,"seed":"JMBTFWSQGSUVCKRJHMJWOPIGI9DFWCIPCLCXKUDULXCNOILXRPVRKFBLQWSLTNXBEVXTUUGKJECEPK9XS","address":"FVVIHLUCFLLIAFVXQXWALIGZQUFUKWAHNTJQZZETIFFKHMLPCERLRKTEALXJIIWWLHQBGNIIKLXUYPXTC","optimalPurchaseTarget":-100,"optimalPurchaseTargetScore":-100,"availablePurchaseTargetList":[],"optimalSaleTarget":-100,"optimalSaleTargetScore":-100,"latitute":"52.276853","longitute":"-0.134174","amountGenerated":"6","pricePrefered":"16","distancePrefered":"14","energyType":"3"},{"index":163,"seed":"KLUP9VSIETJYHJTWSBVLSLNDJXSVWAPAHCXG9EWBVBABJNGR9RVJSWXOTMGCVCCYGSEYHHRKSXVJBKJNR","address":"LGPGUBRYSYBREGEBEKNKVHJIDRFGAKOEBDHPVBTEOJZYOYWLJOACXZEVHVVRIKGJQTFWMQKFDIGHPGMTC","optimalPurchaseTarget":-100,"optimalPurchaseTargetScore":-100,"availablePurchaseTargetList":[],"optimalSaleTarget":-100,"optimalSaleTargetScore":-100,"latitute":"51.091452","longitute":"-2.188049","amountGenerated":"6","pricePrefered":"15","distancePrefered":"13","energyType":"3"},{"index":164,"seed":"HAJXMYGWCWLMDUUPXHBVSUUNKYRLGXWKRXOFDILCSVTKN9OVVIRMIOMQHJGRF9WTCEUTAWFIAUWFJTSBE","address":"ZB9OWHOVKGOMBFBQVBWBKAZBSCBJ9LTLKIIF9BUJMARMSWDKFBWJJOKLSWEYMDNMDEWTJQOJYYVJA9ZGZ","optimalPurchaseTarget":-100,"optimalPurchaseTargetScore":-100,"availablePurchaseTargetList":[],"optimalSaleTarget":-100,"optimalSaleTargetScore":-100,"latitute":"51.398515","longitute":"0.278109","amountGenerated":"6","pricePrefered":"16","distancePrefered":"15","energyType":"1"},{"index":165,"seed":"ONGCVQFQSDOGHDYPSWIVYJMVIDPYNY9IMHHMEPDVNSWLNNYTHRP9FQVUDRSBCVLXKTWIQJXRQJXRKLTLQ","address":"VJXPCRVKFVESWZYYFS9CCR9KLIYR9QDTAGPZKPKCZJOPWKKUJEDFYGITAL9RIAQRAIFCVHGXTCLPAANLY","optimalPurchaseTarget":-100,"optimalPurchaseTargetScore":-100,"availablePurchaseTargetList":[],"optimalSaleTarget":-100,"optimalSaleTargetScore":-100,"latitute":"51.324919","longitute":"-1.543563","amountGenerated":"7","pricePrefered":"14","distancePrefered":"13","energyType":"2"},{"index":166,"seed":"VN9MPJOBADKFLID9UFWISUUYBICPHOBINYLUHBBITTWMTYNIFQN9DRBXHFQQM9JUAEQMQOGKJN9EOWFUH","address":"PJOZ9CZNFJPNJEELMYZCIMR9VJEOKQPZUKYT9ZPNXDBZEVWIRQQAFYYIPLLVXDNIHDSASJUTFRQOUXHGC","optimalPurchaseTarget":-100,"optimalPurchaseTargetScore":-100,"availablePurchaseTargetList":[],"optimalSaleTarget":-100,"optimalSaleTargetScore":-100,"latitute":"51.830338","longitute":"-1.192915","amountGenerated":"6","pricePrefered":"14","distancePrefered":"14","energyType":"3"},{"index":167,"seed":"TXQIPCCKUKMELHRAVHUAJWNUTIAMQP9MBJBIBGJSLTTMGBHTOJMLEXYMJYNKNWMQDNQLWLU9TGKRKPWAS","address":"RTJFIKQPGHCWBSHAPQBVIVDIQDRKNCRBBUTR9OBYXXYEGDZFDTQMJGEBGSTQDWAERSXNJVKZC9DCHFSBZ","optimalPurchaseTarget":-100,"optimalPurchaseTargetScore":-100,"availablePurchaseTargetList":[],"optimalSaleTarget":-100,"optimalSaleTargetScore":-100,"latitute":"52.168987","longitute":"-0.947071","amountGenerated":"6","pricePrefered":"16","distancePrefered":"13","energyType":"1"},{"index":168,"seed":"HIIMJNWOOJLTXTPTS9RNDDQODICTVGVELGJHMRFXNBMICCLNW9ALVHMCFQVRLBKFVYJ9JYIVYDIYXHQKC","address":"XIKQRPIWQIO9TRPHTSLUDWXEYWJWKLXRHEIUHGXOGWPDQTBCRTEHUULDVQZVEWGJPJ9DIQEMAFNMXPHCW","optimalPurchaseTarget":-100,"optimalPurchaseTargetScore":-100,"availablePurchaseTargetList":[],"optimalSaleTarget":-100,"optimalSaleTargetScore":-100,"latitute":"51.156463","longitute":"-1.720548","amountGenerated":"10","pricePrefered":"15","distancePrefered":"11","energyType":"2"},{"index":169,"seed":"CQUJPABHRRNMFSYD9BUQELHAFV9CEIVBOWPCAFLGBMMPQQW9OIA9RTEFGFOLBFVFLIILQCUABWWYUVF9K","address":"NZREPDTOTUEMRE9JITWEMQVU9YUKCN9YTBHBTXFHFSONAZYRUBESKWWLCFLJJ9REMSQSWLKTJNPZZVANW","optimalPurchaseTarget":-100,"optimalPurchaseTargetScore":-100,"availablePurchaseTargetList":[],"optimalSaleTarget":-100,"optimalSaleTargetScore":-100,"latitute":"51.836542","longitute":"-1.701741","amountGenerated":"8","pricePrefered":"15","distancePrefered":"10","energyType":"3"},{"index":170,"seed":"ULQIXNJTOAHLDBMEXWKBAASFWSHJUNOCXQMEU9SFAQM9WHAOWCEBUJKNMHDMXN9JQBJEHRBQYNSWXEJBO","address":"VEFMUMIXHVUYDMQSZSWODLSOONYABVTJXJRMDFLHNTLGJKZPFARGXIOLCIJXVAHSEJODOIFAONFNNSOCX","optimalPurchaseTarget":-100,"optimalPurchaseTargetScore":-100,"availablePurchaseTargetList":[],"optimalSaleTarget":-100,"optimalSaleTargetScore":-100,"latitute":"52.187366","longitute":"-1.943140","amountGenerated":"10","pricePrefered":"16","distancePrefered":"14","energyType":"2"},{"index":171,"seed":"YRTLJUXIWGDWSELUKTPBEOMNRQNBYYGCFDVACCLFHUJFSXGQCTCCE9PIHLMPPHPYHHEAABRAUMDNVEGVN","address":"ZJSEULZKFFSHKEGLMXQXCFECHHXFCAUNVPPHF9OQUSCJPTRGAW9LAMIRIEQCPJJB9XMPKEEDSWUVXKBYB","optimalPurchaseTarget":-100,"optimalPurchaseTargetScore":-100,"availablePurchaseTargetList":[],"optimalSaleTarget":-100,"optimalSaleTargetScore":-100,"latitute":"51.469246","longitute":"0.183539","amountGenerated":"7","pricePrefered":"14","distancePrefered":"14","energyType":"1"},{"index":172,"seed":"WLELOSAGUMUFBFMPJSCFN9RCQVEAMWBSVQYRPCUFUBATXBHXRFBHOUHFDWXFPM9IUVXELCPVCUWUDJIDU","address":"RJYYYDBMS9JGQHPTNRMTZLXBGBALWIUKRVMSWGDASRLLWKV9W9WUFGVYAFP9VAZU9RNV9BTDF9FIIJEZC","optimalPurchaseTarget":-100,"optimalPurchaseTargetScore":-100,"availablePurchaseTargetList":[],"optimalSaleTarget":-100,"optimalSaleTargetScore":-100,"latitute":"51.804416","longitute":"-0.815090","amountGenerated":"7","pricePrefered":"16","distancePrefered":"14","energyType":"2"},{"index":173,"seed":"GXDOFXCVRXYTRMQMBKFNOVJUBPXCHERMAUVMUAPPXDGLXEXPROVLFMAQLHKS9UTDDSRQPLUIFCNLXNOTC","address":"HPHGTICUND9CJOANVZCKEZMSLMOVKIA9DZCJHKHKVIRKJXGZVHDRYR9HXXVVMFVXXSUKJ9LUOPTEKHZKC","optimalPurchaseTarget":-100,"optimalPurchaseTargetScore":-100,"availablePurchaseTargetList":[],"optimalSaleTarget":-100,"optimalSaleTargetScore":-100,"latitute":"51.225165","longitute":"-1.860077","amountGenerated":"10","pricePrefered":"16","distancePrefered":"11","energyType":"3"},{"index":174,"seed":"WGGQRYSSCLFOPDSGEDWLDDIAYJQFDMBVIJBAG9HTCCXFRQHACJWSNNUTYRFDNXAKVCSFIYLOLCUJRCRUQ","address":"RPTBMVAAAO9EJ9BEQTY9SXTOKCASL9IAVEQWGDZAQJXETXUFYONXFEMUJHHNL9PMX9QTKUOZXXQAAQZIX","optimalPurchaseTarget":-100,"optimalPurchaseTargetScore":-100,"availablePurchaseTargetList":[],"optimalSaleTarget":-100,"optimalSaleTargetScore":-100,"latitute":"51.771355","longitute":"-2.224848","amountGenerated":"5","pricePrefered":"15","distancePrefered":"11","energyType":"0"},{"index":175,"seed":"E9EIBIGXGMUEWCIHONUOYRCXNDBQMHRPUKINUAIWB9TLDJBFEKKHOKILRWUUFNYYDQDXDMRIDBQYDXGYD","address":"UGXDOZTCZHHO9XTANTK9DKHHYYABPCXBO9KKYGPQUBPPASQBYLH9GFGLDOJDMECRPWVMJDEZEKQPPOAQD","optimalPurchaseTarget":-100,"optimalPurchaseTargetScore":-100,"availablePurchaseTargetList":[],"optimalSaleTarget":-100,"optimalSaleTargetScore":-100,"latitute":"51.258076","longitute":"-1.056300","amountGenerated":"7","pricePrefered":"16","distancePrefered":"12","energyType":"3"},{"index":176,"seed":"AVYRYNPYMPLSDCKGNNFJIHGSIEADWR9THIVCGIIVGUIYKBMYDUNQXWEEUKAISYMRSMJUKPEFQJAKLEHIK","address":"EGFZVNFJINYOBBFLUHVIMVOPAHZ9EQCAMLZQDTLAVZFRNEPAEKBT9XWUKDEOUOWTDSW9BHWGZGYROINGZ","optimalPurchaseTarget":-100,"optimalPurchaseTargetScore":-100,"availablePurchaseTargetList":[],"optimalSaleTarget":-100,"optimalSaleTargetScore":-100,"latitute":"51.716669","longitute":"-1.039509","amountGenerated":"7","pricePrefered":"16","distancePrefered":"12","energyType":"3"},{"index":177,"seed":"GHFATECFCOCGHMXTHVSFDNIRD9QIDGMMFQQTHV9EVQRFHFGMWVFXRTDUPEIVXHSAPNPCHTKVHQWMLF9LL","address":"LDDOZSKQNKGZAFGRVPLY9KFVGKQMWOX9PQYLEOBSJHWTYPSYHVPGRENFRXISCFIZGSMRRELKEFOYEY9CC","optimalPurchaseTarget":-100,"optimalPurchaseTargetScore":-100,"availablePurchaseTargetList":[],"optimalSaleTarget":-100,"optimalSaleTargetScore":-100,"latitute":"52.081320","longitute":"-0.752779","amountGenerated":"10","pricePrefered":"15","distancePrefered":"11","energyType":"2"},{"index":178,"seed":"AYAPSOERVGLPBNFN9XRBSEBHNHVXS9TNAGXCBRWQHMGMGFFXXLQFLCFBHOWRANOOD9EEAGRVQYHVSEMTB","address":"9SYVHVTFAXSVLJVZZYWHRPDXTLEKSNCRIRGXFILEPVHZYQENKWEMFUYUDJOSPLBATJPVCOGXDWX9BAGCW","optimalPurchaseTarget":-100,"optimalPurchaseTargetScore":-100,"availablePurchaseTargetList":[],"optimalSaleTarget":-100,"optimalSaleTargetScore":-100,"latitute":"51.164127","longitute":"-0.325396","amountGenerated":"9","pricePrefered":"16","distancePrefered":"14","energyType":"0"},{"index":179,"seed":"KLSCK9YOQGSFKNYTJBIDMMPCPSRVTXTRJRYNC9JUVMBOYGUROWRXQHXEGLHQXQPJRKTFBFNTIAHWKHCOD","address":"XB9PQTBF9LEAXKKAGJKAMLRVWYXOPAYMD9FNEOXIAQFXCQVBCWSDHWHDUOLUUOSVQPMFUF9JQRCZSJAEY","optimalPurchaseTarget":-100,"optimalPurchaseTargetScore":-100,"availablePurchaseTargetList":[],"optimalSaleTarget":-100,"optimalSaleTargetScore":-100,"latitute":"51.312283","longitute":"0.250799","amountGenerated":"7","pricePrefered":"15","distancePrefered":"14","energyType":"4"},{"index":180,"seed":"RQMMN9SWILGGFFKMIYLASAPVJNOEWHGGBNDGQJX9HARPCQGILG9FPRHQMQGFGKMDAWUDGSDCYKSQHSNXL","address":"R9LELNJLVNXGUPJEAKIE9TQWBXIGLPTMIACBUOGXHROYLMYTHNBXBVQKLTPPWINW99EWZZCBYJJUOLZXD","optimalPurchaseTarget":-100,"optimalPurchaseTargetScore":-100,"availablePurchaseTargetList":[],"optimalSaleTarget":-100,"optimalSaleTargetScore":-100,"latitute":"52.354096","longitute":"-1.774313","amountGenerated":"9","pricePrefered":"16","distancePrefered":"12","energyType":"2"},{"index":181,"seed":"FSOAKUCTPCGLWXABVTLVWANYDSJTFSBLGSPL9XHFVGADBGHLTKPGHQGNPOEWCIJAFHNVPFISXXEJIHTBS","address":"QQPBVN99XYFQXTZLPAACXQLLWAQXIFNVGFQXAPQBEYSNKIEIQAFQLJJUPFGQCYNBSTIPI9DQARVUGWYCX","optimalPurchaseTarget":-100,"optimalPurchaseTargetScore":-100,"availablePurchaseTargetList":[],"optimalSaleTarget":-100,"optimalSaleTargetScore":-100,"latitute":"51.187700","longitute":"-1.875381","amountGenerated":"7","pricePrefered":"15","distancePrefered":"14","energyType":"3"},{"index":182,"seed":"LT9OAQLFTETANOEBMEETMUHQBRJQDNNPUKBIGJRBCJICGOCPXLAVNNIJPYTTHIQQTWMIQQYYTLONPAFFU","address":"YLMDFLWMMFMEDVPTVZIEHBUI9XDGPYIWQMFFLHOTH9DWRCYVAQRASMNLQVL9ENQET9HGDUMEUANDCGBQW","optimalPurchaseTarget":-100,"optimalPurchaseTargetScore":-100,"availablePurchaseTargetList":[],"optimalSaleTarget":-100,"optimalSaleTargetScore":-100,"latitute":"50.983744","longitute":"-1.816571","amountGenerated":"6","pricePrefered":"16","distancePrefered":"14","energyType":"1"},{"index":183,"seed":"XUTTCYHHUPWYHLCJQVYKDP9KWAPRHTIVS9F9OUYQHRSQMWQ9FPOCQ9SJJLOP9JWXOM9EVH9HHVFXKWLGH","address":"RHVQBXTCFARATPTBQNHYAGNIYLA9HBAG9RBXQBOMIUVSXKLCBUFURMKOAZEIAOXBRNM9WBHWUSUZZKEZX","optimalPurchaseTarget":-100,"optimalPurchaseTargetScore":-100,"availablePurchaseTargetList":[],"optimalSaleTarget":-100,"optimalSaleTargetScore":-100,"latitute":"51.481570","longitute":"0.190282","amountGenerated":"8","pricePrefered":"15","distancePrefered":"10","energyType":"0"},{"index":184,"seed":"BKNPQRJWEE9VTDSQSSE9MQOBPY9BPYSVTEMIIPOHQBFLIOMDVJ9EO9Y9GWTCISQYAMBOXFEXEBCK9HAYV","address":"VQEVFLPSPLPSABMQCKRFKRPLKBRSXAWBPKPVSQALHYOUTLDWA9HPPWDFWVTQRZXNXFFHYDXRBJMJFXQ9W","optimalPurchaseTarget":-100,"optimalPurchaseTargetScore":-100,"availablePurchaseTargetList":[],"optimalSaleTarget":-100,"optimalSaleTargetScore":-100,"latitute":"50.962416","longitute":"-2.204730","amountGenerated":"8","pricePrefered":"15","distancePrefered":"14","energyType":"1"},{"index":185,"seed":"CWASOQBVGLS9SU9IUMJBRFIRFPUFSBHWUAEPRISELGQYCMLMKQBJSNWXHYPIWUDEXHHPDQEFIMPFBIDIN","address":"KHONF9LYVGQGXJVIHMNVFCOBDRNZTLXKGWOAHTNBS9EZAPEUWBTC9SNUXNGYRTMLDBGBFIPLCMOKTYJQD","optimalPurchaseTarget":-100,"optimalPurchaseTargetScore":-100,"availablePurchaseTargetList":[],"optimalSaleTarget":-100,"optimalSaleTargetScore":-100,"latitute":"51.113239","longitute":"-2.090779","amountGenerated":"6","pricePrefered":"15","distancePrefered":"11","energyType":"1"},{"index":186,"seed":"QEGVBQYLIWNHGPUTRVKIHWEII9MIKERPQCVQLFTMCJHUBMBGAIRQLOUYNNMMBSRUV9TP9CY99JIKPIUWE","address":"ICTWRFXKNSUW99U9TFCLLMTJWDQYQXYAFVNGWU9VZBTITLUXLM9SD9VWIKZHCWNALIFIDEFIZXMFVMSOZ","optimalPurchaseTarget":-100,"optimalPurchaseTargetScore":-100,"availablePurchaseTargetList":[],"optimalSaleTarget":-100,"optimalSaleTargetScore":-100,"latitute":"51.708392","longitute":"0.074591","amountGenerated":"8","pricePrefered":"15","distancePrefered":"13","energyType":"2"},{"index":187,"seed":"JXQ9TWKE9OYPLCCAECUXJQGHGCLDUKULHQQIBWOYMDAGONMLYWDXSUJPKKDEJIKYUNEXPBW9AWIJDFB9A","address":"RGARMEGLTDJZJDOQRI9TXBQDBCWDDDBTDCTQAOTQFO9DQXSZBIGUHLP9C9Y9NUOOTVDYLO9ZSGMTDNNVD","optimalPurchaseTarget":-100,"optimalPurchaseTargetScore":-100,"availablePurchaseTargetList":[],"optimalSaleTarget":-100,"optimalSaleTargetScore":-100,"latitute":"50.958138","longitute":"-0.218653","amountGenerated":"8","pricePrefered":"16","distancePrefered":"12","energyType":"2"},{"index":188,"seed":"TMVXA9PEFJFTJXFXEBFJAOGQ9MARQSYSMFQOOGYJ9IBTGRLCETGTONIRKEEKL9UVRMDJEIYED9PCI9MNY","address":"NZPDHEHKEHXKIVVQHBXKXAAKEGXYGMQG9IJMIPZ9VNXABENWFQU9MLKDSNMPAAGDDYXAVMFIQJKSJMNJA","optimalPurchaseTarget":-100,"optimalPurchaseTargetScore":-100,"availablePurchaseTargetList":[],"optimalSaleTarget":-100,"optimalSaleTargetScore":-100,"latitute":"52.428541","longitute":"-0.818504","amountGenerated":"6","pricePrefered":"15","distancePrefered":"11","energyType":"2"},{"index":189,"seed":"GXYIHIIASCFTIKKMQFYSO9JCLNVDQJXRPSILRQVLLPGKOEYTQXOAGSURJTBOXSCLKHCEMMVO9IURG9VXI","address":"PVJHHYRDQLCKBHLI9XODKWBWIPPJFUBELXYHYRDUBSYKNQENKWFJ9WOHJCARX9GMZPGUEHC9NINMANQUW","optimalPurchaseTarget":-100,"optimalPurchaseTargetScore":-100,"availablePurchaseTargetList":[],"optimalSaleTarget":-100,"optimalSaleTargetScore":-100,"latitute":"51.580587","longitute":"-2.031474","amountGenerated":"6","pricePrefered":"15","distancePrefered":"12","energyType":"3"},{"index":190,"seed":"ARAVGMESYOEXSRTRTNYNKSXENBOAVNKONMEPODCJBGSWIGWD9LWIDOKMLVAWACHSKTSIUIJUJFQISMFVS","address":"JZTENXGSLZRZ9SQRYRSOIJ9KRELLGXRVDJSADLVKZKSXPB9YFKIC9KVWWGYXDYHLKUZYKYBBHZRVMVEHC","optimalPurchaseTarget":-100,"optimalPurchaseTargetScore":-100,"availablePurchaseTargetList":[],"optimalSaleTarget":-100,"optimalSaleTargetScore":-100,"latitute":"51.540379","longitute":"-0.182002","amountGenerated":"10","pricePrefered":"14","distancePrefered":"12","energyType":"4"},{"index":191,"seed":"ETRGBAPNGIAKFNJVRLKMN9IDJLYYHSN9QGEBLDJDMKFTNMONXGCSOEAIQPEYVACGF9TORCV9YXYII9RHB","address":"FLIOANHVAYBWDQPCMFVAL9SRQODZVBKFAUEMCDGWWPR9YDLTEF9KSBRCUTTGSHXQMOSIP9POUYAGLXMUW","optimalPurchaseTarget":-100,"optimalPurchaseTargetScore":-100,"availablePurchaseTargetList":[],"optimalSaleTarget":-100,"optimalSaleTargetScore":-100,"latitute":"51.005752","longitute":"0.275924","amountGenerated":"9","pricePrefered":"15","distancePrefered":"14","energyType":"1"},{"index":192,"seed":"GTSAVQSOWCENGJNRYTKNBMRATAUIHAWIYNEAXMWFYHYTCEFRTHRNDAMMWQWBKLHGRHHLPN9TOMRMKGYHQ","address":"A9Y9ASCXWW9VGCVKIYBMHTYMUSUJYEFNJWPVLJOSUESMEBCKFKHLQNQLNDYIPADCBPKQHLUMRJHRFSEVZ","optimalPurchaseTarget":-100,"optimalPurchaseTargetScore":-100,"availablePurchaseTargetList":[],"optimalSaleTarget":-100,"optimalSaleTargetScore":-100,"latitute":"51.630990","longitute":"-1.265527","amountGenerated":"9","pricePrefered":"15","distancePrefered":"10","energyType":"1"},{"index":193,"seed":"UTCQROOBETDWBASKDTEBJUWEWAJARL9BVBCCMSIWJSKNWOFWI9TQSWLTEKRXJJUGPVYK9LGJKWNV9GEWV","address":"DVQBTCQHHZKHSMJGHYQJYZVDBLLDINOVXR9XPJQGRMXINHRNZYTSKHOA9YOI9WIHEOTPYZLYXDPYBZV9X","optimalPurchaseTarget":-100,"optimalPurchaseTargetScore":-100,"availablePurchaseTargetList":[],"optimalSaleTarget":-100,"optimalSaleTargetScore":-100,"latitute":"51.402734","longitute":"-2.088971","amountGenerated":"9","pricePrefered":"15","distancePrefered":"13","energyType":"3"},{"index":194,"seed":"OLVY9YGDWKMABL9LLPERBJSUDLCE9EQTHIFWEBEOFWUQKKNOBJRTWLCAPMSMLKMICKBOPIHNEBYF9KOBM","address":"UHDKLARXZZGEGYWAFZFLCV9DEBTZMQCTAORCOXLMQESJDSHPJT9BEQHUSXKIXXVXNEEPBIMBIAVMAHVAC","optimalPurchaseTarget":-100,"optimalPurchaseTargetScore":-100,"availablePurchaseTargetList":[],"optimalSaleTarget":-100,"optimalSaleTargetScore":-100,"latitute":"51.138618","longitute":"-0.747546","amountGenerated":"5","pricePrefered":"15","distancePrefered":"13","energyType":"4"},{"index":195,"seed":"9UWDOQGSOCLSEUFSRYIAWOLDKNQJKMEBJBESRIIOUTWVWCFPJYYKYY9NQW9OIAG9ILQIGLQIOVBIOPGSN","address":"ZQKSUGNZHPUZEPSODFBEPQTSFLRATTNFOUHDYW9VWCHAHADVWMPHZKPMAGCJIDSZI9COJGEJQONNPEAXA","optimalPurchaseTarget":-100,"optimalPurchaseTargetScore":-100,"availablePurchaseTargetList":[],"optimalSaleTarget":-100,"optimalSaleTargetScore":-100,"latitute":"51.850899","longitute":"-0.965470","amountGenerated":"9","pricePrefered":"15","distancePrefered":"12","energyType":"3"},{"index":196,"seed":"BPQXEJPULESQCTNCARAKVUCCVUGOONPTHAOUWAJRAORJ9POMTDIJFVTWXTF9OMEKFTXGADCPXGKWSRBXP","address":"BIXTPSTAVR9ERGOVXWKEXZUQYQKGXVDPWMGJFB9YSWXBIKPRUGNTCNNUFJOYCJSJEFFU9IBQXWENXQNGW","optimalPurchaseTarget":-100,"optimalPurchaseTargetScore":-100,"availablePurchaseTargetList":[],"optimalSaleTarget":-100,"optimalSaleTargetScore":-100,"latitute":"51.867276","longitute":"0.034550","amountGenerated":"7","pricePrefered":"16","distancePrefered":"14","energyType":"2"},{"index":197,"seed":"QAVHUUP9FARX99PLNKQVAFBSKHCRGWOOJTCLVUVPFJRYAQ9SAOJLPHEXKPTMUFKILJTVJWTMBEYHGBBKK","address":"XDL9D9TLHZNDIIONFYZAEYSMV9XCRKSOJFUIOLAMHHVXXWOWYPOQYPJLD9VFWQVMEUNDYBGKTSBVXXYIZ","optimalPurchaseTarget":-100,"optimalPurchaseTargetScore":-100,"availablePurchaseTargetList":[],"optimalSaleTarget":-100,"optimalSaleTargetScore":-100,"latitute":"52.247163","longitute":"0.186738","amountGenerated":"8","pricePrefered":"16","distancePrefered":"12","energyType":"2"},{"index":198,"seed":"DNREKWUFMBTOOCDGDOKTYTCARYITDRLDVCFLHOLSVABTEGKTKICESMBUCXRTXDVMQVEWGXRBLHLHTUJND","address":"CFUYPLPMWZHNGBBWDBQQFJVGTVJY9ONQX9UIUNOOTIORLCZRFUPVJCCLHSBQEKGZYAC9MQGMEBSZUOERC","optimalPurchaseTarget":-100,"optimalPurchaseTargetScore":-100,"availablePurchaseTargetList":[],"optimalSaleTarget":-100,"optimalSaleTargetScore":-100,"latitute":"51.216988","longitute":"-1.828603","amountGenerated":"10","pricePrefered":"16","distancePrefered":"12","energyType":"4"},{"index":199,"seed":"UXODSLLJCH9AVGPKIBLNCPXUVWMWQGJQFHXPFCKJOUNOSAGUJATHXNTJQFIL9SRWDRHENBQVAJJYECKAT","address":"VSSVPVVVYQSAQUAFSCTKHMUREYWQURWTWPBSGEHBILUNMHOVRUI9BFT999YSXTJREYVWJEJZJSROLUPYB","optimalPurchaseTarget":-100,"optimalPurchaseTargetScore":-100,"availablePurchaseTargetList":[],"optimalSaleTarget":-100,"optimalSaleTargetScore":-100,"latitute":"51.565980","longitute":"-0.441141","amountGenerated":"7","pricePrefered":"16","distancePrefered":"13","energyType":"0"}]