[{"index":0,"seed":"WFNTOH9QVUHKQYLNVTSUBTBGVNVSKQTUC9TO9CLPCYCXW9UEROIQNR9X9QWGEBAMGIUPQITDGMARPWFGF","address":"CKUNMNSWWAGBNOYWQQJDUKEPXIURZEILCXWHVPVCXJUOMBYAZIQZKDQWWBFMDIRK9JZNXJIN9SBNDCHIC","optimalPurchaseTarget":-100,"optimalPurchaseTargetScore":-100,"availablePurchaseTargetList":[],"optimalSaleTarget":-100,"optimalSaleTargetScore":-100,"latitute":"52.402368","longitute":"-0.849139","amountGenerated":"9","pricePrefered":"15","distancePrefered":"14","energyType":"2"},{"index":1,"seed":"AQFKAHGFDLITAGMYLIYTNEHVNPDJXFCTEBOCUKNMPFYRM9IMUCHVIQMVATUNXHIFLAMTKYNCVNB99GKMB","address":"ETQRHTSBRVMPAESQDRAHXAPCEDKBOIDZAYSXSBLJOFGGCEDTMLQOWCFUEYXVQFXYJCQIJNTOWTUVKFQ9X","optimalPurchaseTarget":-100,"optimalPurchaseTargetScore":-100,"availablePurchaseTargetList":[],"optimalSaleTarget":-100,"optimalSaleTargetScore":-100,"latitute":"51.595407","longitute":"-2.176965","amountGenerated":"7","pricePrefered":"14","distancePrefered":"12","energyType":"4"},{"index":2,"seed":"SAI9DPJE9VDJWWNUPNNWXIPYTCJLYLGGXYQRWADWPCSYBWDIIKW9FELUTSMXXDXBND9NN9SCGG9QJVN9F","address":"DNQHFRUZHGBDWLPYCMBXRBDIQVFN9RLN9KHFJWWPRMJCLDLANOPJUEOCCEAEQXEAXLBOUUPWQHBWWWZIZ","optimalPurchaseTarget":-100,"optimalPurchaseTargetScore":-100,"availablePurchaseTargetList":[],"optimalSaleTarget":-100,"optimalSaleTargetScore":-100,"latitute":"51.323981","longitute":"-1.787647","amountGenerated":"6","pricePrefered":"15","distancePrefered":"12","energyType":"3"},{"index":3,"seed":"XQPDNNA9H9PGSFLTWNIXELPMMSFOMR9OGSQYGKOUOFRGBNFDBLVHCSKCVXRUBDXDKKJYACTRSKN9YMSRN","address":"ISZLTJDHFZPITI9J9BWGHFOAV9LGQNWPXWAYPGCLSWNAYAEYBMWPLBWHYEPKA9ZNYZGGHYIZZHUPLCBOX","optimalPurchaseTarget":-100,"optimalPurchaseTargetScore":-100,"availablePurchaseTargetList":[],"optimalSaleTarget":-100,"optimalSaleTargetScore":-100,"latitute":"52.361667","longitute":"0.242916","amountGenerated":"6","pricePrefered":"15","distancePrefered":"15","energyType":"1"},{"index":4,"seed":"MHRWBLLBIGGBRBMPLVXUHPDGFDTK9IULAINDJVFINCLJYPGSUBNENOBLFHHSOSES9PCJAVK9INM9XNXHG","address":"CFMPEUANYNZIQMEDNMUQSVMZY9HIJEOACJ99WUMMUG9JDGIGQGAWGRHXK9DLJPMGJNRLPOZSWKCTRARSZ","optimalPurchaseTarget":-100,"optimalPurchaseTargetScore":-100,"availablePurchaseTargetList":[],"optimalSaleTarget":-100,"optimalSaleTargetScore":-100,"latitute":"52.070173","longitute":"-1.371388","amountGenerated":"9","pricePrefered":"15","distancePrefered":"12","energyType":"1"},{"index":5,"seed":"NDLKBIRJAPQXDHH9VMPOJFKSUNSWRBYJIIINMNSFEQQRFDHOVXPQBEMKYEUFKC9SAUNIJMVAFUCIJOUXO","address":"FICZPBKGHXXE99EPGQZTAYJAYRNRHJDNMHEPUTDFAECTGTQMZUIOFXTERRBITCOKRTIWWBGXJNQTC9SWY","optimalPurchaseTarget":-100,"optimalPurchaseTargetScore":-100,"availablePurchaseTargetList":[],"optimalSaleTarget":-100,"optimalSaleTargetScore":-100,"latitute":"51.054169","longitute":"-0.523903","amountGenerated":"8","pricePrefered":"14","distancePrefered":"10","energyType":"0"},{"index":6,"seed":"QHFJMPULOTGMDYUWPWPLLWDJEMF9KRDQBXXU9B9TJ9UPJAQCO9NXVGSEIMGLXXLMI9ECKFITQNWMQNY9L","address":"KECSTRHZE9AMTTORYUODYCSQN9TIJGVCGFG9DWANDVMYIHWY9VENMQJ9CLSYOLNWHDMRXRTLTDFEMURCD","optimalPurchaseTarget":-100,"optimalPurchaseTargetScore":-100,"availablePurchaseTargetList":[],"optimalSaleTarget":-100,"optimalSaleTargetScore":-100,"latitute":"51.870919","longitute":"-0.940727","amountGenerated":"8","pricePrefered":"14","distancePrefered":"11","energyType":"1"},{"index":7,"seed":"XSHVR9JKFTEH9TEBWJJQUFEYKBPUG99FNENAWVFVRBHE9YMWN9CDSFWPQOL9KHEDMGVARYSXSMMONXXLD","address":"JWVVISXYZYKVIQY9ALKLMMRAIXCDQ9MESGCLAPARVNSLEAHQTJUD9GVEGGJNWXVPQCDSFLQAQYAXGDTCY","optimalPurchaseTarget":-100,"optimalPurchaseTargetScore":-100,"availablePurchaseTargetList":[],"optimalSaleTarget":-100,"optimalSaleTargetScore":-100,"latitute":"52.368493","longitute":"-1.242730","amountGenerated":"8","pricePrefered":"15","distancePrefered":"11","energyType":"1"},{"index":8,"seed":"HHQK9OILSTGJFEC9RLA9NXN9BASSKNMFQYBQRHG9YJCXBPEFBQ9P9EIDTLXDVTIONJVWNMXJFXPHLEEVX","address":"IPJZKJGHLROZHGWLEFPNXGWONSLQFWWMMYOVCXEGZBXAJAUP9UXBVIFMMYGOVJFEFANXIOKHQGFSOD9HZ","optimalPurchaseTarget":-100,"optimalPurchaseTargetScore":-100,"availablePurchaseTargetList":[],"optimalSaleTarget":-100,"optimalSaleTargetScore":-100,"latitute":"52.364893","longitute":"-0.036556","amountGenerated":"9","pricePrefered":"15","distancePrefered":"11","energyType":"1"},{"index":9,"seed":"LOM9VXIWDKGVVI9FTR9TNGGL9XILBQLLAAFRPIVSWNNVX9WG9QBR9GUIKEHLEFFAVXYKKXIGJPYLPQUOM","address":"YUL9KQBOWKMSDNOO9MRVGQGRCOVCCNGGYVZIL9OJWQAKRSHRTBUHVMYBMIMYURGNAILEAMFVHNJ9OEZLZ","optimalPurchaseTarget":-100,"optimalPurchaseTargetScore":-100,"availablePurchaseTargetList":[],"optimalSaleTarget":-100,"optimalSaleTargetScore":-100,"latitute":"51.055395","longitute":"-1.703679","amountGenerated":"5","pricePrefered":"15","distancePrefered":"11","energyType":"1"},{"index":10,"seed":"C9MAVCIIU9HXVAKMTMNBRAPXWJDHJPEUDYGKYWEKP9YR9FJONKWHCRN9CHGM9EQOYIRTHWOAFFHJCTCAA","address":"X9WGNLDFXPMDDQUPDMLCZPATVYUIEI9XNXKEAVUDDMQTOKUHXRJFXRPOIDNFBADBSDCZWSZYPEYNTKZTA","optimalPurchaseTarget":-100,"optimalPurchaseTargetScore":-100,"availablePurchaseTargetList":[],"optimalSaleTarget":-100,"optimalSaleTargetScore":-100,"latitute":"51.802160","longitute":"-1.682394","amountGenerated":"8","pricePrefered":"14","distancePrefered":"12","energyType":"2"},{"index":11,"seed":"MBQWWTNRFOTWBYNBDWAYTEPJARS9ASRPVHXPANTWCX9DOIGNHQDPGUBHLTUTJFNGMJHBYVNUJWALXPSWT","address":"YJG9DWBAXDINQVCPVVYJBXOWADJLQY9UVCSBMXIAVJCMEQRTNOTY9XYZZGGQNVHFLWXPINIFL9ONMFFH9","optimalPurchaseTarget":-100,"optimalPurchaseTargetScore":-100,"availablePurchaseTargetList":[],"optimalSaleTarget":-100,"optimalSaleTargetScore":-100,"latitute":"51.422382","longitute":"-0.860997","amountGenerated":"7","pricePrefered":"16","distancePrefered":"13","energyType":"0"},{"index":12,"seed":"LRSKKNLTUD9WCWMAIEAXYFKIQ9KSJQONITOTEEWJLCKQHEWBRDSTVQYKQPYKDYLJDMU9BUNRSJYC9HEGT","address":"QKOPTUGGARWNFPSHABYAUUGIOLJEIHNVZUAMWFDJPQHK9JSOUIJNSTCXGGEBKCOUQVMKMLZFFCD9OJYJ9","optimalPurchaseTarget":-100,"optimalPurchaseTargetScore":-100,"availablePurchaseTargetList":[],"optimalSaleTarget":-100,"optimalSaleTargetScore":-100,"latitute":"51.929118","longitute":"-0.263404","amountGenerated":"7","pricePrefered":"16","distancePrefered":"15","energyType":"1"},{"index":13,"seed":"9XXFNSEQUCQSJQGQCSVNUPFUHBQ9TALUNDYIAMWTKBBHPJJWJ9EM9XXQWDQTLVPCNSKTJGIENLWIIS9TJ","address":"V9YDMDZUGV9MSZBQNALPSDZIJTKJBXEPZCDGROI9NFUROBJWCMCYYOXHLXGEXKCUHZACROULFSFERXAYW","optimalPurchaseTarget":-100,"optimalPurchaseTargetScore":-100,"availablePurchaseTargetList":[],"optimalSaleTarget":-100,"optimalSaleTargetScore":-100,"latitute":"52.365425","longitute":"-0.917062","amountGenerated":"7","pricePrefered":"16","distancePrefered":"13","energyType":"4"},{"index":14,"seed":"JWHYPEPSPNCAUYRELRMTRHQWGRVIJVBRDFURGB9UHVDJWIUYEHXD9CUNSXEEECHVTQUPPKBTYWEGQVSXU","address":"ZZGDGEKU9KGAKDZOUVQWVOIXXKQVUHOYSDVPHFEFTBKPMYKSIWPAIGPCMJIMDYVGJGTXXXFOEAGBUNVJD","optimalPurchaseTarget":-100,"optimalPurchaseTargetScore":-100,"availablePurchaseTargetList":[],"optimalSaleTarget":-100,"optimalSaleTargetScore":-100,"latitute":"51.418908","longitute":"0.175987","amountGenerated":"10","pricePrefered":"16","distancePrefered":"12","energyType":"1"},{"index":15,"seed":"TKPYLJAJTAQLBHDNTDDXDB9HGSDXBVJJNBVGMLM9UPNDBKLOVEGEEGJTDIYLISDKIQ9MFWJKEBJDPNSWV","address":"KFIIIMGOJC9OHK9QHQCZCNBUAPAIOODTCPDFHIV9SC99PFEMNCCAMVCGYINVI9VHH9JXUMDBXXXVMZRMW","optimalPurchaseTarget":-100,"optimalPurchaseTargetScore":-100,"availablePurchaseTargetList":[],"optimalSaleTarget":-100,"optimalSaleTargetScore":-100,"latitute":"52.027337","longitute":"-1.979428","amountGenerated":"5","pricePrefered":"16","distancePrefered":"12","energyType":"3"},{"index":16,"seed":"UJNDBUDGITHJAHDIQJWV9CRIJ9IYVHYHYUJ9FTSRBUKMMBWCCVTGSCKDKECKOBHGTGNYNLUGVG9XUFNEM","address":"SFIHZSYGOG9DXMGFHRAKPKCPKKGJOCSYAZYGYRRLZCUDGJX9LJJYWIUIH9YRVFMKGMQ9FUWBCGEHQWEHA","optimalPurchaseTarget":-100,"optimalPurchaseTargetScore":-100,"availablePurchaseTargetList":[],"optimalSaleTarget":-100,"optimalSaleTargetScore":-100,"latitute":"52.088368","longitute":"-2.136893","amountGenerated":"5","pricePrefered":"15","distancePrefered":"10","energyType":"4"},{"index":17,"seed":"FIWGNQSSAUSSGWMNUVCBTMDCRNGMGAQJ9VCBXCQGJO9XDGQTCAVYQN99SRTAIGAHTFBJRJWLXFAKSRBBQ","address":"PSTWV9DDTZBUUMOVAUW9DIVYOFHHSN9QY9DWUQJXSKORNEJDBCWEGK9MBZHHGXEMSAT9XGBSRECUWRBRX","optimalPurchaseTarget":-100,"optimalPurchaseTargetScore":-100,"availablePurchaseTargetList":[],"optimalSaleTarget":-100,"optimalSaleTargetScore":-100,"latitute":"51.607032","longitute":"-1.182483","amountGenerated":"5","pricePrefered":"15","distancePrefered":"11","energyType":"2"},{"index":18,"seed":"FVADPWPCHLMUTFNWHLCMPXQ9ED99USNUKYBGPLXC9TVOAFLYBTHTXVWTNODODFDKSULKCSAATKKSNPR9J","address":"UNIBDXFIEXFMXUUYRWXFN9IZLMEVUSPRNBRIUWILDPWHPIIOACMYOBL9XRNAIHAXHMAMTBGODKELVMMPW","optimalPurchaseTarget":-100,"optimalPurchaseTargetScore":-100,"availablePurchaseTargetList":[],"optimalSaleTarget":-100,"optimalSaleTargetScore":-100,"latitute":"51.488173","longitute":"-2.175256","amountGenerated":"10","pricePrefered":"16","distancePrefered":"14","energyType":"3"},{"index":19,"seed":"Q9PSRTVTSMIKOQAUYKMQBOTNOFYAJBTJQVFKUHYYFCTX9FPGETBVDOMFVVTIHCFYRGR9IROJVVCGAMCUJ","address":"OCRJCEKGEEZOALTULAHLJVADTLP9EZEU9KBJMTFTWOUMSU9OXJWEJKUPQJCROMLWCKAJIOIJV9NJGI99X","optimalPurchaseTarget":-100,"optimalPurchaseTargetScore":-100,"availablePurchaseTargetList":[],"optimalSaleTarget":-100,"optimalSaleTargetScore":-100,"latitute":"51.389079","longitute":"-0.262534","amountGenerated":"6","pricePrefered":"14","distancePrefered":"14","energyType":"2"},{"index":20,"seed":"KXNRU9IXAFXRL9OQAFWRIYXOETAQKBMDAPOSQONUEFBISBHRBPLTMK99IWIVBIJMWKOWJBJEKXQVFTKPM","address":"TJKB9BNZMBGIKYLXCJETIPLKHJPRCBZAQTCANMUYUGMTEVSAFOOKDWMSAYDJFROJTZ9ACPXKI9ACG9GOZ","optimalPurchaseTarget":-100,"optimalPurchaseTargetScore":-100,"availablePurchaseTargetList":[],"optimalSaleTarget":-100,"optimalSaleTargetScore":-100,"latitute":"52.222868","longitute":"0.290257","amountGenerated":"8","pricePrefered":"15","distancePrefered":"12","energyType":"1"},{"index":21,"seed":"SRITFOEWIRPTBXBYHIVXPHCOHJUAJ9BAMONRSFQDMBBIAQQLNYLHQYGVISJXKPMNBGVCILPOGSEGHQ9XW","address":"JUFX9JLYLRLIKCTAIELYR9SMNBMVRBEKAGZIBA9FHVRFWBQYSLFMYMMVBZBXVIUXIDPEDVFUVHRPRLWYX","optimalPurchaseTarget":-100,"optimalPurchaseTargetScore":-100,"availablePurchaseTargetList":[],"optimalSaleTarget":-100,"optimalSaleTargetScore":-100,"latitute":"52.415067","longitute":"0.070019","amountGenerated":"5","pricePrefered":"16","distancePrefered":"14","energyType":"1"},{"index":22,"seed":"AOBYTPEKFKNXBHSSRLFMKNDQUQPAVPOBMOM9IMQGDVJPDPL9BXBXXTIER9LYYWITUBKVNRDAGYJJRIV9P","address":"ZCXFMQQLCIXYHO9YHUHTPRPEFUOMXAQWPEZSDBXETMQFQNHJNSLSIDDWZODBDZIHBXSZRBPJIFIRBJLZD","optimalPurchaseTarget":-100,"optimalPurchaseTargetScore":-100,"availablePurchaseTargetList":[],"optimalSaleTarget":-100,"optimalSaleTargetScore":-100,"latitute":"51.215936","longitute":"-0.282234","amountGenerated":"8","pricePrefered":"15","distancePrefered":"11","energyType":"1"},{"index":23,"seed":"SVDCSDPTXSBXRVFPJIEEHJCWAXTBRGFSHWKEGVIIUUYDWRX9VYDYQ9VROWCKAHTAWDGVG9S9LNWACIISN","address":"GNVNVCYBIJHINUA9UTDGEPCXIDC9WZIEZQ9QWPQDDNMMIDMAQXRTMYTDMMEIZHZHZMSWCGKBEDJQ9EAYD","optimalPurchaseTarget":-100,"optimalPurchaseTargetScore":-100,"availablePurchaseTargetList":[],"optimalSaleTarget":-100,"optimalSaleTargetScore":-100,"latitute":"51.466178","longitute":"-1.633904","amountGenerated":"7","pricePrefered":"14","distancePrefered":"10","energyType":"4"},{"index":24,"seed":"IBCAIYDLKUARSIJRUMYI9WVIOOU9WJEI9TNIOBUDKPL9XF9AHADSBANQKPYVGOODLSOXGMJMT9JXPHRVO","address":"RAZUCNUCFNNZZQVOXMZLYCFN9JBOTWLZPHYQUAPXPM9RVJZGRGXKZKDAYYDVS9EJJBVNXVYYBNPTVUR9C","optimalPurchaseTarget":-100,"optimalPurchaseTargetScore":-100,"availablePurchaseTargetList":[],"optimalSaleTarget":-100,"optimalSaleTargetScore":-100,"latitute":"51.401776","longitute":"-0.578812","amountGenerated":"7","pricePrefered":"14","distancePrefered":"12","energyType":"3"}]