[{"index":0,"seed":"NXEIUIMEULLSSOOLHTYAQBXGIFW9DBPQJEQLXXJSXXDJCQGOCRRJSKQUNSQ9SYDSWDSYIUNUQCXJCVKNI","address":"EYACWLKSYQMLDVUGBIVGUGQVRNUBKCCGTQZWOPVWDIJBXTPHMAAXGJRPEHMROLLXDGNOKTZTJFWREOJSD","optimalPurchaseTarget":-100,"optimalPurchaseTargetScore":-100,"availablePurchaseTargetList":[],"optimalSaleTarget":-100,"optimalSaleTargetScore":-100,"latitute":"52.052162","longitute":"-1.289933","amountGenerated":"6","pricePrefered":"15","distancePrefered":"13","energyType":"3"},{"index":1,"seed":"NUOMNKCLBI9HTDDYKKYJ9TTVVRIRALIVXJGXNLBMVOTGLVCAXHYAAGCBKLMDFVXHIDTAQKWAH9JWTOWAN","address":"FZRKOSGSHPAQBLOZHY9JCKMOHAON9GZBIXFNMXBSSSAIEVFXJSKUZPXOGTAKLFVBREEWKTLTXITZKVZKC","optimalPurchaseTarget":-100,"optimalPurchaseTargetScore":-100,"availablePurchaseTargetList":[],"optimalSaleTarget":-100,"optimalSaleTargetScore":-100,"latitute":"51.550220","longitute":"0.114341","amountGenerated":"8","pricePrefered":"14","distancePrefered":"15","energyType":"4"},{"index":2,"seed":"HVPSYXYGXJMOOEWTLFGWRBPKIDMVITHSDNOGMBDN9ETAHWP9JDPISYGGJHGLIRYEMXPYNNWM9YRNFIVID","address":"AIWOZPBODXDMGCSSZENKOABBOMDAYRCKLDGQLLBBOCDF9KILFEBRO9SKNZDIVCGAURRIPEG9IKEAIBDJ9","optimalPurchaseTarget":-100,"optimalPurchaseTargetScore":-100,"availablePurchaseTargetList":[],"optimalSaleTarget":-100,"optimalSaleTargetScore":-100,"latitute":"51.894626","longitute":"-0.023959","amountGenerated":"6","pricePrefered":"16","distancePrefered":"15","energyType":"2"},{"index":3,"seed":"PTHUDQGTXUOQXVDW9DWA9PCIPLHOFKPLTNWHVOAOXD9JYPJBBBXABAJFNLFYNACYXOEX9YHJVKQMHVJYV","address":"DYJVCEMSIFYYTBZNTYTIKXRMGKBZVKKUCBEMJAJDPOVTUPIBHATDGHZAVSVLUNQPRHQKUAVAGFVQNRQZY","optimalPurchaseTarget":-100,"optimalPurchaseTargetScore":-100,"availablePurchaseTargetList":[],"optimalSaleTarget":-100,"optimalSaleTargetScore":-100,"latitute":"51.201078","longitute":"-1.367596","amountGenerated":"10","pricePrefered":"16","distancePrefered":"14","energyType":"3"},{"index":4,"seed":"QCVGNCGEXGUFONRKQRLMLKDHEFGPLLEVYHGVGSPRFWKXW9STXDFUS9PCQUHWBBQVRXLHKQDENXSRVGSVN","address":"9UIQBGJOP9MVJKM9ALSYLCPWCBUFQSWAICNJMLPPNGGBFJXHBGWCVCOKAWIEAJOWBDB9BEVWRSOXGTHRW","optimalPurchaseTarget":-100,"optimalPurchaseTargetScore":-100,"availablePurchaseTargetList":[],"optimalSaleTarget":-100,"optimalSaleTargetScore":-100,"latitute":"51.801467","longitute":"-0.428166","amountGenerated":"8","pricePrefered":"14","distancePrefered":"12","energyType":"2"},{"index":5,"seed":"JKPKCOEAFQBPXYLGQYYLEBKLBEBEWBYIR9UVEA9Q9MROCKRSDKWXVBGVSQGTSXWLSVMBUDLY9CULWSYAN","address":"JCFLMBNETQXYKBNKTTTHNGYLZWDCIVHGIWXDCKETDUL9KQQASXGSRRNMXOJPZXD9RR9PRRM9PSREALJZD","optimalPurchaseTarget":-100,"optimalPurchaseTargetScore":-100,"availablePurchaseTargetList":[],"optimalSaleTarget":-100,"optimalSaleTargetScore":-100,"latitute":"52.118638","longitute":"-1.064865","amountGenerated":"6","pricePrefered":"15","distancePrefered":"12","energyType":"2"},{"index":6,"seed":"NJKBFDDJIINELJB9IV9JNKYSFROAOBUEGTHVKMJOROCWUVGOLXMKTDGHNKI9PPJKJNFDUKPWILYBBFVI9","address":"WUGIUQGKQLPKTNBUAOVFSVDDCXCQZVQSKIRFSEANWVYZMDFLMEEKUUXTEYTGJBPDKTLNHHLEYMHPRSIKW","optimalPurchaseTarget":-100,"optimalPurchaseTargetScore":-100,"availablePurchaseTargetList":[],"optimalSaleTarget":-100,"optimalSaleTargetScore":-100,"latitute":"51.951822","longitute":"0.196373","amountGenerated":"7","pricePrefered":"15","distancePrefered":"14","energyType":"1"},{"index":7,"seed":"BKHLXITHJSANLPOXBYKGMACLHFPAPLVLYAJXGUQCXWTTEKLR9IXPFTOMMCXQMKCJVHSFGMPXNBIEQUAQW","address":"UGYNEQZDWZLMAQAXKVIJSCTLAFKQ9XZPGP9JKPFNWDEMMFVOCFIKGTMGSWEBEZWQBAYUSYYVLQOWYSUTW","optimalPurchaseTarget":-100,"optimalPurchaseTargetScore":-100,"availablePurchaseTargetList":[],"optimalSaleTarget":-100,"optimalSaleTargetScore":-100,"latitute":"51.698007","longitute":"0.038432","amountGenerated":"6","pricePrefered":"15","distancePrefered":"10","energyType":"4"},{"index":8,"seed":"JNERKPROYXRVUSSMXYXPNGVTPK9JGGDNFRSARSLPCJYVTI9E99PIVJRQIARUVN9UVMJKVRCOHHJGLCD9W","address":"BJSWLFZVSQQYVHBOCYHWXMFD9CZPQZXSPLRBONV9Z9ANKJHZOMQAQAVWKCJOG9PPXBSWULIAMAJPMIFYY","optimalPurchaseTarget":-100,"optimalPurchaseTargetScore":-100,"availablePurchaseTargetList":[],"optimalSaleTarget":-100,"optimalSaleTargetScore":-100,"latitute":"51.825093","longitute":"-1.445158","amountGenerated":"8","pricePrefered":"16","distancePrefered":"11","energyType":"2"},{"index":9,"seed":"JHSROEPAVQIERGUCMPSNXBVMRCMSAYCQEYTDGJN9OUDIEAFOPUYCDUFRSKY9DXX9CBNAGXPFPHNGCDIYO","address":"DQ9JXKEKKGGMCBKNBLRDKVLOHPWCSORI9BIUNKOYHYPDVCULBABSNHIEIZVAHPWFCYRIYLUFAOQRKKPKY","optimalPurchaseTarget":-100,"optimalPurchaseTargetScore":-100,"availablePurchaseTargetList":[],"optimalSaleTarget":-100,"optimalSaleTargetScore":-100,"latitute":"50.975341","longitute":"-0.601683","amountGenerated":"9","pricePrefered":"15","distancePrefered":"13","energyType":"3"},{"index":10,"seed":"YVCWCDYMMVLXRNFDMBYBRJPGXXQJTQFHHJUELPRTYWYKPWPQ9RHWFEEGINHPFB9QTPTQCRWEIIPFNIGTG","address":"QUZOVOTJTFUDRMXQGHNEN9FMGRHGSWKDPSXTBW9MEECDGZTBPLVPX9YRZJEWYNXTSWYIHSNISDYFOBTTW","optimalPurchaseTarget":-100,"optimalPurchaseTargetScore":-100,"availablePurchaseTargetList":[],"optimalSaleTarget":-100,"optimalSaleTargetScore":-100,"latitute":"51.498305","longitute":"-1.692675","amountGenerated":"8","pricePrefered":"15","distancePrefered":"10","energyType":"4"},{"index":11,"seed":"MPXXDPYNQMABICNKJNN9DXNMPKKRAGVFWFBJICLXUKXANVNMCLEPMCMDHVHXHNJ9WWAFDW9WVGRFRHUHA","address":"WM9ANHGYFKYMZKFGRMCVSFCEX9CILXOAMSAPBGJ9YSRKEHAXUGFALSQXAHZA9JBYC9VFMJVMEUDKE9KHC","optimalPurchaseTarget":-100,"optimalPurchaseTargetScore":-100,"availablePurchaseTargetList":[],"optimalSaleTarget":-100,"optimalSaleTargetScore":-100,"latitute":"52.318398","longitute":"-0.645368","amountGenerated":"6","pricePrefered":"15","distancePrefered":"12","energyType":"1"},{"index":12,"seed":"H9SXBLRNFVMTSGOKOFPBBVVRPCITRFXSLSMN9ECQTR9AJRFYJJWQXQEJEVIA9NGVBBWQPQBYEMJFOCYQG","address":"RR9VLZBWRKPHHKC9YKCKGHJRMLRXRCOJNVFYXYGEXTHBUMXPRCZSYTRIY9FXAYIJIWMJCUYYFGRAV9FAX","optimalPurchaseTarget":-100,"optimalPurchaseTargetScore":-100,"availablePurchaseTargetList":[],"optimalSaleTarget":-100,"optimalSaleTargetScore":-100,"latitute":"51.326381","longitute":"-0.313189","amountGenerated":"10","pricePrefered":"14","distancePrefered":"11","energyType":"4"},{"index":13,"seed":"9VMUNCMDBYQIVPFRSSFTTORIHGFDMFIFJNMFDEWRBTSRAYMCNKFHWXFFXFSYQQTWIYAJRMMEOVLDMJF9X","address":"MTUSPMUW9HDPPOGOAFTZXYYK9ZTVCMBDSMOXTHWFAXWUYVHEUNJRSFCWNMKAZJLNRPAJXLQAFUPF99KZ9","optimalPurchaseTarget":-100,"optimalPurchaseTargetScore":-100,"availablePurchaseTargetList":[],"optimalSaleTarget":-100,"optimalSaleTargetScore":-100,"latitute":"51.821524","longitute":"-2.201808","amountGenerated":"6","pricePrefered":"16","distancePrefered":"14","energyType":"1"},{"index":14,"seed":"QKHUOUJUFXBWLDFKWYSNFMCTSFGXGRECDTMYAF9WCTPQCERHLAUJXVIOJQSQDVFWXNHCKRNSBUGOCECDH","address":"JC9FZCETFTNJMVJNCQQLIFRODDJ9HIWBDJFSEYJGBMJK9HFBPCBCNRAESNETJWLVFELAJSRJDLJJZCLNA","optimalPurchaseTarget":-100,"optimalPurchaseTargetScore":-100,"availablePurchaseTargetList":[],"optimalSaleTarget":-100,"optimalSaleTargetScore":-100,"latitute":"51.233107","longitute":"-1.145550","amountGenerated":"6","pricePrefered":"15","distancePrefered":"12","energyType":"1"},{"index":15,"seed":"DGYYPLFRVUOAFOEPQCJPO9MNLPDBYDFRQTQTWRTOOXDTDAACHASGIQWCLLXIYVETXXHLJDDIXOWQDUGAE","address":"IDFNIMOFKWOTNYXQVVYKEWWRFJSZN9JRATXXDCTGG9YGFFGZEZIYSXQLDNBYFAWTXPVOTFFXYFNTWEXYD","optimalPurchaseTarget":-100,"optimalPurchaseTargetScore":-100,"availablePurchaseTargetList":[],"optimalSaleTarget":-100,"optimalSaleTargetScore":-100,"latitute":"52.292131","longitute":"-0.652976","amountGenerated":"10","pricePrefered":"14","distancePrefered":"11","energyType":"0"},{"index":16,"seed":"OQNABKDFRTJUSXYEYJEPKRALWHGRPMDFUOLLLUATFMDKCPHDWXQNWRMYYEGGCTKKQGYJJAOVBSUECSHWG","address":"ZXNOUMJXQEHQOIIRBLDUGND9DKMSSPIGURCKCUXULWVLAITEWCRPRAZYXPSHEDSSJVTQKSNGLPVCRABFD","optimalPurchaseTarget":-100,"optimalPurchaseTargetScore":-100,"availablePurchaseTargetList":[],"optimalSaleTarget":-100,"optimalSaleTargetScore":-100,"latitute":"51.907666","longitute":"-0.207149","amountGenerated":"10","pricePrefered":"15","distancePrefered":"13","energyType":"0"},{"index":17,"seed":"YUNMRHOVTTNYSFNIFLHLCNLSIEPFFSPPIFDILFWWUHUS9VAXWFPJRAMM9UKJHHJKL9KAPLRSQAELRLK99","address":"XBANDTFYOERFYEZAUYKJTKWRHAH9VRAKUNNAKQDOIBL9PAZVLLMDRFVCBTVSZOFWXUCHKOBWVPSAUWDLC","optimalPurchaseTarget":-100,"optimalPurchaseTargetScore":-100,"availablePurchaseTargetList":[],"optimalSaleTarget":-100,"optimalSaleTargetScore":-100,"latitute":"51.915572","longitute":"-1.325155","amountGenerated":"5","pricePrefered":"15","distancePrefered":"12","energyType":"2"},{"index":18,"seed":"JH9B9ALVUNRXBMIXOPTUJRXOQMQKFBXGEJX9TIUHYFBOGTVLFXHCRJQXMKCISBAMKWLCDYNYRNLDWJXXA","address":"BUWWSMWUFBQFJNG9BOHXTALBJJPVBRCOVMKPGXMSKH9JFAHM9IXYNBBDXONQQJUAVKFUFZZLHQULYDZZC","optimalPurchaseTarget":-100,"optimalPurchaseTargetScore":-100,"availablePurchaseTargetList":[],"optimalSaleTarget":-100,"optimalSaleTargetScore":-100,"latitute":"52.335030","longitute":"-0.539608","amountGenerated":"7","pricePrefered":"15","distancePrefered":"11","energyType":"1"},{"index":19,"seed":"BWUVLTENELUQLQSLLMNRYUURYXTQFJKWWGHP9GKQBIRRWGXISQFJIQIJUOU9EAFKTUGIKGPSRBTDGJVWC","address":"OCBTLJOMTAESTEVNOQR9EQGMUHBDGJDNXYUCQOXUNIXYPQDBNQFZNIQXPQISFYN9OTQBWWQGEBWPZVZTD","optimalPurchaseTarget":-100,"optimalPurchaseTargetScore":-100,"availablePurchaseTargetList":[],"optimalSaleTarget":-100,"optimalSaleTargetScore":-100,"latitute":"52.090455","longitute":"-1.347657","amountGenerated":"9","pricePrefered":"16","distancePrefered":"10","energyType":"3"},{"index":20,"seed":"QKXPANHDCLVJIJOI9VIQMFGVIRWOKDCSIBKAJACFBOPRKXQPHBKUVN9JWQKJMPOMOXGLVKCSNG9YPYKBG","address":"DAQHONSOUKIQSYXJNXLSPEJAERHWJHVIPGYDJZCIWTLY99SMAPNOLPZWDZ9OQMJCEBKQUTNBPL9SNRNRW","optimalPurchaseTarget":-100,"optimalPurchaseTargetScore":-100,"availablePurchaseTargetList":[],"optimalSaleTarget":-100,"optimalSaleTargetScore":-100,"latitute":"51.869759","longitute":"-1.253932","amountGenerated":"10","pricePrefered":"15","distancePrefered":"12","energyType":"4"},{"index":21,"seed":"CESQHLPVYUBIAAANBNVHMPBMRRRSOMGDRTLNFTQGESLQ9EDY9VQPCUOILIWGODAGJPGSEJYKVLYFPTMIH","address":"EGUAWXQACLXXUTQPNEKNKISUVGXKBXABWW99YZFQGWRERFIL9TNRJXDWJUQIUQFA9LZYM9I9ZPDJIZXX9","optimalPurchaseTarget":-100,"optimalPurchaseTargetScore":-100,"availablePurchaseTargetList":[],"optimalSaleTarget":-100,"optimalSaleTargetScore":-100,"latitute":"51.611276","longitute":"-0.613773","amountGenerated":"5","pricePrefered":"14","distancePrefered":"13","energyType":"3"},{"index":22,"seed":"BJQ9XYHN9MWRDSBNNJOWKCJUOPEDABYNVWXWNKIECVYTKI9VNFYGEBYBDBOFUFOEAAOFHDHUYFJYKSTKE","address":"U9KQEBZPJSAETIMTTJGCRK9VVTDPSGKXKNLLQERMBAKNWS99UFULJQIJQNYN9MCXBCUCVPTQKHMUDZRQC","optimalPurchaseTarget":-100,"optimalPurchaseTargetScore":-100,"availablePurchaseTargetList":[],"optimalSaleTarget":-100,"optimalSaleTargetScore":-100,"latitute":"52.170925","longitute":"0.013428","amountGenerated":"8","pricePrefered":"15","distancePrefered":"13","energyType":"3"},{"index":23,"seed":"UJBBPGRXXYTGNXPEBECAJKWAFY9VMJYFWEHNDEJVMKUXCFAHIUNIODM9Y9OXLPVITUD9SYPBUPYOBXWEP","address":"NJMKQKNWEPNOXP9VJJADMBQWWZMARZMSPGNESQBYWOYINTHEE9TFXJ9YXRZIQVLDWANSOTGW9FKWGTET9","optimalPurchaseTarget":-100,"optimalPurchaseTargetScore":-100,"availablePurchaseTargetList":[],"optimalSaleTarget":-100,"optimalSaleTargetScore":-100,"latitute":"52.022702","longitute":"-1.919558","amountGenerated":"7","pricePrefered":"15","distancePrefered":"12","energyType":"1"},{"index":24,"seed":"VBENKVMFRGJOIK9ISGCYSKDPOLE9XWFWGONKKJXVFDXRGYRKUTSQBEQILXCLQRVR9PTD99WKACAWAMMRW","address":"JZMJFCBDNH9UXIROJI9OQTMCSV9MYQTG9GYLLPJBOZBTTFHJT9MMWKNVZSVJLHBUFKO9HXBPVKWYYVXGD","optimalPurchaseTarget":-100,"optimalPurchaseTargetScore":-100,"availablePurchaseTargetList":[],"optimalSaleTarget":-100,"optimalSaleTargetScore":-100,"latitute":"51.053476","longitute":"-1.231140","amountGenerated":"6","pricePrefered":"15","distancePrefered":"13","energyType":"4"},{"index":25,"seed":"EMGMPTHHYNWVNDWGGVSSPMYFWSYXYLBHNQBXMPLXSYYQAKFETQTVKSATLP9SR9V9LMOBUD9BRWSOHXEGU","address":"9JCHTTNLBYZPGEMKDZXPXCB9KRJU9NKJDLQEMIARAPPBLJLSS9ULEXIPRJOSDPTFNFSYLRBMQHMFVGLXC","optimalPurchaseTarget":-100,"optimalPurchaseTargetScore":-100,"availablePurchaseTargetList":[],"optimalSaleTarget":-100,"optimalSaleTargetScore":-100,"latitute":"52.356390","longitute":"-0.802744","amountGenerated":"9","pricePrefered":"15","distancePrefered":"10","energyType":"0"},{"index":26,"seed":"UMOXMSINHYEWHUKMTEPENXRUQCSGAMUBERMOYLNELGTRNJSFHSXNJKTCMXAOPNFFUOMYJMIQBTEPYJQAG","address":"TDDIVMCXJPJHEBMGUCZCOSBPTWMHEILRSXRQZNGUUDRQYHQSSWWOLXNQKCGETEUBVQTDXWB9WDBAIXANA","optimalPurchaseTarget":-100,"optimalPurchaseTargetScore":-100,"availablePurchaseTargetList":[],"optimalSaleTarget":-100,"optimalSaleTargetScore":-100,"latitute":"52.287458","longitute":"-0.502941","amountGenerated":"7","pricePrefered":"15","distancePrefered":"12","energyType":"1"},{"index":27,"seed":"R99ICNSNLQ9TLWITLQBAK9NT9NNHHOYYMQLLRVOTPPXXAYSKYSDE9VAIVFOKUEUDFRKUGPKERRTCDRMSS","address":"XYMGWNYHLHOTXPXLERIVHCIYFBMX9BTWWGQEFGPEYE9SZLLGLLJGNFBR9QVXFWOREZJZKMTLTZQDHNQNB","optimalPurchaseTarget":-100,"optimalPurchaseTargetScore":-100,"availablePurchaseTargetList":[],"optimalSaleTarget":-100,"optimalSaleTargetScore":-100,"latitute":"51.921316","longitute":"-0.854327","amountGenerated":"9","pricePrefered":"15","distancePrefered":"13","energyType":"1"},{"index":28,"seed":"CQNH9WRBPHTVHHWLFJIRTPCXXQFLPHFPLVXEAG9UUBAUKXIBG9RAYJFQHFTABU9MSWOVXTIWNGQKFSPWF","address":"XTETWISHOSYPOPCJQTIQVWJEFBAC9YJPZFWYXCBBSXAOGNJYPFDERHNAZFUXEXKCMUQFEAZVRQPTQE9WA","optimalPurchaseTarget":-100,"optimalPurchaseTargetScore":-100,"availablePurchaseTargetList":[],"optimalSaleTarget":-100,"optimalSaleTargetScore":-100,"latitute":"51.339006","longitute":"0.026182","amountGenerated":"8","pricePrefered":"15","distancePrefered":"15","energyType":"2"},{"index":29,"seed":"LDJSK9YEGOEYVNBXOQOKTSDHUWQDTRKVUJUDHELCIK9ONAVHCYANMTXKCDGW9LJTANTKKHFOETBYJQNGV","address":"ESYBBXOCBTYEMIPX9YIBFGCCH9SNJVAGNIYAZVHIZOGKQPDSPFSSPXCXQITE9JI9WLACCXNDZTJNEHKJY","optimalPurchaseTarget":-100,"optimalPurchaseTargetScore":-100,"availablePurchaseTargetList":[],"optimalSaleTarget":-100,"optimalSaleTargetScore":-100,"latitute":"52.349932","longitute":"-0.002133","amountGenerated":"7","pricePrefered":"16","distancePrefered":"12","energyType":"3"},{"index":30,"seed":"AUDWQMAJFPVHSPNOYVEPFLKPONLMXMTKAEKUJJFWLSLUSDJUVO9DNLNTNDMJPLALBYFLYAKWKBVACCUQY","address":"KL9GUH9GXWBKEKUIKOOKVNWPRQNBMCWDLTJ9ZPCPBGUDQAZYBNWTVPWSLOINK9PHSVERBAWSOKUHSUKD9","optimalPurchaseTarget":-100,"optimalPurchaseTargetScore":-100,"availablePurchaseTargetList":[],"optimalSaleTarget":-100,"optimalSaleTargetScore":-100,"latitute":"52.265344","longitute":"-1.345894","amountGenerated":"8","pricePrefered":"15","distancePrefered":"12","energyType":"1"},{"index":31,"seed":"VMRTWBBHQPLAIONAICNBEXLLTBXUORKGVYPULCVELB9JFBRXMBOFUUTYHMLDUMKSLBLWTQEJJYQM9AMBH","address":"FNMHGKDDZAYEDBQVGYIMIIKUQTSGWVCGZTAASXSCBAUMU9XSJZENHZEDRDZQNLIZFIXCJ9VXKRGFQRUZX","optimalPurchaseTarget":-100,"optimalPurchaseTargetScore":-100,"availablePurchaseTargetList":[],"optimalSaleTarget":-100,"optimalSaleTargetScore":-100,"latitute":"52.147963","longitute":"-1.506555","amountGenerated":"9","pricePrefered":"15","distancePrefered":"12","energyType":"1"},{"index":32,"seed":"ENQDRXHDHSIFGKRAEGYPHYVEA99QCTIFSIADXYSFMHUBBMYQRJEMXYQDAUEKVXUFCFRWWWQQPS9PFVUFD","address":"GAUQAISLTZQCIHBQ9EWBGSGCDTRHMGAKDKEBSVYLZEWFCZGFSUFLJBXTHJAYEMXTGARHOPYVDBRZRBUGW","optimalPurchaseTarget":-100,"optimalPurchaseTargetScore":-100,"availablePurchaseTargetList":[],"optimalSaleTarget":-100,"optimalSaleTargetScore":-100,"latitute":"51.495376","longitute":"-2.322717","amountGenerated":"8","pricePrefered":"15","distancePrefered":"14","energyType":"0"},{"index":33,"seed":"VQMSODJVKEOJWEYHGCYSNUUBWGF9TCWOQP99QBFYNTTTVWD9AIMEMXJDFWJKOTVDALVXXKRLAYJIECW9M","address":"PCPWTSKYXTWFSJXVKEYOUWFTLFYNWKRQAWRNF9XIVYLSB9LJFKSFUIYH9WFRSMHQNNUNXYEHHLUSVSMNY","optimalPurchaseTarget":-100,"optimalPurchaseTargetScore":-100,"availablePurchaseTargetList":[],"optimalSaleTarget":-100,"optimalSaleTargetScore":-100,"latitute":"51.951257","longitute":"-0.059424","amountGenerated":"8","pricePrefered":"16","distancePrefered":"11","energyType":"2"},{"index":34,"seed":"UTEIHWNMIVDSOMHECGFNETGNFPKEGOWSICQVYSCEAFURNROODEIDBQXHI9RYM9WKEMLUAFBXEECLXG9AA","address":"GZLFRM9WKVOYOWBEDCXSLODCTHRJ9TTWBALHYBAPI9EXTXXCTMQFRSLJPAYGCRXCZFZRINNQTHOSEIYJ9","optimalPurchaseTarget":-100,"optimalPurchaseTargetScore":-100,"availablePurchaseTargetList":[],"optimalSaleTarget":-100,"optimalSaleTargetScore":-100,"latitute":"51.199539","longitute":"-0.280983","amountGenerated":"6","pricePrefered":"15","distancePrefered":"10","energyType":"4"},{"index":35,"seed":"NAFAMHFWJEFFQGLSEUTTKB9IKBDJPQGSEVUYLTSBBNSXTCWRXFJDG9UBMTIFV9AVIDNHGGCWBILFUDGXA","address":"GRMYLTLYIXQU9NJEOHUUSQLGYAAFVRBRKOCVK9UVGCFVSOBBUDARUEJWYQFQSHTXWACGAZULKARWRINVX","optimalPurchaseTarget":-100,"optimalPurchaseTargetScore":-100,"availablePurchaseTargetList":[],"optimalSaleTarget":-100,"optimalSaleTargetScore":-100,"latitute":"52.415967","longitute":"-2.092854","amountGenerated":"6","pricePrefered":"15","distancePrefered":"10","energyType":"0"},{"index":36,"seed":"FTHBOKYJJLBYDYYWXKQIKAIKRITGCP9SRKAJIXYDTGPKUEPSOCOFLYLDVNODPIKIHVD9FKSTNECJ9KANH","address":"SOVINWDPE9CIVQMIJBYYZGNHADXXWZJAGDTVMQYUYFHTBMEDNZRXKPOAYYQONLWURPG9PHH9VPSRRLYVW","optimalPurchaseTarget":-100,"optimalPurchaseTargetScore":-100,"availablePurchaseTargetList":[],"optimalSaleTarget":-100,"optimalSaleTargetScore":-100,"latitute":"52.081207","longitute":"-0.811534","amountGenerated":"7","pricePrefered":"15","distancePrefered":"11","energyType":"4"},{"index":37,"seed":"RASXKHQQTRGQNBDHJPGKR9JYAPTAPDVMUVUDGHSNUXPNBDDSJIUBTMENVIAKNGQCVODAQXFCQBCSTRQBI","address":"KUQIZ9FET9PNYQYQHFACPOUOIVJYNRLKFRMKOJAGMZG9Q9TB9PYNDFFTSGMSDRSTSOGCDIBPTUPYFTFFC","optimalPurchaseTarget":-100,"optimalPurchaseTargetScore":-100,"availablePurchaseTargetList":[],"optimalSaleTarget":-100,"optimalSaleTargetScore":-100,"latitute":"52.222800","longitute":"-1.618443","amountGenerated":"9","pricePrefered":"14","distancePrefered":"11","energyType":"2"},{"index":38,"seed":"APVGGVYIIJYWCEDKXXPUENEXWBTBDMFWHAHIIUWF9XVJFPVBBNYQVRBQQTLRJYJALBFOH9WYAMFEALTNF","address":"JOY9VYMIHXKMLOGCITTNZBQPQPVBWW9CAQPXWSMHNSACYRCQVRHFLDDTYAFDRVZNSACIGGORKPBSSJFAX","optimalPurchaseTarget":-100,"optimalPurchaseTargetScore":-100,"availablePurchaseTargetList":[],"optimalSaleTarget":-100,"optimalSaleTargetScore":-100,"latitute":"51.071400","longitute":"-1.263253","amountGenerated":"8","pricePrefered":"16","distancePrefered":"14","energyType":"2"},{"index":39,"seed":"VWKNEJUCLJOLKGBFGJQTIMIWUHMMVE9VBPBIDOKVGBWEWYOPH9ED9YQNDAJNYHKVEYLOGXAKRWFSBVPTN","address":"GLOQGIPJFHXRWXQHYREKYPAVAFOAJUAEGVT9SZKPWPCRGWPZYJFMJMOYTVFIYUNGYBSALICHWUVNFUVBA","optimalPurchaseTarget":-100,"optimalPurchaseTargetScore":-100,"availablePurchaseTargetList":[],"optimalSaleTarget":-100,"optimalSaleTargetScore":-100,"latitute":"51.783326","longitute":"0.253686","amountGenerated":"9","pricePrefered":"15","distancePrefered":"13","energyType":"4"},{"index":40,"seed":"TMT9CLBGBUHWJKVNDFPFYHVOR9KOMTH9JKDLBHQCU9QXYGXGP9QRMAFHPHMTPEPDNAPFPKVWQPGOLGXDE","address":"IIUVWFBFDHMBUHYWUIZHZDLPJUFDEFVPOUOHCCQKLAKYIR9EEQEGAWHLUWZV9FFI9SEGOIEMPKPNGQBND","optimalPurchaseTarget":-100,"optimalPurchaseTargetScore":-100,"availablePurchaseTargetList":[],"optimalSaleTarget":-100,"optimalSaleTargetScore":-100,"latitute":"52.054693","longitute":"-1.089317","amountGenerated":"6","pricePrefered":"15","distancePrefered":"12","energyType":"3"},{"index":41,"seed":"OFSRMKOUUABLVL9YDUYOVFAJYPFGMKFCXUSXVIHYBXEUGKBSUVFXBIYKHFFSHPVMFYOUWKVMHCBVGLJVD","address":"LDEJIJHRQEHBNRDQKBJNQJMTVERTSWPIJKGAMGFRENQZRPHQPJWKYF9KBZGNMEBLXNNKKHPJVZZJOOLMZ","optimalPurchaseTarget":-100,"optimalPurchaseTargetScore":-100,"availablePurchaseTargetList":[],"optimalSaleTarget":-100,"optimalSaleTargetScore":-100,"latitute":"52.184671","longitute":"-0.137063","amountGenerated":"9","pricePrefered":"15","distancePrefered":"12","energyType":"2"},{"index":42,"seed":"MO9CWCNWGAOXASFTEOOUSOV9GKAJPAUFMEHN9TKLXGIDLEOXYBSHNDXICQKMANFPLSAWQWLRJJWREEIOP","address":"OWTVZGJHALJUANJJPZJYPM9GWHZSPIJRUQCNYIBOPWXUBJGUECHMOYEKCUT9BVQNOUUPGDAJQAZFG9NLD","optimalPurchaseTarget":-100,"optimalPurchaseTargetScore":-100,"availablePurchaseTargetList":[],"optimalSaleTarget":-100,"optimalSaleTargetScore":-100,"latitute":"51.285591","longitute":"-1.937400","amountGenerated":"9","pricePrefered":"15","distancePrefered":"14","energyType":"2"},{"index":43,"seed":"RRKYYKDTMKSCQKFETELULOYOABMNWHKKEMHPKWJWBOOQVNOWORYXAAI9DUQWDMB9QKCTPIGTXUBMQRFXF","address":"YMANFYSEJHVQFVFFMHYKBDODSYLFRHXMOTMKQTBSHQ9ZO9VQCFOFJLNBOWX9N9BHWWXAVYBNRDBDRGA9X","optimalPurchaseTarget":-100,"optimalPurchaseTargetScore":-100,"availablePurchaseTargetList":[],"optimalSaleTarget":-100,"optimalSaleTargetScore":-100,"latitute":"52.182103","longitute":"-0.641691","amountGenerated":"8","pricePrefered":"15","distancePrefered":"14","energyType":"1"},{"index":44,"seed":"OO9YBSHISPUMYTJOMMPCPIRCNXKOVKOTKBUTPXAQUHIXQQH9LAKEL9VQGVCJFTCBSVPXITY9TKQKXYAYR","address":"QVNMTPBGAQUMSGXPUIMYDAEWAANDDAFBKSJIVNFWABNVOVDIQSYQGKMRPJUOHJAWHWRIAZ9ISMKQAJQVZ","optimalPurchaseTarget":-100,"optimalPurchaseTargetScore":-100,"availablePurchaseTargetList":[],"optimalSaleTarget":-100,"optimalSaleTargetScore":-100,"latitute":"51.142617","longitute":"-1.098755","amountGenerated":"10","pricePrefered":"16","distancePrefered":"11","energyType":"4"},{"index":45,"seed":"YGLUQT9JJQHSACODRI9M9STQLK9WUUCJ9XWDCRP9TFGUYGCXKEPSULQNFSBKACV9GQAOLAASPJB9WTSJK","address":"XKBUVDEZLCKACKRLZAXVMDJNWASNAQ9KJVIKXVGEHOEHNHI9GBWKYULJE9NXXSYGGEX9FKGVATZDBITMW","optimalPurchaseTarget":-100,"optimalPurchaseTargetScore":-100,"availablePurchaseTargetList":[],"optimalSaleTarget":-100,"optimalSaleTargetScore":-100,"latitute":"52.110395","longitute":"-0.805849","amountGenerated":"6","pricePrefered":"15","distancePrefered":"14","energyType":"0"},{"index":46,"seed":"TBYANQ9CNWFWWNHCEMNCDPRURGEYCXOSON9GHPJINPWJNUNIORJFDBCFFVBKENNPJJODNVWKENVJUNAPT","address":"OVXFDMM9YNOQZYVHYJ9LHKTMLHLUAEEZLVBVMGKSEFEZLGHFE9QN9JLRDIXOPQSRFRKAINGOUONASEIUX","optimalPurchaseTarget":-100,"optimalPurchaseTargetScore":-100,"availablePurchaseTargetList":[],"optimalSaleTarget":-100,"optimalSaleTargetScore":-100,"latitute":"51.621503","longitute":"0.127860","amountGenerated":"7","pricePrefered":"15","distancePrefered":"14","energyType":"4"},{"index":47,"seed":"SILBUCKRENJUGFXGMWWIKTPVMMAMTEXNUWNMRJWDKYTNMDDR9ELMS9BOC9HLPTLVRHQPQHXPHVTHDQEBE","address":"TLSDBQXNLMLEHMDCCCGQUTXXJGOPQN9QRH9SEROUXPISLMTSIGEDPMEZMTUFYWHYZARACAQWHDJAV9IQ9","optimalPurchaseTarget":-100,"optimalPurchaseTargetScore":-100,"availablePurchaseTargetList":[],"optimalSaleTarget":-100,"optimalSaleTargetScore":-100,"latitute":"52.161153","longitute":"-0.078846","amountGenerated":"8","pricePrefered":"14","distancePrefered":"14","energyType":"3"},{"index":48,"seed":"NHBDQL9IVYBABVWASLNNAVJIAGKYXAVMIBNTKPP9XHWGMEASNVMQOMDTDOXLFNGDADLVKCRGFEIXJOYLF","address":"PYKALOSPZVMECBZXPIX9NXZN9RMAMCIPNFARPATLPICSNPRYWAGCHOKOMEJHKRUCWLVNJPIOUA9RXXQAC","optimalPurchaseTarget":-100,"optimalPurchaseTargetScore":-100,"availablePurchaseTargetList":[],"optimalSaleTarget":-100,"optimalSaleTargetScore":-100,"latitute":"50.999502","longitute":"-1.378007","amountGenerated":"6","pricePrefered":"16","distancePrefered":"11","energyType":"0"},{"index":49,"seed":"BXELRYSXQXQXR9KJATNFEFYYUTLSEFIKLBLRBNRDIORXKLTRYUHJXHVVWTF9T9UVVPVVYXRQEEIRMK9WL","address":"9HHSIFZEWHDU9TJCTIF9YJCMWWEBEQQRQILDNYFLYOICWGOTLGMTEOBCBAKFXNYRZNCLFFGLURAWDWYZX","optimalPurchaseTarget":-100,"optimalPurchaseTargetScore":-100,"availablePurchaseTargetList":[],"optimalSaleTarget":-100,"optimalSaleTargetScore":-100,"latitute":"51.235519","longitute":"-1.800125","amountGenerated":"8","pricePrefered":"14","distancePrefered":"10","energyType":"3"},{"index":50,"seed":"XFRWCHKQBLEQWUN9CDD9RDJFAHWBVTREBAVBAQYEIFAMJWHUXLMFOPBWPPORXLDVRUPRUAOOJIBCBABYB","address":"PNIWYJODTVIJCPEJUROSCXGAQTJCJHSNTSYGWDKJDGXSXAFNHCBJEIYTAYORARYVD9GZVSBWRCCQSFYXA","optimalPurchaseTarget":-100,"optimalPurchaseTargetScore":-100,"availablePurchaseTargetList":[],"optimalSaleTarget":-100,"optimalSaleTargetScore":-100,"latitute":"51.461288","longitute":"-0.430023","amountGenerated":"8","pricePrefered":"14","distancePrefered":"12","energyType":"3"},{"index":51,"seed":"DRMMHL9NQBHOIMEALPENQBFSNSIEYDXGNGJWYGGNUPPSDCJWGRBLVEBHXCQNXKHVUC9BMKSVJCNDXXQHW","address":"RGSNDAZWMXYOTZUGARORGDNDIQWIVLVF9JWBLAAHUECHHHDIEFYQFEQDMBSQMPWZDJNJMYUYXYMSURMGX","optimalPurchaseTarget":-100,"optimalPurchaseTargetScore":-100,"availablePurchaseTargetList":[],"optimalSaleTarget":-100,"optimalSaleTargetScore":-100,"latitute":"51.180074","longitute":"-0.221531","amountGenerated":"9","pricePrefered":"14","distancePrefered":"15","energyType":"2"},{"index":52,"seed":"9NCOLDHAVSBIDJMGR9LBHVOLSAETIBKVHSVFNRXTMIDHEQTVTKKO9CPPYEJ9CXJA9FQWLGTMP9PRSQACM","address":"WUKFWVNLCQAGQZI9RZVNKNYJVEQTFLTOPNVQUULIYMJSNRMIQHTHHQFHUQJWFFNTKTKXHAWPPTCEGVRXW","optimalPurchaseTarget":-100,"optimalPurchaseTargetScore":-100,"availablePurchaseTargetList":[],"optimalSaleTarget":-100,"optimalSaleTargetScore":-100,"latitute":"52.179450","longitute":"-0.043882","amountGenerated":"8","pricePrefered":"16","distancePrefered":"11","energyType":"3"},{"index":53,"seed":"DXRTLLIKBURPOWBWGARYYABYFJISDPMXGKAGFXCCCHTISLHLNEAOVWYQIJPTSFERLQCPFJDDWRUPUYUSG","address":"QXAHNVFFEFRDFDVDHPFGMMLJHIYKOFCXLVUMOICODOADTZVSVIBHJRCWDCKQERALDFOBPABQX9TCSSMMD","optimalPurchaseTarget":-100,"optimalPurchaseTargetScore":-100,"availablePurchaseTargetList":[],"optimalSaleTarget":-100,"optimalSaleTargetScore":-100,"latitute":"51.668339","longitute":"-1.990559","amountGenerated":"8","pricePrefered":"14","distancePrefered":"15","energyType":"2"},{"index":54,"seed":"GEPICAJQOBLNGMA9FFUJJDOXDSOCCAPODCDLEUAARGQYOTTIXPFNVKFIJUPEQSBDVCMFCKLQ9YFMXBK9J","address":"RTWHGLCCFACZIBDUQANNTL9APBSSLPSSYOKQDSUYMVFFVFZYGGEJFVTYXHKUDPRNFJG99QERMPATDEPKY","optimalPurchaseTarget":-100,"optimalPurchaseTargetScore":-100,"availablePurchaseTargetList":[],"optimalSaleTarget":-100,"optimalSaleTargetScore":-100,"latitute":"51.580540","longitute":"-1.745273","amountGenerated":"5","pricePrefered":"15","distancePrefered":"13","energyType":"3"},{"index":55,"seed":"VINDOQEHEJJNPQXDCCOLNOPICB9MPPXQKWEPDHHFQRDPSDOCADVQAEUWHFXWIIJWRXWIGAYMVFJBOOCBY","address":"KRPZG9L99WXCAVOOXLVHDZWEIOSGWMSCHEKYHHCNUEWPUIG9CRCPLRJBHTPGTURNLBJFNCZSYKYWKTUSX","optimalPurchaseTarget":-100,"optimalPurchaseTargetScore":-100,"availablePurchaseTargetList":[],"optimalSaleTarget":-100,"optimalSaleTargetScore":-100,"latitute":"51.903749","longitute":"-2.363681","amountGenerated":"9","pricePrefered":"14","distancePrefered":"11","energyType":"1"},{"index":56,"seed":"WLWEKB9VIHJSJBFANHCIHW9SGYDUK9PQAQJFWNTTMMQEKWWUA9JBB9HXRFAQBMBYFVXFXEAYQGEJBPLWY","address":"NTOWTHGRLD9OAGHHUIEGLMXTDIP9CUGRZDCHCCFUQBWCFCOCRAHDUUBSHFOFSZTSNCVEBNJIROAJRTZFX","optimalPurchaseTarget":-100,"optimalPurchaseTargetScore":-100,"availablePurchaseTargetList":[],"optimalSaleTarget":-100,"optimalSaleTargetScore":-100,"latitute":"52.046618","longitute":"-2.054128","amountGenerated":"10","pricePrefered":"15","distancePrefered":"14","energyType":"2"},{"index":57,"seed":"KOOKQTWVAAMDJXVPLQ9FTP9FAFLJQTOKSOHGTTNCLISPPJHANSLGIRLKHDVLCFRIDUTDPFLG9KXEQCSNK","address":"9BOSCGLAASXAR9CVEUYBAQB9WNHWBRENZSWQYPQKBGTJBQLNKYSNOIQGHVYSHGQMZRLTKIIEGZVNHWEWW","optimalPurchaseTarget":-100,"optimalPurchaseTargetScore":-100,"availablePurchaseTargetList":[],"optimalSaleTarget":-100,"optimalSaleTargetScore":-100,"latitute":"51.888787","longitute":"-0.197168","amountGenerated":"9","pricePrefered":"15","distancePrefered":"15","energyType":"3"},{"index":58,"seed":"XDTFWHEAETDJYDSQYJRSMUVYLWJHCNTIXAU9TPQFYWDORYYGKLKFTOEEXBENLDVKURGPHUJTBFKPGVDWB","address":"KHYS9XTZWM9WXBDXEPGXKIHUYOCIQPYBBNLDQUBYBSTURSBXPEONRFGDFXOWAJZBOOEXJHFTVJSDL99WW","optimalPurchaseTarget":-100,"optimalPurchaseTargetScore":-100,"availablePurchaseTargetList":[],"optimalSaleTarget":-100,"optimalSaleTargetScore":-100,"latitute":"51.060987","longitute":"-0.590994","amountGenerated":"8","pricePrefered":"16","distancePrefered":"15","energyType":"4"},{"index":59,"seed":"CLLQVEQDNVPPBEEVBQRIECFCLWFQNAXNHAEHQ9NPACILJNLFSWPBLQMNDVDKHTUJBWCDKITAVWFRIEDGY","address":"UYDPKHDWSRRVVUOZWXHBF9LDMVLLTRHKKVKKCIKWQCNDO9NULMQNWSGKUSSRVBASONRHOHLBRJGA9VIEB","optimalPurchaseTarget":-100,"optimalPurchaseTargetScore":-100,"availablePurchaseTargetList":[],"optimalSaleTarget":-100,"optimalSaleTargetScore":-100,"latitute":"51.997368","longitute":"-0.266517","amountGenerated":"9","pricePrefered":"15","distancePrefered":"12","energyType":"3"},{"index":60,"seed":"RCFRGQLCOC9QNXIPLSAPLCIVEVKDJEMPOUMQNRXQGQSRSTOMPUWUMCDCBPRGHUDYYMOSRNDGGWYQTPKYV","address":"TGWXMBDAK9VMBHWEJXMQEYWT9NIMEUZXQHALYQILSOKTGSIMXLBYPOKAHNUDZVJMODZAPSU9CVSFCFHB9","optimalPurchaseTarget":-100,"optimalPurchaseTargetScore":-100,"availablePurchaseTargetList":[],"optimalSaleTarget":-100,"optimalSaleTargetScore":-100,"latitute":"52.127713","longitute":"-0.203035","amountGenerated":"8","pricePrefered":"16","distancePrefered":"13","energyType":"1"},{"index":61,"seed":"EAAQOKUEQPFPSESAADCWMW9YGTGNV9KAH9WJWIF9DFMRHLERFFVLNIJRXXQYPEJXRCLAOVYBGWFVNCLBJ","address":"ZPQGZCSHIVCTBECLUDCWKTNHEJYTFOBNCOOGWGWMOESLICLMWOJFCIRCSBPYFYLYXCJJOBYUYVTYZRLVX","optimalPurchaseTarget":-100,"optimalPurchaseTargetScore":-100,"availablePurchaseTargetList":[],"optimalSaleTarget":-100,"optimalSaleTargetScore":-100,"latitute":"51.357324","longitute":"0.073079","amountGenerated":"9","pricePrefered":"16","distancePrefered":"11","energyType":"0"},{"index":62,"seed":"X9RXIKAMWKLNPIBXIYGCHXJYLKTKPWKTFJPAGQN9P9PJLTHLSAVPCHUTRJGX9CFWUIXYAXOAVDKWGA9VA","address":"ZJOBITUBWOCZEWLNUNIGXGTMTWBSPFVYKWUUTJMZYSRUQODAHDPMDPLOSXZJIDCJF9VVODHBKOKAVFKWW","optimalPurchaseTarget":-100,"optimalPurchaseTargetScore":-100,"availablePurchaseTargetList":[],"optimalSaleTarget":-100,"optimalSaleTargetScore":-100,"latitute":"52.396780","longitute":"-1.547130","amountGenerated":"9","pricePrefered":"14","distancePrefered":"13","energyType":"1"},{"index":63,"seed":"PEDDWNXLCJWYJJTTIYHABXXMUASXKHTVKIJUYOEPJCXBB9YOFHHIYGHF99QJ9XTXXPWOHJSGNNRGVMHWU","address":"XTRJNE9JU9YCCINQHUCAICQPLWJQKSLRCNKKHYO9VOVYYPVNLUVHEYBZRYO9CNNQRCXXUGYUSOW9DMGGW","optimalPurchaseTarget":-100,"optimalPurchaseTargetScore":-100,"availablePurchaseTargetList":[],"optimalSaleTarget":-100,"optimalSaleTargetScore":-100,"latitute":"51.416197","longitute":"-1.113517","amountGenerated":"9","pricePrefered":"14","distancePrefered":"12","energyType":"1"},{"index":64,"seed":"QDACA9KJSAKARMRDKXNFI9YXEKGFNQHLHSWCFHAVBGSISEJHQJIXFUPEPIIGXHLKBECGMMTIHSRDXQXRX","address":"ATVEOTH99QEXLNGLZYAUFUFNFGKLYFRNQKTOKHNQUAWPPGC9MIANOAKRSOJBMZCYFO9DCVHRZZD9OSBEZ","optimalPurchaseTarget":-100,"optimalPurchaseTargetScore":-100,"availablePurchaseTargetList":[],"optimalSaleTarget":-100,"optimalSaleTargetScore":-100,"latitute":"51.773919","longitute":"-1.026838","amountGenerated":"9","pricePrefered":"15","distancePrefered":"15","energyType":"1"},{"index":65,"seed":"NCTCJNGUDMBYEWR9LPMNTL9OVAMNHHGGMMOHPLBIXPFJ9FPMSTXLKNPMF9HU9GC9XYJX9MWRHXMNGYRLL","address":"MLAX9DZRXTWJLRH9JLVNKSCRJN9PNLNAQIN9IZMVGTFINEPUCQQWUPKSKIIOASFPDHPVPKULR9BTVUWUZ","optimalPurchaseTarget":-100,"optimalPurchaseTargetScore":-100,"availablePurchaseTargetList":[],"optimalSaleTarget":-100,"optimalSaleTargetScore":-100,"latitute":"51.100047","longitute":"-1.413435","amountGenerated":"8","pricePrefered":"15","distancePrefered":"11","energyType":"1"},{"index":66,"seed":"TXAV9ERYQBP9GMESGDDSMHVMENVDFHGHA9UFMJGDVXFOOYAUNQVPEIIBSADJVWXPSPPQISQCYQFRODK9O","address":"IUYXUYBTHVJSJBMQZCXKEVLFKWW9FFQKFHYNXIJFCKEYWCTYGDYVZEOTZKYQIOVHVWHAZUXMCQHCYMGJW","optimalPurchaseTarget":-100,"optimalPurchaseTargetScore":-100,"availablePurchaseTargetList":[],"optimalSaleTarget":-100,"optimalSaleTargetScore":-100,"latitute":"51.909453","longitute":"-0.814204","amountGenerated":"5","pricePrefered":"15","distancePrefered":"12","energyType":"1"},{"index":67,"seed":"GMGKIXTBOBDKUIJENFS9VVPGDVSV9KHSSLLKTNBSRGTXLXWUTGNKWCVFCLP9IOAIWXDXKCBPGENVSRWFU","address":"YIYUEUYRYLITIKLCFVZOR9VYPCJSBYEX9TEBKPZQYGX9XQC9QZUMUTYIVCRMKLZKFXKIKVYDDMDDXJRZY","optimalPurchaseTarget":-100,"optimalPurchaseTargetScore":-100,"availablePurchaseTargetList":[],"optimalSaleTarget":-100,"optimalSaleTargetScore":-100,"latitute":"52.353884","longitute":"-1.784735","amountGenerated":"10","pricePrefered":"15","distancePrefered":"14","energyType":"1"},{"index":68,"seed":"GXWYPJQETJWVTYLYHKBHKXF9XGJYBQDLRUVT9VLVMC9NECARFXRDKYRKMOPMKW9PHQJNNYQVMGMHAWLSG","address":"RPSDKANGYGULZAEEW9JQUHYFIOQSMZEJLCXF9BSWPBLVESEIQUTVXFPCNTLFQFFIFCMHVNMN9YALMHWND","optimalPurchaseTarget":-100,"optimalPurchaseTargetScore":-100,"availablePurchaseTargetList":[],"optimalSaleTarget":-100,"optimalSaleTargetScore":-100,"latitute":"51.081353","longitute":"-1.269051","amountGenerated":"10","pricePrefered":"16","distancePrefered":"14","energyType":"2"},{"index":69,"seed":"IY9RRBPIKW9GRXTHVSWRPPXIPQFFCKNFDARUPJAUFGTRFGMVFMGFUBWHVKMVEMJDFNMMMXGPNRNTCB9IL","address":"MOSOXCEGQIXKKZAQBLPX9VUPFHABNECGAWCLSUEABFIKNFYQJBSLIXTWCOYOTGQOMQGXIVZWHEZ9NSVKA","optimalPurchaseTarget":-100,"optimalPurchaseTargetScore":-100,"availablePurchaseTargetList":[],"optimalSaleTarget":-100,"optimalSaleTargetScore":-100,"latitute":"51.374853","longitute":"-1.583889","amountGenerated":"8","pricePrefered":"14","distancePrefered":"13","energyType":"4"},{"index":70,"seed":"DEVFTWVJIRJNGTJRX9PVOPDKUUNRRGMDIIIKNIHCJWMUK9HOFBDVTELSRAEMSWNEKSJEVVEJUWVXPQYWF","address":"GCSSAXAVAM9HTEBTBPJBNZJBSAXBTMUJARMSCPURRAHEZQQHHUPXEKCUZPJJTPVGGLHYPBJDXIYMMDEED","optimalPurchaseTarget":-100,"optimalPurchaseTargetScore":-100,"availablePurchaseTargetList":[],"optimalSaleTarget":-100,"optimalSaleTargetScore":-100,"latitute":"51.138321","longitute":"-1.447788","amountGenerated":"8","pricePrefered":"16","distancePrefered":"11","energyType":"3"},{"index":71,"seed":"GTNHGFREKBIGIB9FCOORKCHRGYOWKCXSGERLSPMDXJEJOKXKC9KUMOOUDWETANXNAGKUQNGKLMEHQUORA","address":"APZFKWDQACEWTWFDNWYDMUTKKXXIQRAT9ZWHRJNVBCQQHFICH9AXIJSNRE9BBPLVGNM9PKQYUQT9W99PX","optimalPurchaseTarget":-100,"optimalPurchaseTargetScore":-100,"availablePurchaseTargetList":[],"optimalSaleTarget":-100,"optimalSaleTargetScore":-100,"latitute":"51.476751","longitute":"-1.043754","amountGenerated":"8","pricePrefered":"16","distancePrefered":"11","energyType":"1"},{"index":72,"seed":"9FRQGSETKUIPMF9LGDJJG9IJSBVJQUHDRUUNCNTPMJEETLXVD9IQCO9YSMPVYVHQ9XMEUSJGWWUUXOTHO","address":"JTOJYDZSLNERFTHIOZLUKDDRUE9VZFXHCO9YYW9ZPDUZFRKBEBOBFCDVQABVPFWXVAG9HIGWBRBVIHYI9","optimalPurchaseTarget":-100,"optimalPurchaseTargetScore":-100,"availablePurchaseTargetList":[],"optimalSaleTarget":-100,"optimalSaleTargetScore":-100,"latitute":"52.287681","longitute":"-2.364066","amountGenerated":"7","pricePrefered":"14","distancePrefered":"13","energyType":"3"},{"index":73,"seed":"QULKDRLXQCINEVVPXKAHWTJRSAIEYMYDFLHXBRAMFRQSGOWHAHWLOVYKBFKGWIWQA9PLERMSX9WAPRRKW","address":"KLBMEV9YCDEXDYQAXLCZQXU9ERFCHBLXHFOLAUNRTZIMFMFXCZ9JJWGNAUAQ9PBWKLIAWDYGZZMLBHWCX","optimalPurchaseTarget":-100,"optimalPurchaseTargetScore":-100,"availablePurchaseTargetList":[],"optimalSaleTarget":-100,"optimalSaleTargetScore":-100,"latitute":"52.116462","longitute":"-0.468107","amountGenerated":"8","pricePrefered":"15","distancePrefered":"13","energyType":"3"},{"index":74,"seed":"BMNCELOY9FTPRNHNOUFBPVJROUILLOXWGLTQUPDLFOXOYDYJHLJLIYAYYGCMCWPMWDBNEWIPXOU9QAMWW","address":"V9QFADSCNEQYHITEFAEXOYSWAYCESHP9FBEFOSDMCDZZXLONIUL9BXHBHVHLOBOSUVFQEUJDSRFLX9ZOC","optimalPurchaseTarget":-100,"optimalPurchaseTargetScore":-100,"availablePurchaseTargetList":[],"optimalSaleTarget":-100,"optimalSaleTargetScore":-100,"latitute":"51.726896","longitute":"0.256998","amountGenerated":"9","pricePrefered":"15","distancePrefered":"11","energyType":"3"},{"index":75,"seed":"XTSXFOTIQCLUTRISLPOKWCDWSKCUCIQR9UJQFDP9YH99M9GCIJJP9ETXYJOYYBWEF9UGITAQREABOSQEJ","address":"HKLTUIAHQGNGKVQXVPD9BMCTIJVUOOHEMOWRQSQXCNBMPNYCUYMYGDAGNQQCJDKGNRAGAGWTXABPTCKKZ","optimalPurchaseTarget":-100,"optimalPurchaseTargetScore":-100,"availablePurchaseTargetList":[],"optimalSaleTarget":-100,"optimalSaleTargetScore":-100,"latitute":"52.417436","longitute":"-1.804233","amountGenerated":"6","pricePrefered":"16","distancePrefered":"12","energyType":"4"},{"index":76,"seed":"OVLEOVBFAOB9PSCIFKOQNPBFTGDKLWMGKOBCUDINXTLISQOXMDNFBLXORQHGNFYSNBUEFOI9NWBNDBMOT","address":"SVJGIXLZ9MQYVCKJIREG9Y9AXRYHUAPLXBROCEKFH9XUFVHJPVRDRAA9ZAAIPL9LOKTA9FDDMGWPNKMEC","optimalPurchaseTarget":-100,"optimalPurchaseTargetScore":-100,"availablePurchaseTargetList":[],"optimalSaleTarget":-100,"optimalSaleTargetScore":-100,"latitute":"51.127854","longitute":"-0.580445","amountGenerated":"7","pricePrefered":"14","distancePrefered":"10","energyType":"3"},{"index":77,"seed":"RURMRHN9JEOAHJVYQPKXRQSXXYBHE9HYAKBBULVRFFMHIIGVPESGQM9FGNEQRAKHEWK9MQSSXYEUWXTXE","address":"PANQ9NBFRUVNPHXKEOCUBCWPTURDAIABETODHOKQTXUOQJJDMAPOZKCSDLSALCQNSVVPMSYLPQKEKALIB","optimalPurchaseTarget":-100,"optimalPurchaseTargetScore":-100,"availablePurchaseTargetList":[],"optimalSaleTarget":-100,"optimalSaleTargetScore":-100,"latitute":"51.291462","longitute":"-0.630739","amountGenerated":"9","pricePrefered":"15","distancePrefered":"10","energyType":"1"},{"index":78,"seed":"DDB9EYSXKRIWKXSKUQQJMC9UYJRPWUBBEIJKATGLMLOFG9JWDCWOJYAINTCDKUQEKBKTYJNVWYBHVTMWS","address":"UIJNDLUVAPVHTTITMFJMZHTDKQBEWACBOBKEVONCGUWIMXLRBVYHPQMRMRR9ECP9IH9ENIJOVMNXMDLSD","optimalPurchaseTarget":-100,"optimalPurchaseTargetScore":-100,"availablePurchaseTargetList":[],"optimalSaleTarget":-100,"optimalSaleTargetScore":-100,"latitute":"51.626756","longitute":"-0.046714","amountGenerated":"5","pricePrefered":"16","distancePrefered":"12","energyType":"2"},{"index":79,"seed":"9OPADGFOJKGAVTYWJBMEAEEHUOJICQ9SPBJEVCAGKUMBFDGAOJDXHATINLGQOKVMUMBRIQSGVQMYF9OEN","address":"STJFTQIVSXQBRIDOYYZWTQPMRQVNFXL9WLSOJSJIIUZBRLTKNALFNOYVYNPYCFPHXYIZRVQAAF9KPQVRY","optimalPurchaseTarget":-100,"optimalPurchaseTargetScore":-100,"availablePurchaseTargetList":[],"optimalSaleTarget":-100,"optimalSaleTargetScore":-100,"latitute":"51.092103","longitute":"0.216654","amountGenerated":"8","pricePrefered":"15","distancePrefered":"12","energyType":"1"},{"index":80,"seed":"SUFBVASVSPSBEQKNMQSKXLWSDDENOAMQAXEAGRBGFOQARBYONORWEYJVI9RDJVGPQXBQ9XFCDXPNLCFYN","address":"ULFVGPMSEYVJQGTCHOHBUQRXMSUTSRJJDXBUSFBLPCXQOGTPMLVUZPWRNGRCQSQVDHAJOPPBYZEPEESPD","optimalPurchaseTarget":-100,"optimalPurchaseTargetScore":-100,"availablePurchaseTargetList":[],"optimalSaleTarget":-100,"optimalSaleTargetScore":-100,"latitute":"52.336537","longitute":"-0.233618","amountGenerated":"6","pricePrefered":"14","distancePrefered":"13","energyType":"1"},{"index":81,"seed":"UOE9BAXKJGKSLNQJPR9TPUFRIUAQFLKBLOXDNDFBNKDRKUTEYJRHKVANAJJ9PKXWNPFHNRJUXNSBVUGJN","address":"LFOCF9VATISGDPFWINJXPKYDBOOG9JPZOHJJFOBPFJOLJ9JUPBWRXSPF9PTNSKXTQEWBGWFWTQRSXVHKC","optimalPurchaseTarget":-100,"optimalPurchaseTargetScore":-100,"availablePurchaseTargetList":[],"optimalSaleTarget":-100,"optimalSaleTargetScore":-100,"latitute":"52.159667","longitute":"-0.300657","amountGenerated":"10","pricePrefered":"15","distancePrefered":"11","energyType":"1"},{"index":82,"seed":"YVUMRPGUGDVKDSPABVTCHPLECNIIQLFHTCXIBFTV9RVWETFMCUFNVKSFKLQOMPSRTHGRBIVWEEOXDWCYA","address":"ZXWHCWLWKZGUWPDTWAZOIPON9FRVNCSZLYMPPDAQPOVPZBB9F9V9LAFHBDOGOMMQL9NCARYSSGA9Q9AFW","optimalPurchaseTarget":-100,"optimalPurchaseTargetScore":-100,"availablePurchaseTargetList":[],"optimalSaleTarget":-100,"optimalSaleTargetScore":-100,"latitute":"50.996788","longitute":"-0.572518","amountGenerated":"10","pricePrefered":"15","distancePrefered":"10","energyType":"1"},{"index":83,"seed":"VQKXHDQVEFUXLKGYJPSRTNOVCAUEGLVABKOFH9LN9QHNPYTFIKFFUVTAAMVBYDIJHOUROWXK9GKBBEFMG","address":"OOAEHVFWCIYLZLRYLYRIXQOJBGQJTUALESTFFNEFIACZEV9FRYRCCGQGXMKLDNXRYAZXIRKPTVHCKYKBX","optimalPurchaseTarget":-100,"optimalPurchaseTargetScore":-100,"availablePurchaseTargetList":[],"optimalSaleTarget":-100,"optimalSaleTargetScore":-100,"latitute":"51.237321","longitute":"-0.309828","amountGenerated":"6","pricePrefered":"15","distancePrefered":"11","energyType":"2"},{"index":84,"seed":"EKGFLUMBDQFCLTWYSFIEBVNDLLUQKFJTOPDCDBUVUJODR9EDWMFO9YM9EPJMXVDB9KRRIABMFORHJOQGQ","address":"MOWXSPL9BWE9TKLYSNBHNVJDMNKQTDLJXRCYEROTUJFMPQGCZWNPLNEKPXRUXYGKVZXDQYMTPAUVWSVH9","optimalPurchaseTarget":-100,"optimalPurchaseTargetScore":-100,"availablePurchaseTargetList":[],"optimalSaleTarget":-100,"optimalSaleTargetScore":-100,"latitute":"51.815905","longitute":"-2.344610","amountGenerated":"7","pricePrefered":"15","distancePrefered":"14","energyType":"0"},{"index":85,"seed":"QOKGQFDPVKFQPWVUV9NL9VVWENBDXRJSOVIDSHJLHEHMGGY9JKRIQUQ9YJOHXTPNR9BDEUNSIXH9UMUCE","address":"UGAZMDLWPJBNJ9HIOUVMSEEXXZUERSKNTRUIYOGZOGHDGLGPTLUOPHAAZSWHAOLUYZT9KJNSJKCOQDWRZ","optimalPurchaseTarget":-100,"optimalPurchaseTargetScore":-100,"availablePurchaseTargetList":[],"optimalSaleTarget":-100,"optimalSaleTargetScore":-100,"latitute":"51.313852","longitute":"-1.725769","amountGenerated":"10","pricePrefered":"14","distancePrefered":"14","energyType":"2"},{"index":86,"seed":"PFBIUOQKWQJ9O9EUMEGOSLBXW9999PKRIMVWTAFEMDITINXKRCJYMPAXGFXXBVRSIUIVGMRFXRDN9K9SQ","address":"AWNPJYAXVQRSJUBEOVCVFGERNTNLKXUPZKVQQMMOBDOD9ZUTNMUYRIDEYCOYMCTIDTBANDYIWRRT9CASD","optimalPurchaseTarget":-100,"optimalPurchaseTargetScore":-100,"availablePurchaseTargetList":[],"optimalSaleTarget":-100,"optimalSaleTargetScore":-100,"latitute":"52.089208","longitute":"-1.903976","amountGenerated":"7","pricePrefered":"15","distancePrefered":"12","energyType":"2"},{"index":87,"seed":"UMWUKTWQLUIG9FFHM9OKWUKCPYUEKACHI9NDHVUA9AMHKYEVIARLUSJOLXIRVS9DINQSISQOVQMQYFAVR","address":"UHPKDG9EOHGOPRSIDFXJMTIWHOKBOGBKHVKTMPTHC9WJZV9VJEECHINQHRRUVWJAKDKTKCZWCZBUAAHFC","optimalPurchaseTarget":-100,"optimalPurchaseTargetScore":-100,"availablePurchaseTargetList":[],"optimalSaleTarget":-100,"optimalSaleTargetScore":-100,"latitute":"52.325398","longitute":"-1.940046","amountGenerated":"9","pricePrefered":"14","distancePrefered":"11","energyType":"0"},{"index":88,"seed":"BKCOIT9N9OAXJFCGOUTXQHVKMMJK9QNVUPRKLTQRAPTUJUXCGQWHDHPDGUEAWQQCSJJTKDKYGIDPYDWQF","address":"YBWYCWRPTZMEFUFLAWDMWIXXVDTCQBIGUVYPJCEPHHEXKORDBGGIFYJAOSCJEYDOAXPTNZJCLEXLSASYB","optimalPurchaseTarget":-100,"optimalPurchaseTargetScore":-100,"availablePurchaseTargetList":[],"optimalSaleTarget":-100,"optimalSaleTargetScore":-100,"latitute":"51.956739","longitute":"-2.345020","amountGenerated":"7","pricePrefered":"15","distancePrefered":"11","energyType":"3"},{"index":89,"seed":"BAU9LCEASTSXIFONCUPGBSAMAOGST9ONCJSXMDVPBQJUWNGLJSFFHQIDLSYYKLLQDJPCBYVSFKKWQVGVY","address":"AQFUOLKWDTYYYIVUEBRYMRFVMJWJNNUAOKYHFQCFDUBJHQOGXEMHNZDQYI9GGJNIHIXWLLTYE9JXUPNAW","optimalPurchaseTarget":-100,"optimalPurchaseTargetScore":-100,"availablePurchaseTargetList":[],"optimalSaleTarget":-100,"optimalSaleTargetScore":-100,"latitute":"51.068530","longitute":"-0.043329","amountGenerated":"6","pricePrefered":"15","distancePrefered":"14","energyType":"2"},{"index":90,"seed":"CQBNAPEFNHCJOXXQTWKHYVAJXBPEWBPQIUVOWFDVGOBNMPSYKRMGCTJYTPMKBDFGYFYSIRIWSXIJCWJOX","address":"FACTX9ZTWUMYMTU99UBGCQCXPNQAPRECNIRVWSQ9WKWQNRKDOAYJEXENMSDQYNSYLDKMBPWTVMBHWVNVC","optimalPurchaseTarget":-100,"optimalPurchaseTargetScore":-100,"availablePurchaseTargetList":[],"optimalSaleTarget":-100,"optimalSaleTargetScore":-100,"latitute":"52.281092","longitute":"-1.357894","amountGenerated":"9","pricePrefered":"15","distancePrefered":"14","energyType":"2"},{"index":91,"seed":"GI9UOEPNOMKCFSFHGLAXMJELXAABIKMWGEWVTWEYKAYXIYSPF9T9TVKJSNMA9QRM9FEDFWIGEJVV9VWGD","address":"BCNWSWJZSDZ9EHGTJJNURMVYKSNBZBJHEEJD9FSCTZWXWHXKGJFF9FIADCDOLXPJEVAAOMHHJSFBTRHNZ","optimalPurchaseTarget":-100,"optimalPurchaseTargetScore":-100,"availablePurchaseTargetList":[],"optimalSaleTarget":-100,"optimalSaleTargetScore":-100,"latitute":"51.483959","longitute":"-1.034052","amountGenerated":"6","pricePrefered":"15","distancePrefered":"12","energyType":"0"},{"index":92,"seed":"PYQRSAGLEYTUFHDXNJYYW9EYXXUKQLHQFDONSELMPJYNQ9YISYKD9LUCPBWHRLHWCAIHYIVVQFVPXMLPY","address":"OP9IKJJALYDAOJHWWHZCDKSPRJWBJEFVAMKEOQSPUEKMLTNOMGAUCJROWRLWSGIMNZZDTCDNKCATPSNKB","optimalPurchaseTarget":-100,"optimalPurchaseTargetScore":-100,"availablePurchaseTargetList":[],"optimalSaleTarget":-100,"optimalSaleTargetScore":-100,"latitute":"51.881312","longitute":"-1.345321","amountGenerated":"9","pricePrefered":"15","distancePrefered":"11","energyType":"3"},{"index":93,"seed":"CAD9PLXNYOAIQDWP9PNATPD9LCOEAHJJRUTAYTV9BSGAGDSXTMWTE9IVEQXQGQIAFNUUMKOQUYHOVFFDR","address":"XTINPUJVBKNEFZXQOXKJNGWMNVTRPYAI9NBWLFBNYMEDYJSHYMICC9XQKPAFOLDUTKGJUOEAQX9AJNMAY","optimalPurchaseTarget":-100,"optimalPurchaseTargetScore":-100,"availablePurchaseTargetList":[],"optimalSaleTarget":-100,"optimalSaleTargetScore":-100,"latitute":"51.760122","longitute":"0.292764","amountGenerated":"9","pricePrefered":"15","distancePrefered":"14","energyType":"2"},{"index":94,"seed":"HD9VHBRLQ9FBESGLLNGGBNSRDWVC9SCOCTREMPTLHP9GVHSDJPDPKNNUEUDRFQTG9WLXYLCDMILGEOKSM","address":"XZBYCPX99KBAUFJIRCKVYNTWCDBPAMESZIGGKKPRYBWXPQNEUCQDJTEUNTHVAGEZUFCDOZ9ZIYJOGDLQY","optimalPurchaseTarget":-100,"optimalPurchaseTargetScore":-100,"availablePurchaseTargetList":[],"optimalSaleTarget":-100,"optimalSaleTargetScore":-100,"latitute":"51.677051","longitute":"-0.770755","amountGenerated":"7","pricePrefered":"15","distancePrefered":"11","energyType":"1"},{"index":95,"seed":"BBQMKQBLGTBUBYDR9WDLL9EPBDVEFTWLLLDPXTHASTEJAIWSBALTBAFDBJFNEVDASUDW9ITKDRHJYNHWN","address":"HQPGNZKMBMDVQQFBIRIF9AXXPDWFVNSGOHTSLLQUAEQFUCDEORSBLQFUDBNTGNDHVMNALTUXDDMYTWHYW","optimalPurchaseTarget":-100,"optimalPurchaseTargetScore":-100,"availablePurchaseTargetList":[],"optimalSaleTarget":-100,"optimalSaleTargetScore":-100,"latitute":"51.275940","longitute":"-0.576254","amountGenerated":"7","pricePrefered":"16","distancePrefered":"12","energyType":"1"},{"index":96,"seed":"9QLFCQKWM9QQLOSNMKYKIX9KR9CCEHWCBQNGFICTWGETT9ETWXAKRLWLHKAFBGDLJGXBHOFETJKLQS9SE","address":"9YLJWBP9LXBESJRJSLPNIAL99LQHIPBSPOJQRSEOHZHNZTIJUZNGDSENCKCBLFNGEBKJYPSZZHDFEMEEW","optimalPurchaseTarget":-100,"optimalPurchaseTargetScore":-100,"availablePurchaseTargetList":[],"optimalSaleTarget":-100,"optimalSaleTargetScore":-100,"latitute":"51.327366","longitute":"-0.969741","amountGenerated":"7","pricePrefered":"14","distancePrefered":"11","energyType":"1"},{"index":97,"seed":"CIX9FFMFOF9AVPFCCLEAEBQWBXRTVPBKFTERUAREBUHMABHYUOFRXSDWIBBBEKSSHKBQFSLVVABRMUIQQ","address":"VOVKMMAOXAAAEWPOXFBYSFVSWKYERHEDEFHEBQPJCPWWPWBHRJOCL9YDDGYEVKPAJWCFNLLBZWGXABNJC","optimalPurchaseTarget":-100,"optimalPurchaseTargetScore":-100,"availablePurchaseTargetList":[],"optimalSaleTarget":-100,"optimalSaleTargetScore":-100,"latitute":"51.992141","longitute":"-0.852765","amountGenerated":"9","pricePrefered":"15","distancePrefered":"13","energyType":"2"},{"index":98,"seed":"YWVSABALNPYJOSJATNTXW9SNECNYGSBAOSOXCPAXFIPAVWHRERVD9WKLSLBFCAGVSCXVCLIM9CUULFMVQ","address":"ARWFVQMAINDNVTLZDACFSEVAQUEQEU9TTFPBNCABGYIQKJMLDAEWSXIJDQQKYQJJGZLHURGTZJXEXFNVZ","optimalPurchaseTarget":-100,"optimalPurchaseTargetScore":-100,"availablePurchaseTargetList":[],"optimalSaleTarget":-100,"optimalSaleTargetScore":-100,"latitute":"52.063425","longitute":"-1.197630","amountGenerated":"6","pricePrefered":"15","distancePrefered":"14","energyType":"1"},{"index":99,"seed":"IJVJKYIRCKYAYUFPNPKRURBRHPVRL9XMLGWXHEBOONUUAVXJPDHQQCBMQSATNFEWQLMRBJKIYDLLXBATR","address":"LYTSTWIFFUBPNJCFFQJZWPTNLOMKLMHQ9ECJIXASO9LDDFCBMBLVNFXITZASONNOULENFEWZOFUZJOIAC","optimalPurchaseTarget":-100,"optimalPurchaseTargetScore":-100,"availablePurchaseTargetList":[],"optimalSaleTarget":-100,"optimalSaleTargetScore":-100,"latitute":"51.186976","longitute":"-1.529900","amountGenerated":"6","pricePrefered":"16","distancePrefered":"13","energyType":"2"},{"index":100,"seed":"XSUSVIUWGLYPJTBN9DMOCTWGSLLRETIMRTNMFBH9IKUIJJCUWMMEQMPKCBAXHFUEGRULVGTTIBHUOVP9B","address":"UVBZTWVXSUBUAZPZXOFOOOVMBIVPAJMH9QK9QDGHXVCJDBHQRJ9JMUFAELJQLDCOMJWOZUYUADTCMWICC","optimalPurchaseTarget":-100,"optimalPurchaseTargetScore":-100,"availablePurchaseTargetList":[],"optimalSaleTarget":-100,"optimalSaleTargetScore":-100,"latitute":"51.712213","longitute":"-0.514044","amountGenerated":"7","pricePrefered":"16","distancePrefered":"13","energyType":"1"},{"index":101,"seed":"NCIS9DEDMLQRAONRNWDHX9XGVEGSSVBKEVOIWDSQKRBNBUWIJBWYPONWBPYTI9LNFXLY9HFVYXCCDRDMR","address":"MTT9OJERLJMBV9I9IDHHAY9VZAKGOLXZ9UIXP9IBIP9CYJPAXWQEWJKGKOIZALZIFEIRQTSDCYPQCLSGZ","optimalPurchaseTarget":-100,"optimalPurchaseTargetScore":-100,"availablePurchaseTargetList":[],"optimalSaleTarget":-100,"optimalSaleTargetScore":-100,"latitute":"51.551093","longitute":"-0.259627","amountGenerated":"6","pricePrefered":"14","distancePrefered":"14","energyType":"4"},{"index":102,"seed":"YJGKDIPYRJUEVAIQCTWUKBDB9NQBLFXAXD99BROAEINTMWRUKVPETQDMNTUIOCTKOTOLPWA9UUTHLNQCN","address":"POP9RKIIMIXBOELCGTPYGNHZIAZCCZRJHMBZCFBIHUDDONPZYHOFFFWTEZISMLDGBBTF9HZNOKJWBFRLC","optimalPurchaseTarget":-100,"optimalPurchaseTargetScore":-100,"availablePurchaseTargetList":[],"optimalSaleTarget":-100,"optimalSaleTargetScore":-100,"latitute":"51.487682","longitute":"-1.115672","amountGenerated":"7","pricePrefered":"15","distancePrefered":"11","energyType":"2"},{"index":103,"seed":"KUAUUTNYVLDGMCSDYOVAQVFUSJCAPJAQMGEPYIHVEXWQUIGWOMPPUUWVOX9V9JOMCBREHERPKMBRGLKOD","address":"NP9EAWDHDBFYJCKWQSWDMMDPHNGVNIGGXIQHMMNCJWVEWBLOUIXNHKXGADBGPNI9JMTUIWQSUYWWPFCTD","optimalPurchaseTarget":-100,"optimalPurchaseTargetScore":-100,"availablePurchaseTargetList":[],"optimalSaleTarget":-100,"optimalSaleTargetScore":-100,"latitute":"51.098934","longitute":"-0.326302","amountGenerated":"5","pricePrefered":"16","distancePrefered":"12","energyType":"0"},{"index":104,"seed":"BPWSYWPMVKRDFXDHGAVN9EIURRMFHEFTOJCCVU9DNMVIULDS9MFWT9PSVNIYMEATFP9BCCRSMTSN9S9LL","address":"QXYLKVIGZNYECCRNZBOCEDIYJAAAPLTLPZ9WMPID9DRLI9WWATCRFDUIPZOAIDWOQOMAUF9CFJGXWHNIC","optimalPurchaseTarget":-100,"optimalPurchaseTargetScore":-100,"availablePurchaseTargetList":[],"optimalSaleTarget":-100,"optimalSaleTargetScore":-100,"latitute":"51.056696","longitute":"-2.119793","amountGenerated":"9","pricePrefered":"14","distancePrefered":"11","energyType":"3"},{"index":105,"seed":"ENLW9ODLCEEYXTMCRHMDE9UXSS9FSUNVRDBETHPIACYKTJOGIGB9DYXG9LHNLNMMVLPFRTAHWLFKU9PYV","address":"XBQFQIDJBWZSSGLWTQVCXGTWGEOYOMWBMQHRXMZTZKDSWKCQREEFG9RJSMWVHIXOSDAKETSMCF9I9FEZY","optimalPurchaseTarget":-100,"optimalPurchaseTargetScore":-100,"availablePurchaseTargetList":[],"optimalSaleTarget":-100,"optimalSaleTargetScore":-100,"latitute":"52.272352","longitute":"-1.872467","amountGenerated":"5","pricePrefered":"15","distancePrefered":"11","energyType":"4"},{"index":106,"seed":"NBFYYJDCINUD9XFBHTBGS9YYPJGKMVKMBUBDNOHGDSTSRF9HNASJTAQWIVIUNF9ENOFPUSVNMKBFQKKBR","address":"IGOXWCJ9SMVRNBQGEYEIRZCCGQPFBHBGMXDJGVMSQKAAJMECNISTPYVIXDBOOQZNOQAGRTQEEXADDDCYX","optimalPurchaseTarget":-100,"optimalPurchaseTargetScore":-100,"availablePurchaseTargetList":[],"optimalSaleTarget":-100,"optimalSaleTargetScore":-100,"latitute":"52.254869","longitute":"-0.366802","amountGenerated":"8","pricePrefered":"14","distancePrefered":"14","energyType":"2"},{"index":107,"seed":"GEM9RUTFBALVNWOVESTANWCTLIACJF9HJAIINHKHKSAFCGTLKXURPTICSLWWUIECTTJKEDPGJQXVIMU9S","address":"BMCJZHHKWMODHCAWGCOXWEPJKKY9GFKOQQOGCRTRMB9MXDZ9ZGAFDCABGASCX9NLZRXAWNTYIYMFJ9AG9","optimalPurchaseTarget":-100,"optimalPurchaseTargetScore":-100,"availablePurchaseTargetList":[],"optimalSaleTarget":-100,"optimalSaleTargetScore":-100,"latitute":"51.327131","longitute":"0.281204","amountGenerated":"7","pricePrefered":"15","distancePrefered":"13","energyType":"3"},{"index":108,"seed":"QLGKIEANFSQXENPINEFGTRFYAMHFJTAQBXFGQLDHJFMQHJODAOLUAL9KNXKEGMNUQLMJTDKVCQLYNDQRQ","address":"GZOBUAML9TTOYPKZLMYLXRARJQPNJSVJ9MZDDYSJVIHFTIFAZGHLSVSXPSERXXBZNWRVXB9VQYIOXYSDA","optimalPurchaseTarget":-100,"optimalPurchaseTargetScore":-100,"availablePurchaseTargetList":[],"optimalSaleTarget":-100,"optimalSaleTargetScore":-100,"latitute":"51.248296","longitute":"-0.518288","amountGenerated":"8","pricePrefered":"16","distancePrefered":"15","energyType":"4"},{"index":109,"seed":"CBGXHODVQOTAPLFVNRJPSOHQKSJ9CFNKGNBTTNWMPYRXO9NFJRXMXALFJIQNAXNEGUHRWTPFTAVB9KB9E","address":"QX9NGYMKVCSEUTSBKKGAVDODBQGCEDFICIUHVDTOMBZDVFTLXU9HEK9KZRNYIJBZYPLOCKIHUOUJLTIKY","optimalPurchaseTarget":-100,"optimalPurchaseTargetScore":-100,"availablePurchaseTargetList":[],"optimalSaleTarget":-100,"optimalSaleTargetScore":-100,"latitute":"51.492333","longitute":"-1.486371","amountGenerated":"5","pricePrefered":"16","distancePrefered":"14","energyType":"3"},{"index":110,"seed":"9UPLXNIJUM9CNTJ9QHMNNKQPNPPUWDXARADQHCEY9JCDNEYTCMWGPIHQKMEUQYCPVFGU9QDODBOPSQRYS","address":"YFAEYIADESXUERPDIRRWDGGJHLTROEVSZK9NWPLNREQQHGTSWCBAGPQAYVI9NDV9CKQDYLHGIHLGYEHAX","optimalPurchaseTarget":-100,"optimalPurchaseTargetScore":-100,"availablePurchaseTargetList":[],"optimalSaleTarget":-100,"optimalSaleTargetScore":-100,"latitute":"51.094159","longitute":"-1.108890","amountGenerated":"7","pricePrefered":"14","distancePrefered":"10","energyType":"2"},{"index":111,"seed":"OSFMTI9LMUEWYMGHNWLYJBPNDYLKGGMFMTUFCONMBEQISVXUCVOAX9VLNHKN9KKAEQJNOAACDENJPAX9I","address":"JNTPARQOXXZHM9KZMVPBMKWRWAKILXJGUFEKFAOSLLRGNCTLX9HTIMUSNAX9OVSNY9SEBFAJVLHGZPWNB","optimalPurchaseTarget":-100,"optimalPurchaseTargetScore":-100,"availablePurchaseTargetList":[],"optimalSaleTarget":-100,"optimalSaleTargetScore":-100,"latitute":"51.504860","longitute":"-1.050413","amountGenerated":"9","pricePrefered":"15","distancePrefered":"12","energyType":"2"},{"index":112,"seed":"99HB9DEIFKAUUHBFSFPOPFSLAGFGE9ORDACAEYFOWOUNTXATRSS9LPUYADRGQ9RLQEELOKMKIMFLJECDA","address":"KMRFJTCLQRRJI9Q9HQGMNXTVHVJQZQAZABVNVVQOCPKIBRFAY9CGZTDFSISWH9MJKAPGBYGFHCCWWJWXX","optimalPurchaseTarget":-100,"optimalPurchaseTargetScore":-100,"availablePurchaseTargetList":[],"optimalSaleTarget":-100,"optimalSaleTargetScore":-100,"latitute":"52.414594","longitute":"-1.419673","amountGenerated":"9","pricePrefered":"14","distancePrefered":"11","energyType":"1"},{"index":113,"seed":"DWYFARTCMLDDVSVBEHCGRWEQICDW9T9EQBVUTDMBIVHNWKGSXBKMAUOEOKKIEPAAO9EXFQIGCTXVLEQKR","address":"9OGRZGFAF9SWRXTHCYAQYOEYMMXNTOHPVEEKKJFZEFWCIFONHZMDXKVEAISATZKADTZCNCKDLMWLDHMJZ","optimalPurchaseTarget":-100,"optimalPurchaseTargetScore":-100,"availablePurchaseTargetList":[],"optimalSaleTarget":-100,"optimalSaleTargetScore":-100,"latitute":"51.113389","longitute":"-1.984520","amountGenerated":"8","pricePrefered":"15","distancePrefered":"14","energyType":"2"},{"index":114,"seed":"DSFAPFCBFRWKVYSWDHVHXSCRKOMDIFMFSBLRHTRDKUEK9EWBKKUFPTGGRKEFJSBSQKJVJJRQPIQQYPSKS","address":"TXPCPDOKQZJOVMXFIXCLGQPCITPABKSF9JFLWX9JAO9POQAAN9SWIOGEEXBQZFNHZZVHYDAEUIAANZUIB","optimalPurchaseTarget":-100,"optimalPurchaseTargetScore":-100,"availablePurchaseTargetList":[],"optimalSaleTarget":-100,"optimalSaleTargetScore":-100,"latitute":"52.365353","longitute":"-1.270606","amountGenerated":"8","pricePrefered":"16","distancePrefered":"12","energyType":"3"},{"index":115,"seed":"IBGPMGQWJFGRJKO9YFMIFSMRLNHTJN9M9GJGGLPVNSNVDHBUDEYSYLGHVTEKRVPNNBBMUTCHMMAKQPSVT","address":"YDFSYV9U9HQIUDBFSFRDCAMRDYXZZEZXYFLBFFDHRPOGP9IZWWCYTRJYBGKKDEHBBITZHRUPPL9XSZOLC","optimalPurchaseTarget":-100,"optimalPurchaseTargetScore":-100,"availablePurchaseTargetList":[],"optimalSaleTarget":-100,"optimalSaleTargetScore":-100,"latitute":"52.280989","longitute":"-1.102249","amountGenerated":"9","pricePrefered":"16","distancePrefered":"14","energyType":"4"},{"index":116,"seed":"HEREAHEWNWICFDDULWLRJQTUXGQYINEAU9CHBNNQC9TSGVURLOFQ9KRFSOXDLXTORPHURHIIQRCECLOYB","address":"OJNEZEXVVTVXXIDNPEZRNBKNYA9FETYFB9HQBIRJXBUSVEPDJ9UVVYZTHROUKEPATZKHQGKG9JFFHNMUY","optimalPurchaseTarget":-100,"optimalPurchaseTargetScore":-100,"availablePurchaseTargetList":[],"optimalSaleTarget":-100,"optimalSaleTargetScore":-100,"latitute":"51.169605","longitute":"-0.662969","amountGenerated":"9","pricePrefered":"16","distancePrefered":"12","energyType":"1"},{"index":117,"seed":"KULJOLOUTNFDPOFSRPJYCJKXC9CY9FDYJYIPDJKDNNFWOGBLXLXIEINMBXGLCLSBOTIRDSIGAHS9NOLVT","address":"ENV9JNORMNACXCGDPYGUCOFRSHABYYFWMWDMQALVZNPMWZBNKGAHDMEIRHTZMCGCRMZZDUJECYCHSHARZ","optimalPurchaseTarget":-100,"optimalPurchaseTargetScore":-100,"availablePurchaseTargetList":[],"optimalSaleTarget":-100,"optimalSaleTargetScore":-100,"latitute":"52.353983","longitute":"-2.149604","amountGenerated":"9","pricePrefered":"16","distancePrefered":"11","energyType":"2"},{"index":118,"seed":"FFMWTCLUFSVMMTEKDMTELKHIFKREJMYLIWBJEFQBANMCEUXXDSFAXAAVPPORITKWHBKHALEKYLFR9BSNQ","address":"XVKBQKIXANWTTPZYETEDWR9DKQOGYALMVMNDBRXUCENVSGNVTTFGOZYJFPESDBCRGEFXNKGHNBZNTCYQD","optimalPurchaseTarget":-100,"optimalPurchaseTargetScore":-100,"availablePurchaseTargetList":[],"optimalSaleTarget":-100,"optimalSaleTargetScore":-100,"latitute":"52.261326","longitute":"-1.786253","amountGenerated":"8","pricePrefered":"16","distancePrefered":"11","energyType":"0"},{"index":119,"seed":"QOCMWJU9THJGUJFCAKJVLIQNHAUKJBONMO99DVYAGPLHSACOFIKNTRGNDJDLAEJQCLEBIJTMSXOMQGNOC","address":"9BWSROEMYQBJCLXVOEFWUOEDEFGFXRZMLDRIHKGTVMIG9K9FLXVQ9JZNIWZGDWNSOVGULNIHMKAANDQVZ","optimalPurchaseTarget":-100,"optimalPurchaseTargetScore":-100,"availablePurchaseTargetList":[],"optimalSaleTarget":-100,"optimalSaleTargetScore":-100,"latitute":"51.860850","longitute":"0.089569","amountGenerated":"10","pricePrefered":"15","distancePrefered":"15","energyType":"3"},{"index":120,"seed":"CT9KKVEQMFCXBIVDYGSJ9YBWDJRBDHTG9OTJ9UAQDWRBHEAQRLNWYLOTBMAT9HXPSJNOEXFHSWAMBNRUT","address":"CKFQZ9GBJJWFIXINJZLUYHMIWGYGSLEDFBRHWHLYRWJOTXIYEDITKQGHJADOUMQQUSKVQQBTBQCWAXUKB","optimalPurchaseTarget":-100,"optimalPurchaseTargetScore":-100,"availablePurchaseTargetList":[],"optimalSaleTarget":-100,"optimalSaleTargetScore":-100,"latitute":"52.253093","longitute":"0.020024","amountGenerated":"6","pricePrefered":"14","distancePrefered":"14","energyType":"1"},{"index":121,"seed":"IOJKPIEJAPWEYFFEEKMSAC9VEDLODWK9DLMHNWVXVUD9TJMQDRQJRMQVQUCKK9PMMMQJGPKIOSNEAAGMW","address":"OLHBPZNAFDVOPRUKMTUOYFHOEIXNGFWQHCMSKV9UYAPRQKGEAYX9LFFYSDPAQECOOECS9UOQVBWYD9BBA","optimalPurchaseTarget":-100,"optimalPurchaseTargetScore":-100,"availablePurchaseTargetList":[],"optimalSaleTarget":-100,"optimalSaleTargetScore":-100,"latitute":"51.599581","longitute":"0.118870","amountGenerated":"8","pricePrefered":"15","distancePrefered":"10","energyType":"1"},{"index":122,"seed":"KBTIPPEFFSXWUYEROOULKIRORVSPDWBLSMAQEEIKSTQQUPKVJUVBSCTWBPFDJV9JQBNX9URNWMFGNNOTE","address":"YEHOISATHZANAZVYYT9PLPEGTYKOSYJPOWEMWKEJCRHGLIXTRIHMPQOUAHIKNBRHMKOLGMCWFZFGQGWND","optimalPurchaseTarget":-100,"optimalPurchaseTargetScore":-100,"availablePurchaseTargetList":[],"optimalSaleTarget":-100,"optimalSaleTargetScore":-100,"latitute":"51.305950","longitute":"-1.812011","amountGenerated":"8","pricePrefered":"15","distancePrefered":"13","energyType":"1"},{"index":123,"seed":"CVBKPNGTTOAFRYCCMWFHYGW9SVUDITOAPQQAASNTXICY9QEANHT9MXXMLQIWUVNSHWIW9FMSHYNMRXDTW","address":"BZMVEWKLRJPTQOZACQWOYAYXCVHWAPVEJUZXHKITISQHPMSQJKONHQGBGLPRN9SLI9HZAWCDHQQLKNVP9","optimalPurchaseTarget":-100,"optimalPurchaseTargetScore":-100,"availablePurchaseTargetList":[],"optimalSaleTarget":-100,"optimalSaleTargetScore":-100,"latitute":"51.225195","longitute":"-1.072062","amountGenerated":"7","pricePrefered":"14","distancePrefered":"12","energyType":"2"},{"index":124,"seed":"YUTUWYPIIWFRAVHXXHOWFO9NCHSCLHDSMS99NIFD9TIBDTPBXRHKFJEAEXFAMLFXULQLF9QIKOTCFVBXB","address":"HJMOACUCS9RBUKV9LQFOZODMHUQOPIVQPUAWZJSUUYTVSWBVCCNNGZZOYYRCVUTXPHEENKZFEXAGDQ9HC","optimalPurchaseTarget":-100,"optimalPurchaseTargetScore":-100,"availablePurchaseTargetList":[],"optimalSaleTarget":-100,"optimalSaleTargetScore":-100,"latitute":"51.862087","longitute":"-1.369375","amountGenerated":"6","pricePrefered":"16","distancePrefered":"14","energyType":"0"},{"index":125,"seed":"HLRWDIMJPUJDGAOQVHHSFP9HNFCYLCIUYEBCGWLCJCDELMXLBOYKJMM9OKGFODSUDDNH9IPM9NLYSIFSL","address":"JXAZEILGAXRPTEZVMPSANWLGGSEBLFEWCUWPGCAA9DFTEIVEDIHRNMNRTBNQL9OKUHQLJWSYNIMOAFMDD","optimalPurchaseTarget":-100,"optimalPurchaseTargetScore":-100,"availablePurchaseTargetList":[],"optimalSaleTarget":-100,"optimalSaleTargetScore":-100,"latitute":"51.177222","longitute":"-1.878620","amountGenerated":"6","pricePrefered":"16","distancePrefered":"12","energyType":"1"},{"index":126,"seed":"VGQ9CUEMBXXORAO9YMOHCELDNVHHKQVJDJENFWJRQADAF9AIIOJ99LXDNUNLOTBUPHBVUEULVWMFYA9CC","address":"RWMEDJZRWQCIMHTTFBAICAIJGKHQGYRWBU9MVBJZDFIOZCBYWD9TJHHFEJZQRNGZLOPBONSNJAYXPNSJD","optimalPurchaseTarget":-100,"optimalPurchaseTargetScore":-100,"availablePurchaseTargetList":[],"optimalSaleTarget":-100,"optimalSaleTargetScore":-100,"latitute":"51.028290","longitute":"-2.108267","amountGenerated":"9","pricePrefered":"14","distancePrefered":"15","energyType":"1"},{"index":127,"seed":"MPIFIDRLRNRLOLBWPYHYHOQJJDTKTKSRUBB9ERYJVAHN9QHQALGEODIDGW9GNQXSCARPDAWDBSLDKTVXM","address":"OLKDTBDOUANFJLUKHPYLGQDKXEZKRHPXSXBRN9ALXPKEWWLZZZZZDGNCPMTYNACGJMDPFMLHZAKEB9MHW","optimalPurchaseTarget":-100,"optimalPurchaseTargetScore":-100,"availablePurchaseTargetList":[],"optimalSaleTarget":-100,"optimalSaleTargetScore":-100,"latitute":"51.533605","longitute":"-0.842833","amountGenerated":"6","pricePrefered":"15","distancePrefered":"11","energyType":"2"},{"index":128,"seed":"VKCPXVNFPYXFMSSOISLTKIVVKPPXBGWKFM9PYQMUWKXL9BHUENUOLOBFRQWHIUEJVXEOGICVAM9SBIEVP","address":"ABBMPGUMGZENSFNJXKHOWQOJXCGIESNIDQEDRZLQTULUSIIPOXLU9UUXBZVEEHKCUHQXRQVMYL9TYJLSX","optimalPurchaseTarget":-100,"optimalPurchaseTargetScore":-100,"availablePurchaseTargetList":[],"optimalSaleTarget":-100,"optimalSaleTargetScore":-100,"latitute":"51.568782","longitute":"-1.386660","amountGenerated":"8","pricePrefered":"16","distancePrefered":"11","energyType":"3"},{"index":129,"seed":"9VGGBYKKHSQBPYALBXTQM9AWSAOCPITLQXYBHIHNVCNKXVLDW9FAPCOBQOKMPPTRUTM9CORLBNWFAAAFV","address":"GDMYQJMJITOEOFC9XYHPMXMZFHUMXJCJYCJZHMNQRTOWWGEO9LBLIUPVCRYDDOBJDDTOWQWWZCHLRVXSX","optimalPurchaseTarget":-100,"optimalPurchaseTargetScore":-100,"availablePurchaseTargetList":[],"optimalSaleTarget":-100,"optimalSaleTargetScore":-100,"latitute":"52.236235","longitute":"-2.098859","amountGenerated":"10","pricePrefered":"14","distancePrefered":"15","energyType":"1"},{"index":130,"seed":"EORJLNNIEHRENFMA9UTYPXXVQIYCEPPEBKRUJWKWGLHQSWHUKHRYNNANNIEWWDWLGNOHJIOGCTVTOAPHN","address":"AIVXJBNCPCT9SRBSLPCDZJ9HRAPPILRLOCAFPRKFOVTKSIVFRWZXJNMYLMPWVSQDXFKJYBEGESYQUDBDY","optimalPurchaseTarget":-100,"optimalPurchaseTargetScore":-100,"availablePurchaseTargetList":[],"optimalSaleTarget":-100,"optimalSaleTargetScore":-100,"latitute":"50.976158","longitute":"-0.240537","amountGenerated":"10","pricePrefered":"16","distancePrefered":"13","energyType":"2"},{"index":131,"seed":"ANAKJAXTEOMQPEXPMLQVKQCT9W9ASG9CGCJHGIJMORYPJVYMBKXTOBLBWVJGMOGISHMQFBKHVUMIYF9MV","address":"SKCATKYVOGKGFSLNZQLG9XNSJKMXXNYEDXOBUEIFH9UFVTXOHMRMVPCS9ZYJGKGMFIAXFXJKY9HKCCBPB","optimalPurchaseTarget":-100,"optimalPurchaseTargetScore":-100,"availablePurchaseTargetList":[],"optimalSaleTarget":-100,"optimalSaleTargetScore":-100,"latitute":"51.463277","longitute":"-1.533779","amountGenerated":"7","pricePrefered":"14","distancePrefered":"11","energyType":"2"},{"index":132,"seed":"UHFSUXEJCXWQGMTC9GTCPWKFMUTWFGWWXRLSMVCUAWATOIMKLYDGWABLIEEIWRTRSJWVCHRWDGQJQVFUM","address":"RIRJIEFEN9KJ9WQPNULSGKHVCEJUSRIHRBUQJIIFGIMSKAAWTAPQCRUYD9FJYLZLFXTL9PFLXJBJGFAHW","optimalPurchaseTarget":-100,"optimalPurchaseTargetScore":-100,"availablePurchaseTargetList":[],"optimalSaleTarget":-100,"optimalSaleTargetScore":-100,"latitute":"51.284549","longitute":"-1.043983","amountGenerated":"7","pricePrefered":"14","distancePrefered":"11","energyType":"1"},{"index":133,"seed":"TDF9TRSBL9SOPDRSHMUOBDFRDNTCWKGMGLPMIXICUIFHWFKNVIBEHYJEUTWTB9U9WDXQFSV9JTLNJMALL","address":"D9YKGOHQDEHCGBAMLCCJWKGLJFDNNNJGXANNRQVCI9JHABQMFWMOHAPPGESIEZODUGFGPCJCHVRQVDCMC","optimalPurchaseTarget":-100,"optimalPurchaseTargetScore":-100,"availablePurchaseTargetList":[],"optimalSaleTarget":-100,"optimalSaleTargetScore":-100,"latitute":"52.357339","longitute":"-0.422989","amountGenerated":"8","pricePrefered":"15","distancePrefered":"13","energyType":"2"},{"index":134,"seed":"PMGGOHK9WBUK9AOXDAYUOSPWVGEKQYAFQVORESFSMPYHWNMDOWNCTKMLFOLWBFNWQLTHCWSDKGYWIGOX9","address":"IDWQZDRUFZKHUWBFCIOXUZPTWAGBOEKMMEFIGGDCPMVGFTPIDTYMGAGPNW9RZVGLJFVGNUVRM9ELNNFYA","optimalPurchaseTarget":-100,"optimalPurchaseTargetScore":-100,"availablePurchaseTargetList":[],"optimalSaleTarget":-100,"optimalSaleTargetScore":-100,"latitute":"52.077574","longitute":"0.080506","amountGenerated":"6","pricePrefered":"15","distancePrefered":"15","energyType":"1"},{"index":135,"seed":"SFJMJHUBUCTIYMACYNUOBPGJSCVQAHQLT99SV9OGRWLRRJ9HCTFKVNHEOBCR9JPTIXOLXCGLXYIFBXEAN","address":"ODLQX9WIVRNNVIPBORYCKZXZDKMAOJTGGKRFIPRUBIHQPFKUKVHRC9NGVCYQGBXGBTUVESWVEDXPBNGBB","optimalPurchaseTarget":-100,"optimalPurchaseTargetScore":-100,"availablePurchaseTargetList":[],"optimalSaleTarget":-100,"optimalSaleTargetScore":-100,"latitute":"52.389056","longitute":"-0.172527","amountGenerated":"7","pricePrefered":"14","distancePrefered":"13","energyType":"1"},{"index":136,"seed":"CRCG9QXPDRHEHPDGSEMKJIMMFGWNFGJSHMBUOMQ9IJUHWELOJGFDIAWXNQLRDGLDNQRLYTFME9IHQTHTD","address":"RCOLHZJLDJLZWFC9FINQDYVGQ9D9CMG9MCIGESXWFOIPJPBZYSUHDZLEPDP9AEBJEWAVNDPJLDEBSMKUA","optimalPurchaseTarget":-100,"optimalPurchaseTargetScore":-100,"availablePurchaseTargetList":[],"optimalSaleTarget":-100,"optimalSaleTargetScore":-100,"latitute":"52.111813","longitute":"-1.058748","amountGenerated":"8","pricePrefered":"15","distancePrefered":"12","energyType":"1"},{"index":137,"seed":"GDAJKLAIHJFF9LERQUJSKVKTDLEAJEVJMRAAKLKSWBYWFPULNXUMQ9SOSCXEUDYRCQWSCKQOXEQAPQMOS","address":"LIAOZBQVVQJCHYLSVBMNQTOOCNKFJIWVWUXGBBHVKSURYHZ9R9HCK9JLLOHOTBNNCZFYUVBCJDKNMLXFW","optimalPurchaseTarget":-100,"optimalPurchaseTargetScore":-100,"availablePurchaseTargetList":[],"optimalSaleTarget":-100,"optimalSaleTargetScore":-100,"latitute":"51.052847","longitute":"-0.746274","amountGenerated":"9","pricePrefered":"15","distancePrefered":"12","energyType":"3"},{"index":138,"seed":"PQGEXTGCWYXRMH9TDWGITWUATNLOYIDVVSRTSKWQDJDBEPLT9KDSYNHOP9KNDGJBVBGMNRYSHUECOTKMG","address":"AFIPGGSSUENTMSHVRWLUIAAECTNGWTPORCPEHEALDJFKXMOMARAKJNQCZCGJQWQH9ZZSWZXKTSKHSMKBX","optimalPurchaseTarget":-100,"optimalPurchaseTargetScore":-100,"availablePurchaseTargetList":[],"optimalSaleTarget":-100,"optimalSaleTargetScore":-100,"latitute":"51.681384","longitute":"0.200053","amountGenerated":"6","pricePrefered":"14","distancePrefered":"12","energyType":"0"},{"index":139,"seed":"VQMTXURGLRELKNOVLFGWFYJMS9QGRYXFIHU9EQEUWAR9TL9ORQ9LHUHT9STUGDWFPJKEICVSOJUYLTQOO","address":"RCALTJWISYJLNRFQIYITCBNJRICVZQKEAYSAP9EKCLDNK9QJWJSPXVMNIVNJPXEZOVYRVH9HERJNUJ9MD","optimalPurchaseTarget":-100,"optimalPurchaseTargetScore":-100,"availablePurchaseTargetList":[],"optimalSaleTarget":-100,"optimalSaleTargetScore":-100,"latitute":"51.993967","longitute":"-1.432710","amountGenerated":"5","pricePrefered":"15","distancePrefered":"15","energyType":"3"},{"index":140,"seed":"OFEGPGMERTXYEBHSROCHGNGVJEEND9VUOLEDUIR9HAW9MOCQOJKUTGVBQTNITWUSHRXIYOQYGOIFIPBVY","address":"GRMFVVVHSRVMLA9O99EGKMOTNQJ9PPTKSFCCYDDANBTCQAHWYDISDQWDDLEEHVGAW9A9PROEURVMFYFM9","optimalPurchaseTarget":-100,"optimalPurchaseTargetScore":-100,"availablePurchaseTargetList":[],"optimalSaleTarget":-100,"optimalSaleTargetScore":-100,"latitute":"52.087861","longitute":"-0.923468","amountGenerated":"8","pricePrefered":"16","distancePrefered":"15","energyType":"3"},{"index":141,"seed":"MIDJYVDDPEWMNGUGCXJXIIRVYYEXMGNXLMUCESXIHNLTP9VQOKIFBSUWRVA9QIEJMOEJPCSOWSGFCGGSW","address":"IOMXYYSLNPXEZPXOPPGQPDMDOWUWBVHFKSDJCWDLIEEZCYSCAGH9OYZRAASTASOWTVH9SXAROZXORLHUD","optimalPurchaseTarget":-100,"optimalPurchaseTargetScore":-100,"availablePurchaseTargetList":[],"optimalSaleTarget":-100,"optimalSaleTargetScore":-100,"latitute":"52.087622","longitute":"-0.933334","amountGenerated":"8","pricePrefered":"15","distancePrefered":"13","energyType":"1"},{"index":142,"seed":"UEN9STTXOK9UJEBNQMOMGACSJG9JCDXQSTKLMSMLMGNAPQNOLTVCIHYKFNQNROBNFKWSWSYIPFASDMHLM","address":"BUYDQRW9PHHQSEQJVROBQQQITMGWIJGUXSETADNF9VVKCOWYJOPRVQTBXCBHHPNAGF9ZDGOJHKLWANLZX","optimalPurchaseTarget":-100,"optimalPurchaseTargetScore":-100,"availablePurchaseTargetList":[],"optimalSaleTarget":-100,"optimalSaleTargetScore":-100,"latitute":"51.424308","longitute":"0.096584","amountGenerated":"5","pricePrefered":"16","distancePrefered":"15","energyType":"1"},{"index":143,"seed":"BFVUHGEOSTRJCGER99CBV9LPIQLFAQXI9BKIDFIMVGLOGVQGJUWKXEGOOKBYOVFEIPKWQLCIMSYDYTQYV","address":"ZBQCBOCSCYDAJRB9SAERWUOTNZKIPUAXPORWJXYFC9HCIZWFZIRHBQRMAEIWJSFKIIJMTRXARAZUUDXZD","optimalPurchaseTarget":-100,"optimalPurchaseTargetScore":-100,"availablePurchaseTargetList":[],"optimalSaleTarget":-100,"optimalSaleTargetScore":-100,"latitute":"50.994429","longitute":"0.162687","amountGenerated":"6","pricePrefered":"14","distancePrefered":"11","energyType":"3"},{"index":144,"seed":"QPKQJPQXFPMJDSVEQEUBWPLVQHRMJ9PNJRYLGXGRLMKUGGGWEQVGERAFDG9JIM9GJHHTCOODMATMRRCPR","address":"PJKMBUURIGMVTBNUTPEHOMXJBEXWASFFVSQPSX9MOSE9IRZRJJUKSWYGE9ZSPDUDTPGJT9HRSKYKSADQX","optimalPurchaseTarget":-100,"optimalPurchaseTargetScore":-100,"availablePurchaseTargetList":[],"optimalSaleTarget":-100,"optimalSaleTargetScore":-100,"latitute":"52.093947","longitute":"-0.323932","amountGenerated":"5","pricePrefered":"15","distancePrefered":"14","energyType":"3"},{"index":145,"seed":"9FPAAHJ9PFBMGWSGWKBOX9OWJSIIEQTJEYKIWVENMPHELHDMBNJEXNSGNIDPLCHXOYGKWWM9DHNNPNHEY","address":"IJW9ERKGVJQSBBCZQOTYJTQIPJFFTMITMSEBYIIUAOPKPRCOEUNJ9FZOA9HOBLMCXVFGCRFBZSVFZ9EHZ","optimalPurchaseTarget":-100,"optimalPurchaseTargetScore":-100,"availablePurchaseTargetList":[],"optimalSaleTarget":-100,"optimalSaleTargetScore":-100,"latitute":"51.482754","longitute":"0.168012","amountGenerated":"8","pricePrefered":"16","distancePrefered":"14","energyType":"4"},{"index":146,"seed":"AWUMTDHYOKWUUIDJV9COKHAUVNGQAYGMQENUCKYWAMQNRQQNXNRJEJVCMPYFQEBQA9ULEKBKNKQKRRYAI","address":"OTCKBZVMWBLEJTUNZHQFUBHQCZTBBGCHLVQRDAJZ9Y9MRTOEIKYXUWXH9HMP999QGKJXZDYAMBCKLNQHX","optimalPurchaseTarget":-100,"optimalPurchaseTargetScore":-100,"availablePurchaseTargetList":[],"optimalSaleTarget":-100,"optimalSaleTargetScore":-100,"latitute":"51.506782","longitute":"-1.953589","amountGenerated":"6","pricePrefered":"16","distancePrefered":"13","energyType":"2"},{"index":147,"seed":"HKFSWKBWOCOPLJMYWNUB9EXACDDKKUIJIEUCQEJWMMSPHQGNXCWJGLCXQSRYLGSGHDKGFITTQUMICGIUF","address":"BEFYAOMMDWXBVRFLNMKVBWDFUGBVMVSQXOYIDBIVKZYIAGBZBUOKJYSXTNFFTSRGDDCIETFZJBR9MBCT9","optimalPurchaseTarget":-100,"optimalPurchaseTargetScore":-100,"availablePurchaseTargetList":[],"optimalSaleTarget":-100,"optimalSaleTargetScore":-100,"latitute":"51.564390","longitute":"0.076588","amountGenerated":"7","pricePrefered":"14","distancePrefered":"14","energyType":"2"},{"index":148,"seed":"DSNFUBHQDQURWJ9VR99XJDCMRTLPFPSNBRMENXWQNKLSIHABHIWHNSNCOQGMEELLQHEMRWLPECWHAUDYD","address":"CRZKTUOUFQMKBGPJKJ9TDPLHGTHYDSWQLJVKXCVAMCWDVAJPPWFNSPLAFFHXWJQTTL9FSPDLLBVAHHSTD","optimalPurchaseTarget":-100,"optimalPurchaseTargetScore":-100,"availablePurchaseTargetList":[],"optimalSaleTarget":-100,"optimalSaleTargetScore":-100,"latitute":"52.105672","longitute":"-0.884836","amountGenerated":"9","pricePrefered":"16","distancePrefered":"12","energyType":"2"},{"index":149,"seed":"EGQVCUOCXSAVMUFWRXCJJEQEECXFBIKDLM9VADTNXQDUTARPGKDMCEHMOQAFKYEVIHUPGCPPPHAAFXSGM","address":"LHWVKKZWOGDUTHQZCAQATGJWMSHMIGXFIIACIQOC9MHCRLRAJAVOMAPZGPDDTICNSQDYZKNUEHSHOJKVD","optimalPurchaseTarget":-100,"optimalPurchaseTargetScore":-100,"availablePurchaseTargetList":[],"optimalSaleTarget":-100,"optimalSaleTargetScore":-100,"latitute":"52.239994","longitute":"-0.493764","amountGenerated":"9","pricePrefered":"14","distancePrefered":"11","energyType":"2"}]