[{"index":0,"seed":"DOHFAOUCCXDNJMSJQPLQTDIOJKGMLPBFSEIHEWBXOOWTOTQKYASACKNIEKCVXW9KXRLKWVUDBVPOKNYJR","address":"LMDEKHDBEHZAMIEZFUQZWXQGRMWSJNQHOBKGNUGMYO9YMTRQIEEBMEUVINNYPRZAADI9ZYARFFGJWATSD","optimalPurchaseTarget":-100,"optimalPurchaseTargetScore":-100,"availablePurchaseTargetList":[],"optimalSaleTarget":-100,"optimalSaleTargetScore":-100,"latitute":"50.962142","longitute":"-0.555408","amountGenerated":"7","pricePrefered":"14","distancePrefered":"11","energyType":"1"},{"index":1,"seed":"YCXIDAYGYEKQI9DTP9MJTCIJHYCSEBMPUXDLBRFEYRDEYOSNLCXNCBEIFLODQKHCGJNFLKBXLIJOGSWEV","address":"YFHJCOGLUBMXTDMFYCHBOBPVNXLYTUBHGVOHNWCYQCRIWKWTATMFKIKIWIENYVATIICABIERSX9APSRDX","optimalPurchaseTarget":-100,"optimalPurchaseTargetScore":-100,"availablePurchaseTargetList":[],"optimalSaleTarget":-100,"optimalSaleTargetScore":-100,"latitute":"51.217542","longitute":"-1.387503","amountGenerated":"10","pricePrefered":"15","distancePrefered":"15","energyType":"0"},{"index":2,"seed":"DWHEOGFD9VOCGWPE9MJRVLVXYTOKDLND9LH9GPUVOARCYUNREJAYFG9MURBOEYVCE9ONLHJQQERMEGJWF","address":"MUYIFDJYSTRHOTVADHCLAQXESG9DCSLABBBOMFPUXXKXZZBKHZBAPYB9G9NIFFSZAFNLXHRAIBGHNZBAX","optimalPurchaseTarget":-100,"optimalPurchaseTargetScore":-100,"availablePurchaseTargetList":[],"optimalSaleTarget":-100,"optimalSaleTargetScore":-100,"latitute":"51.625983","longitute":"0.130168","amountGenerated":"9","pricePrefered":"16","distancePrefered":"14","energyType":"2"},{"index":3,"seed":"WUTRQXJPVNTCOHIYAKRGMTLQFVYVUORGMITSGEOAOCBT9DL9IWJQYAIFYGLFHPGPFIYIKYJQFFNHFCOXT","address":"DAQOSKXFYDKCGTUQJMVZINCDBCRCZHUIAQXNECEFZWPTVG9QGDUIXJJTRBTZCKFXFESDTPBFGHV9JMCBB","optimalPurchaseTarget":-100,"optimalPurchaseTargetScore":-100,"availablePurchaseTargetList":[],"optimalSaleTarget":-100,"optimalSaleTargetScore":-100,"latitute":"51.010875","longitute":"-2.122506","amountGenerated":"5","pricePrefered":"15","distancePrefered":"11","energyType":"3"},{"index":4,"seed":"IISHNTKCXXAYAXYEJFRLHWPXCQCIRPJLQOETVJJJHC9A9DDLEYXKOWV9IFJRFALTDQLKJHOCUMDDQMEML","address":"VZNETNHSTMRRBVMUXRAQPILXACRHAAFQTDWKSBODMQOIXJYRSRNJHAHNMMFTPSJCAZWAFALIYJUUMGCZC","optimalPurchaseTarget":-100,"optimalPurchaseTargetScore":-100,"availablePurchaseTargetList":[],"optimalSaleTarget":-100,"optimalSaleTargetScore":-100,"latitute":"51.845837","longitute":"-0.073771","amountGenerated":"7","pricePrefered":"15","distancePrefered":"14","energyType":"2"},{"index":5,"seed":"SJRJG9RGQVXBQQKRSAQROQADTGTAQIKNITU9JMHVSQXOVDUASBTLEIBRHVCUAXMNFDDTBHICQTFP9RCBY","address":"SVLDCFYUQCJZIVQOGQXOYYUPYMLEKLGHBGOWXWWBRSJBBFSRNSUKEYSWWMLPIAGRLJBWFBGWEEGHIBWVW","optimalPurchaseTarget":-100,"optimalPurchaseTargetScore":-100,"availablePurchaseTargetList":[],"optimalSaleTarget":-100,"optimalSaleTargetScore":-100,"latitute":"51.850392","longitute":"-0.544014","amountGenerated":"9","pricePrefered":"15","distancePrefered":"13","energyType":"1"},{"index":6,"seed":"OWCRJOCEH9CB9TPXTFBDVKONYRPPPSKLA9OTKM9JTYTWAKAUBESRGDGECPEXTKTPQOFWPICIYFWIHBDLV","address":"YTHNGGLHOKRGMYIHPTWAJCPZBBS9KJWD9UDQFEAPWOADNXBAXWAOFA9LYN9MKJCTPSSEGHWTJXNKQ9NAD","optimalPurchaseTarget":-100,"optimalPurchaseTargetScore":-100,"availablePurchaseTargetList":[],"optimalSaleTarget":-100,"optimalSaleTargetScore":-100,"latitute":"50.989362","longitute":"-1.145882","amountGenerated":"7","pricePrefered":"16","distancePrefered":"12","energyType":"2"},{"index":7,"seed":"OWCLWGPNG9DGYLMPBQYXFFFFSTIHFBIKWIKACDVNGAYVPQTCHCSCAYOSAWH9JRDOWWLAVKABSUSR9FXEE","address":"XVTLUVMQVQEHHPGGLACSQJFUVQTKKUSUNFW9GDWJELBBCG9JYWZO9C9AJBJKXLCZLSRNKTVSXCAIGQJMA","optimalPurchaseTarget":-100,"optimalPurchaseTargetScore":-100,"availablePurchaseTargetList":[],"optimalSaleTarget":-100,"optimalSaleTargetScore":-100,"latitute":"51.527178","longitute":"0.040787","amountGenerated":"6","pricePrefered":"15","distancePrefered":"13","energyType":"1"},{"index":8,"seed":"KXEDWRJUGGJESKWUWVTOJVCMBHYG9AN9CBYVJDEIEYEBSOIY9COERMVJEN9FVRMJGRQ9MO9RQRHUTHCSB","address":"9M9NEUOEDEIFOSZKC9OFURFKYL9QGIRRRHUTIZQTJPRROA9QZFJHMAGLDVPHRHRPQ9WEGPFAOPGUIRNVX","optimalPurchaseTarget":-100,"optimalPurchaseTargetScore":-100,"availablePurchaseTargetList":[],"optimalSaleTarget":-100,"optimalSaleTargetScore":-100,"latitute":"52.247780","longitute":"-2.367005","amountGenerated":"7","pricePrefered":"15","distancePrefered":"14","energyType":"2"},{"index":9,"seed":"HAEIPATFLVISJNUOYQKEF9YCDHGHTCENVCVVCKGLTNOCXTPQBCUUJHVHQCJTDIOJSEEUAGHQNEQUFCPOE","address":"JRDKUXPARVCIARYBQUGBJSYVTOURRNVRN9YETSWPMEZITKRCAXASPLRRNZSGTMBH9ZLXOOONL9R9BXDXD","optimalPurchaseTarget":-100,"optimalPurchaseTargetScore":-100,"availablePurchaseTargetList":[],"optimalSaleTarget":-100,"optimalSaleTargetScore":-100,"latitute":"51.350664","longitute":"-0.810745","amountGenerated":"7","pricePrefered":"14","distancePrefered":"12","energyType":"1"},{"index":10,"seed":"OKMTIQITQBJHJJRMDADFUJ9HSSMFQYTP9P9CG9GUHKGLE9YBVLAXKEHFUA9R9YWRJMSLPMBRVYMGXOYMK","address":"KSFIZJSGIIZCLLZCPOWTKRHJBHHBIY9IFANYS9TTCTSERXBUFRJMPXBEAHMXEPX9VSYINU9GRCAGOGNFW","optimalPurchaseTarget":-100,"optimalPurchaseTargetScore":-100,"availablePurchaseTargetList":[],"optimalSaleTarget":-100,"optimalSaleTargetScore":-100,"latitute":"51.175887","longitute":"-2.369896","amountGenerated":"6","pricePrefered":"16","distancePrefered":"11","energyType":"1"},{"index":11,"seed":"QSKFBWAJTNKAMTIWQVPBWBGMGKODKCLBXVYFTJSAXGYUYWXTST9VAEKBTPUDCHEVAHJCSXM9UE9VRTHWM","address":"LDMNFHJKQZTMEKDWWGGPETQXWSKATWZCNYDXXRFNFUQQFX9MEDCIAHVJ9LCAPFDUUCJVOXVMWZMSABLPX","optimalPurchaseTarget":-100,"optimalPurchaseTargetScore":-100,"availablePurchaseTargetList":[],"optimalSaleTarget":-100,"optimalSaleTargetScore":-100,"latitute":"51.096647","longitute":"0.038285","amountGenerated":"7","pricePrefered":"16","distancePrefered":"10","energyType":"1"},{"index":12,"seed":"JRPFCUIFRVNFJSLTGTLNOO9JNF9VYPICL9EFVSFHMHOHAENJCSIBYILFSPDWGTIDJCVB9NTJXKDSYOA9X","address":"OOKOZUUQVUEATJPEZZIQXYWREHAJOISWSBLINXFHPYEFYJVBKNJNIMXRCML9OIMYJGKFZRCXNZCRFKOXC","optimalPurchaseTarget":-100,"optimalPurchaseTargetScore":-100,"availablePurchaseTargetList":[],"optimalSaleTarget":-100,"optimalSaleTargetScore":-100,"latitute":"52.012390","longitute":"-2.235286","amountGenerated":"7","pricePrefered":"16","distancePrefered":"12","energyType":"4"},{"index":13,"seed":"CGPACWNHUVJLFGO9RDLORUAGJWCNSPABLLLQLAOSICBGPINBMTQDSWQWDHIQ9OINE9SXNIBDSIVDUNISR","address":"BCLCQWTNBTRILINRTMBOLGLNKXEUWZEKSHHWUJVJGWYA9R9YNEGMCCHNXJGAWR9HNJMJFBOHKEFUMTIED","optimalPurchaseTarget":-100,"optimalPurchaseTargetScore":-100,"availablePurchaseTargetList":[],"optimalSaleTarget":-100,"optimalSaleTargetScore":-100,"latitute":"52.094515","longitute":"-0.762920","amountGenerated":"5","pricePrefered":"15","distancePrefered":"15","energyType":"1"},{"index":14,"seed":"WRENEXQGYIMWQFDVGBGTNBUYEGTBODNUURIRLGDCRXXIVUGKYOUDOVCHCVHPFFXQBCTN9TUDOYEAIXBSG","address":"FRMRXZWTBNRCHY9GGKIVZBOBQEUOPSGWYHFUNVHCFOFQFKYWLKJXUEKIBOQCIVXCX9RPBYQLCOBKKCNR9","optimalPurchaseTarget":-100,"optimalPurchaseTargetScore":-100,"availablePurchaseTargetList":[],"optimalSaleTarget":-100,"optimalSaleTargetScore":-100,"latitute":"51.336353","longitute":"0.136043","amountGenerated":"5","pricePrefered":"15","distancePrefered":"13","energyType":"3"},{"index":15,"seed":"AJJQDFSIGIE9IFDCWUPAEMNQCMXUCSQTTUMRT9AHPQ9DKWFAPTXYOFBDTFCOCBIPFWTPIRVLOPUMRPDAK","address":"LRQDMNPDZXLPHFDCFMCS9VFKCRPGIRWTWJFD9JGENPFKZVEOUTHBJPKNVZXIHSZEVRFIEINJDPJPK9TNX","optimalPurchaseTarget":-100,"optimalPurchaseTargetScore":-100,"availablePurchaseTargetList":[],"optimalSaleTarget":-100,"optimalSaleTargetScore":-100,"latitute":"51.798562","longitute":"-2.303968","amountGenerated":"10","pricePrefered":"15","distancePrefered":"13","energyType":"1"},{"index":16,"seed":"YNEPULYKHQFOIXNVAVQPTIVBWFHEQSTWWTLGUOQYCPAYAVDJVSTGHPJHS9XAIWQ9I9PMHUYFBPDUWHGCT","address":"LYPAFLDU9GXQNUMR9NWDTOFJZOQWQQTSUKMECGOSQMLPGKLPTRUXCLQEBOFQMYKSBHEOMOGHAAOVIOCEW","optimalPurchaseTarget":-100,"optimalPurchaseTargetScore":-100,"availablePurchaseTargetList":[],"optimalSaleTarget":-100,"optimalSaleTargetScore":-100,"latitute":"50.999376","longitute":"-0.940218","amountGenerated":"6","pricePrefered":"14","distancePrefered":"14","energyType":"3"},{"index":17,"seed":"DOOKBASUKNKAPVQFQXTVLMDCEMNIMTQMUCXCBVDBCEWCSTRWDAA9VOSLBXFYHLTQSDALF9AEMLCCFYKAN","address":"KYVCHRJUGJNXAMHZQFNN9IZXFZMVAHEFA9GLPMHUXEIGV9SCOVJIILQWFBJAOBNFJVCEFKHBNWZILAJQW","optimalPurchaseTarget":-100,"optimalPurchaseTargetScore":-100,"availablePurchaseTargetList":[],"optimalSaleTarget":-100,"optimalSaleTargetScore":-100,"latitute":"51.733444","longitute":"-0.578846","amountGenerated":"6","pricePrefered":"15","distancePrefered":"12","energyType":"1"},{"index":18,"seed":"CJH99XLCEVDIFUNFIE9EHORTRBMASSBQTRWDFKC9ECSCDECDXTOBIJWVBPLNPSDTIOXOJNPBXDYRVDVVN","address":"UGTNWGADW9WFPXBIBSANUMTHNXAWCHLMSVVJSRHNJ9ZYGRFPZJXBUWHKUWUHTDGAKBSYJLHFUQCGUYDLX","optimalPurchaseTarget":-100,"optimalPurchaseTargetScore":-100,"availablePurchaseTargetList":[],"optimalSaleTarget":-100,"optimalSaleTargetScore":-100,"latitute":"51.704912","longitute":"-1.886600","amountGenerated":"6","pricePrefered":"15","distancePrefered":"15","energyType":"0"},{"index":19,"seed":"HXYCXDCXKA9GWRJICMUYQKVVKXGTEBBTKUHVRORWRTTSOQDJ9FWLCTADOGUXNSCTPMPYDFXMETWCDJRNV","address":"CONFUPAGPI9TLAAVEHJRVNIKPSOPEFNUWRNWTD9CHFQVRKBNPDPWCDQP9WUUP9G9RAESLERJZF9JXLYYX","optimalPurchaseTarget":-100,"optimalPurchaseTargetScore":-100,"availablePurchaseTargetList":[],"optimalSaleTarget":-100,"optimalSaleTargetScore":-100,"latitute":"51.521757","longitute":"-0.990899","amountGenerated":"9","pricePrefered":"15","distancePrefered":"14","energyType":"3"},{"index":20,"seed":"GODFXEQSW9UKWNCRWFPBKEGWKUBMQQLSAKDUEDVRTHYTXYWHBVYGGQILTKVAJYNDWNLOUNHECXNDXYCRM","address":"9GNRGXXREIZYMCSWWALLGIAZZ9B9OAEUQQGOKHCMSXHHKJWGVWMUNUO9LHV9BKYJA9RDRTAMDHNZULBED","optimalPurchaseTarget":-100,"optimalPurchaseTargetScore":-100,"availablePurchaseTargetList":[],"optimalSaleTarget":-100,"optimalSaleTargetScore":-100,"latitute":"51.816322","longitute":"-0.545815","amountGenerated":"10","pricePrefered":"15","distancePrefered":"14","energyType":"1"},{"index":21,"seed":"OEBXCRJLWAVQLMITYNBXEEFTCFINFSLPTUPIHJIFE9DDYGVT9JYNWSBKATMQCUVLBVMDCCHTVBO9BLSLW","address":"WLIZEAAPGLE9BFYRVCOKWTMQTOQKR9SKBDLECFU9OEOLCOXVRBDNULTEMTCNTPYUVTHJMAZWS9SFQMVAW","optimalPurchaseTarget":-100,"optimalPurchaseTargetScore":-100,"availablePurchaseTargetList":[],"optimalSaleTarget":-100,"optimalSaleTargetScore":-100,"latitute":"51.746639","longitute":"0.180665","amountGenerated":"6","pricePrefered":"15","distancePrefered":"13","energyType":"2"},{"index":22,"seed":"HQPJM9UYBXVNTGVPYEVOFXDDSQAAYNTWOOFAKRHPFPIEDKRCFYDDTECLPRQUO9EMVDQCIK9DPQGDHMNN9","address":"UL9WNPGUZBPINJJAEVCNZWBTDXDGYVAGS9LOCXSAUKZCBHZKIH9XRTOWPQBMR9TIFLIMTQGJYTNHLCUY9","optimalPurchaseTarget":-100,"optimalPurchaseTargetScore":-100,"availablePurchaseTargetList":[],"optimalSaleTarget":-100,"optimalSaleTargetScore":-100,"latitute":"51.220772","longitute":"-1.253630","amountGenerated":"9","pricePrefered":"15","distancePrefered":"12","energyType":"0"},{"index":23,"seed":"CELKMQTNCTVAYFYHRBNRWOT9RP9M9PKC9MGALAXCO9SMPETLR9WQIPHSVLWFIXWKLYAVCTSMURNYUHDFS","address":"ISIMXJKUGEHYCYRAWVYK9MSMAZDSYBLNAZTYWQMPBBHWV99MHRZILGVZWMBOKXLXATVTMHYMIQC9T9GBD","optimalPurchaseTarget":-100,"optimalPurchaseTargetScore":-100,"availablePurchaseTargetList":[],"optimalSaleTarget":-100,"optimalSaleTargetScore":-100,"latitute":"51.215012","longitute":"-1.698825","amountGenerated":"6","pricePrefered":"15","distancePrefered":"13","energyType":"2"},{"index":24,"seed":"ROJKVXXXEYEPDAFO9PNXAUPUFLXRW9DJQQHTYYLYCRIEYTIOGQHFHVJXYWMAFYQJFJNUNEH9BDVPYOYKN","address":"XPWLFKI9UACQZIXMZMRIXPGNEZ9JODJECEIGZTUOGKLRBCMLCCSYRCCSVFTTUVHTDTCDTQOYMMPQTTH9C","optimalPurchaseTarget":-100,"optimalPurchaseTargetScore":-100,"availablePurchaseTargetList":[],"optimalSaleTarget":-100,"optimalSaleTargetScore":-100,"latitute":"51.744002","longitute":"-0.783144","amountGenerated":"5","pricePrefered":"14","distancePrefered":"12","energyType":"0"},{"index":25,"seed":"KGDYEWWXKQPGTGJNICHFGSSDFSDFYTXWFTWQWBGITO9WHSOBOENPYBBJIHJM9NSVAJGQKJKOJMXMXWFAB","address":"PTMRSFERLTMYJPPJPJORBGHUVNDYBVXPTVDRUIIOSNSPDTIIZ9CROMGYYCKLXFMVKDMSVNKSYYS9SSVTX","optimalPurchaseTarget":-100,"optimalPurchaseTargetScore":-100,"availablePurchaseTargetList":[],"optimalSaleTarget":-100,"optimalSaleTargetScore":-100,"latitute":"51.972717","longitute":"-0.604386","amountGenerated":"6","pricePrefered":"15","distancePrefered":"12","energyType":"3"},{"index":26,"seed":"BYKJJDCFTDW9VLHGB9BPWMEIAKDLLXQORMJXNSRAX9KSQSNDITMILJPUOKROIRFNMGLUASXFWAQTHGQXF","address":"LNCVKGFTGGZKNTNPLKUIJRGNNFANKKKILGEJGIQXBBEGJDKCSXAXFPWKLJKXWESL9LFKLKAWWHXOSQEQZ","optimalPurchaseTarget":-100,"optimalPurchaseTargetScore":-100,"availablePurchaseTargetList":[],"optimalSaleTarget":-100,"optimalSaleTargetScore":-100,"latitute":"51.090972","longitute":"-1.160103","amountGenerated":"9","pricePrefered":"16","distancePrefered":"11","energyType":"0"},{"index":27,"seed":"LRWHNTUHAUGLJNDEXWXMWTJFWVNXRXPJV9SGKPGRTRDUUXHQBCACLKYDDSQUVLHETGOCXVXSRDKBUWBLH","address":"GYFSMSWD9DZOLRKPRL9CYVCEIPTLUJUDPNBQPHXCBTOGH9BXO9UDAHITWMCFUOTUDYZDTXXQPZVB9GWNX","optimalPurchaseTarget":-100,"optimalPurchaseTargetScore":-100,"availablePurchaseTargetList":[],"optimalSaleTarget":-100,"optimalSaleTargetScore":-100,"latitute":"51.260939","longitute":"-1.792582","amountGenerated":"5","pricePrefered":"16","distancePrefered":"14","energyType":"1"},{"index":28,"seed":"MSOEPRCONTKJGYJXBDAIOQT9YEDGOAHGJSFAKXHDNGINCD9PTUJKGWJQLUOPJKP9VHWUKDIXHLJV9KJRE","address":"QY9YJIFR9CUQANIVLZJMLASUMNDSPIOPNLQQSSSEMQQANGIMUEXZOELKMJDIAV9WUIEQVDTJMMDRRACMY","optimalPurchaseTarget":-100,"optimalPurchaseTargetScore":-100,"availablePurchaseTargetList":[],"optimalSaleTarget":-100,"optimalSaleTargetScore":-100,"latitute":"51.986030","longitute":"-1.703064","amountGenerated":"8","pricePrefered":"15","distancePrefered":"14","energyType":"3"},{"index":29,"seed":"PKYXS9HJBWLSGH9TBFOLFMLIDROQMHXSTEPS9ESOJVWOM9QIAFQYKPINRFSNQNEAGSKVMEUCGEOQKAGTG","address":"OOOZWZUESQBGBIT9VWFEODLIBCICXC9JLVAKTSYUODXTMFUXVLIDVUBMDUFTHYQHEKC9FAYTPX9QDSGBW","optimalPurchaseTarget":-100,"optimalPurchaseTargetScore":-100,"availablePurchaseTargetList":[],"optimalSaleTarget":-100,"optimalSaleTargetScore":-100,"latitute":"51.686875","longitute":"-1.080256","amountGenerated":"10","pricePrefered":"15","distancePrefered":"12","energyType":"3"},{"index":30,"seed":"WAXQ9PITYLTEHJCTWGULJTHKMAE9PBWKFWLYUHXVRQTITODHURNFRHYAENJXEFVXEIHACH9IWOMUAMTCG","address":"LONEPJOWMABJKGFPLPWAPFBORVJSSWREHFWQHPQPMGQPYOPBOBPDPZXDISXACTIPRPLT9DDTAEPYYOS9A","optimalPurchaseTarget":-100,"optimalPurchaseTargetScore":-100,"availablePurchaseTargetList":[],"optimalSaleTarget":-100,"optimalSaleTargetScore":-100,"latitute":"51.481761","longitute":"-0.170457","amountGenerated":"9","pricePrefered":"15","distancePrefered":"13","energyType":"3"},{"index":31,"seed":"APPKWBEUVREGOYWLUQAAASFLJLMWBPYYRBJIICVN9FKKDUINPIOFEYMEIMCSVMIYEEVXHESYPVCJCLMTB","address":"XWRU9ENYGM9BKGSEXGPGQTUNXHZ9XYXPWEKRZGSTISDTOETJPBOFODKOIIWZWQLTOMDFTCNKJYHWQEEWD","optimalPurchaseTarget":-100,"optimalPurchaseTargetScore":-100,"availablePurchaseTargetList":[],"optimalSaleTarget":-100,"optimalSaleTargetScore":-100,"latitute":"51.738360","longitute":"-1.837429","amountGenerated":"8","pricePrefered":"15","distancePrefered":"14","energyType":"0"},{"index":32,"seed":"CJSDIGGEDTFUDPPQYQSV9ANKHSNRBCRWW9FYURFSXMXXKNMECTUCYTLKFESHVNRMOYHVXVLAHWEPVOHMB","address":"GAPPQEOAKEYKZFQNSEPCYLKCKAMAFQKNUZHTXABDUBZCFESUUDEOVLRM9WZBXFJTF9EZAMBZTMBUGR9AC","optimalPurchaseTarget":-100,"optimalPurchaseTargetScore":-100,"availablePurchaseTargetList":[],"optimalSaleTarget":-100,"optimalSaleTargetScore":-100,"latitute":"51.534467","longitute":"-1.014350","amountGenerated":"8","pricePrefered":"15","distancePrefered":"11","energyType":"4"},{"index":33,"seed":"XPSXJWULGDPYOWIDXLDXXDXVFCH9JFLJFFACWXKSMKWNPSNUJPJOUYSRX9TXXNDS9GNSFSWHIYIISOPCV","address":"FZLJFQC9MUTBRDGDGCCJUIOIQMYFHSBAO9QHORKH9FXZMEDPQFCO9XTJNCEJPJZWPCGOM9AESSKWUUMEW","optimalPurchaseTarget":-100,"optimalPurchaseTargetScore":-100,"availablePurchaseTargetList":[],"optimalSaleTarget":-100,"optimalSaleTargetScore":-100,"latitute":"51.940721","longitute":"-0.393233","amountGenerated":"10","pricePrefered":"14","distancePrefered":"15","energyType":"2"},{"index":34,"seed":"HMTDFVPNGPHBBCPGDSACMMQEODRJLQSSLDFEUEWHELOAETEUDMOBGHUCOEHJELYY9MA9OPPLGAYMXHRUU","address":"ZNMMGSKVIAMQEHBB9USKPFHCXPWXXRFHJFQUGMIPPJBOQDPALJEMGLM9XMG9IBK9RM9MTVXSMPK9AGHJD","optimalPurchaseTarget":-100,"optimalPurchaseTargetScore":-100,"availablePurchaseTargetList":[],"optimalSaleTarget":-100,"optimalSaleTargetScore":-100,"latitute":"51.852182","longitute":"-0.366433","amountGenerated":"6","pricePrefered":"16","distancePrefered":"10","energyType":"1"},{"index":35,"seed":"HLYXPJYSHVLDYFLHDKEGAPUSYUFXUJARUYEW9NQCLBLAOEPNJHUSVKTCMAJEN9SQEM9QWLSS9FIBPAUAW","address":"ECJZUOV9IBCZOXZPXPOYYRTABIHLQUZDEFTDTXNJAOCUVHFS9LNZDKKQWYCZYETPHZTVUZYOEZMTENGQX","optimalPurchaseTarget":-100,"optimalPurchaseTargetScore":-100,"availablePurchaseTargetList":[],"optimalSaleTarget":-100,"optimalSaleTargetScore":-100,"latitute":"52.374105","longitute":"-1.676985","amountGenerated":"5","pricePrefered":"16","distancePrefered":"10","energyType":"3"},{"index":36,"seed":"EHUHDTNJVYWPPOXLQHWCQWCFXEOJNUKDHFWTHEUWVYWHVLKCCEBPMAGOAODG9NIMHEHQNJLVUHIPYYTHD","address":"C9JIXEBBPGJLQCGWEKMVTKRYNOUWVSARKAJEWDIHMGUFCOA9OLDLMOGVITXFYVTGICK9WAYLPUQJREEVW","optimalPurchaseTarget":-100,"optimalPurchaseTargetScore":-100,"availablePurchaseTargetList":[],"optimalSaleTarget":-100,"optimalSaleTargetScore":-100,"latitute":"51.979087","longitute":"-1.296000","amountGenerated":"6","pricePrefered":"14","distancePrefered":"14","energyType":"1"},{"index":37,"seed":"TPA9NRI9BSXAHHQHCJGERICNJRURVD9CMPCKTFFQQVSYGCYGSICWLXFH9CGGHGFJFYSQLRYIVBLWCFKSQ","address":"HOPRPY99ULAKWXZRVYYFOSPMBC9GNYRXIPEZRKSUVNNDIHPPRNGCHQJAWEOBMLOSROIRPLOBHRBTUWLLD","optimalPurchaseTarget":-100,"optimalPurchaseTargetScore":-100,"availablePurchaseTargetList":[],"optimalSaleTarget":-100,"optimalSaleTargetScore":-100,"latitute":"52.348335","longitute":"-1.344427","amountGenerated":"7","pricePrefered":"15","distancePrefered":"10","energyType":"2"},{"index":38,"seed":"PIAKARRGNKGMGYNXYEMUATACYECWTLWAACLVW9MHCWPIYBTVCOAVKAVNOKSKNIS9ACFV9BYMOGLX9YRMA","address":"TFREGYPAKGTSS9NIPFJQWWYNDPXKIUZOHGD9YRBSDUXHRASLGDIHDSJAIDYQSGLDPEMHCYX9UNJUSJUAW","optimalPurchaseTarget":-100,"optimalPurchaseTargetScore":-100,"availablePurchaseTargetList":[],"optimalSaleTarget":-100,"optimalSaleTargetScore":-100,"latitute":"52.349079","longitute":"-1.288263","amountGenerated":"8","pricePrefered":"16","distancePrefered":"13","energyType":"0"},{"index":39,"seed":"RGBSAHHTSL9ULNKJVSJKCNHFDOVEHJIBMWSHPLQDHDERBJITLFIBGRSXEYYISBDJLLMCSNHUNBFEBIGLQ","address":"LBOZRLNRANZIHPKLYWAFSCNOBDXRDPOOQXZAOFRNKYFQJYVNQZPKWDVTUJXVZXUNIHJ9BEKRGASI9K9DB","optimalPurchaseTarget":-100,"optimalPurchaseTargetScore":-100,"availablePurchaseTargetList":[],"optimalSaleTarget":-100,"optimalSaleTargetScore":-100,"latitute":"51.550167","longitute":"-0.759924","amountGenerated":"9","pricePrefered":"14","distancePrefered":"11","energyType":"1"},{"index":40,"seed":"HLGWRWVLWWNTQHKLCVKYEONV9BMVECMSPVNJLWWHSALIMXHQFP9HRJWINQAGCRFYKQ9THFXVFYI9YMJW9","address":"NSDWAELEUQFVTVFUXNER9PERENZOFTOIPABZYAORCV9QVZIXFHECGOWEPX99DMIVNWCDFQYFPOHKBGKCZ","optimalPurchaseTarget":-100,"optimalPurchaseTargetScore":-100,"availablePurchaseTargetList":[],"optimalSaleTarget":-100,"optimalSaleTargetScore":-100,"latitute":"51.302110","longitute":"-0.568824","amountGenerated":"9","pricePrefered":"15","distancePrefered":"12","energyType":"2"},{"index":41,"seed":"KSOSNWKAQATJBK9KMU9XWUVWKTWVMWCHPLKIBOGN9CKPNWCTBBMJFHCTVVKYHSTEDHURP9HYYCOLGNJWB","address":"EBXQKLTWJQLCTNVSVVMZMUMELNOQVFDUIGZRJMMDCYOCBXGZWXRKNCM9VCZ9LXRWCDHHWDJFICRTIODFC","optimalPurchaseTarget":-100,"optimalPurchaseTargetScore":-100,"availablePurchaseTargetList":[],"optimalSaleTarget":-100,"optimalSaleTargetScore":-100,"latitute":"51.808714","longitute":"-0.772366","amountGenerated":"9","pricePrefered":"16","distancePrefered":"14","energyType":"1"},{"index":42,"seed":"UPRARPODQJIIPAJVES9AFXBVKINOBSJVNR9IORRSTBLSTCERGJCRUCXDUVBUBCAOITJAXJTGWSTPOSVKJ","address":"FHNGOKQKTQPVYUSEIDNNQHINNFIUWPIGDFYRESCFVURLPMHTUSOYOYB9BQXFD9WSHZNVFKOOHYZEEGAVY","optimalPurchaseTarget":-100,"optimalPurchaseTargetScore":-100,"availablePurchaseTargetList":[],"optimalSaleTarget":-100,"optimalSaleTargetScore":-100,"latitute":"51.052320","longitute":"-0.658885","amountGenerated":"9","pricePrefered":"15","distancePrefered":"11","energyType":"1"},{"index":43,"seed":"VMFDS9GUBISFUPIXJIROAJOQHRWULJV9LODEUFDDJNWXMIODBGKTFXUPDQAMVXMARULNCHJCDQTILHEAY","address":"VHAZPEPW9PYWCEYPEN9URNYHWETO9HXLDN9SMDPFW9WKWPUTMZWQANCXFAUMTOHCONILERF9SMQBWCVFX","optimalPurchaseTarget":-100,"optimalPurchaseTargetScore":-100,"availablePurchaseTargetList":[],"optimalSaleTarget":-100,"optimalSaleTargetScore":-100,"latitute":"51.538493","longitute":"-2.161474","amountGenerated":"7","pricePrefered":"16","distancePrefered":"11","energyType":"4"},{"index":44,"seed":"S9MNAIASWYIROMRGWRURR9YEGBVODPRWIFLJBA9IPAQFIFWVBFUMJOKAOXDSYBECFSLDFULHTPMCRQRWL","address":"JADIQAIOXHQJPVRUFGIXHBQWARDHOSNUNLGJWW9UORQDSEPJROQFYT9IR9NDTBBEMFOZZYLFHNRDMMSYB","optimalPurchaseTarget":-100,"optimalPurchaseTargetScore":-100,"availablePurchaseTargetList":[],"optimalSaleTarget":-100,"optimalSaleTargetScore":-100,"latitute":"52.111522","longitute":"-0.375685","amountGenerated":"5","pricePrefered":"15","distancePrefered":"15","energyType":"1"},{"index":45,"seed":"AQUKDRSOCEQCLAYCPRLNB9SNKK9JIUONEVWPDPMOYCVVKN9AEELQTRTDRFVBGHAUJJFO9FGJCHHL9IOSN","address":"FKFDCKVSLXMLWIWBUFLVKEERUWBN9LBTKVMMGDKCLPCCETGOOLJOMUGSVPPDV9JLXOGRVV9XKCDIFIJND","optimalPurchaseTarget":-100,"optimalPurchaseTargetScore":-100,"availablePurchaseTargetList":[],"optimalSaleTarget":-100,"optimalSaleTargetScore":-100,"latitute":"52.151055","longitute":"-2.039265","amountGenerated":"8","pricePrefered":"15","distancePrefered":"13","energyType":"1"},{"index":46,"seed":"SEHQBVCFLFUBDIHEXIPKGDLYIKNAHNGPAJFXBRSAPLCBIJHPBPWVYANMMITE9OVBJONJKTBWIQYKNPGWO","address":"Z9OSWHORXMSJIMNNYJGZYXOHGXIAP9MPGXLYMXZDIKEABSUEBXXMAVD9MRMIZHATECRLKSEUHRHHHCBJ9","optimalPurchaseTarget":-100,"optimalPurchaseTargetScore":-100,"availablePurchaseTargetList":[],"optimalSaleTarget":-100,"optimalSaleTargetScore":-100,"latitute":"51.548062","longitute":"-1.720854","amountGenerated":"9","pricePrefered":"16","distancePrefered":"12","energyType":"3"},{"index":47,"seed":"XHYXSASQQM9AIDXWUVIDEVXYHLKVEXUIPJXNYSFAMAJYULGBNESMLASEKQDNCOQJMSBXEDYWYRKOIKBNG","address":"YPBQNVLYXOKRDWUKJKNB9MLQASZXMRPVFEDBXQIFXQDHNAM9CTDODZXVLFLYD9QBOMFCHICWPUMYFTTA9","optimalPurchaseTarget":-100,"optimalPurchaseTargetScore":-100,"availablePurchaseTargetList":[],"optimalSaleTarget":-100,"optimalSaleTargetScore":-100,"latitute":"51.985061","longitute":"-0.591016","amountGenerated":"6","pricePrefered":"15","distancePrefered":"14","energyType":"3"},{"index":48,"seed":"IOJ9QIXF9HYMVFQLJACINKLDBJVPQDPBVSTDHFWMPMIFUCUXT9J9UFMRIUQQTPXBLLXSHREBY9PNQENHX","address":"BVBCGLGNZCPOPIRGOZEBH99FFW9JPYGSY9IAFLGRUIDEDKCVQMPVBCEX9NHXHUCBSBPIGPFBSRZDELD9W","optimalPurchaseTarget":-100,"optimalPurchaseTargetScore":-100,"availablePurchaseTargetList":[],"optimalSaleTarget":-100,"optimalSaleTargetScore":-100,"latitute":"52.384973","longitute":"-2.176445","amountGenerated":"7","pricePrefered":"14","distancePrefered":"13","energyType":"0"},{"index":49,"seed":"LIMYFJORHPRJEHWSYGIUWGKNGYKXSGLTQRCFBSEHXY9NGODXJRONOQMYWNWELGK9GIFNJIWIPDA9XWYBI","address":"BCSUNPIXPMHZGUHPKXUGMC9YT9CBRCDFQJXOBCHMKPQUAJUHYNDABFQURTNYEZEAWHOGYQPTFNBNTUWP9","optimalPurchaseTarget":-100,"optimalPurchaseTargetScore":-100,"availablePurchaseTargetList":[],"optimalSaleTarget":-100,"optimalSaleTargetScore":-100,"latitute":"52.086663","longitute":"-1.082720","amountGenerated":"8","pricePrefered":"14","distancePrefered":"11","energyType":"3"}]