[{"index":0,"seed":"OQNPHWSGVRAWWOBQNTRMIPXFJKUSQKYELNHHBLCXQSXNSYXJFPN9KL9DTD99XURDTBKMLOFQIHUNJMNOA","address":"CSTQQOESALCYFVYQTZCWHWGIRCHNBTNBGXODVSXKDXMBPBTHYHEDHEWRQWOVZEVENILHRVNHJHN9EBKCW","optimalPurchaseTarget":-100,"optimalPurchaseTargetScore":-100,"availablePurchaseTargetList":[],"optimalSaleTarget":-100,"optimalSaleTargetScore":-100,"latitute":"52.030186","longitute":"-2.103197","amountGenerated":"8","pricePrefered":"15","distancePrefered":"11","energyType":"1"},{"index":1,"seed":"QSNBQGAB99KHFYDGSVA9YXJAFGHTGUMXJNBFSGJXXQEIDHLMKICWCQRXXQHBVGYBIGIMMXHYMCRGGJLKJ","address":"NMIPFDD9MQULEDKVOYLQAIUNFBOZURRNRQDHIKMRM9CMXCHCUIHBTVIUROISMJRTBONEAXF9HAUVIRFMB","optimalPurchaseTarget":-100,"optimalPurchaseTargetScore":-100,"availablePurchaseTargetList":[],"optimalSaleTarget":-100,"optimalSaleTargetScore":-100,"latitute":"52.096261","longitute":"-0.998815","amountGenerated":"6","pricePrefered":"15","distancePrefered":"12","energyType":"1"},{"index":2,"seed":"KEGHQOKDTUQRELF9HWMISFADXGTGH9GFMIPNTIPPJQKJNWDUKEHMFYJFHFGUSTDHCSKCQDCWXTHXKWDMU","address":"JTEUQQSUJU9MXJBTURVYWXBGPYIAPLLI9MOVPM9OWKPZWTPZMXLBKHKBYIQJ9SH9HUIBEVXUPGUQSOSLW","optimalPurchaseTarget":-100,"optimalPurchaseTargetScore":-100,"availablePurchaseTargetList":[],"optimalSaleTarget":-100,"optimalSaleTargetScore":-100,"latitute":"52.087179","longitute":"-0.209958","amountGenerated":"9","pricePrefered":"14","distancePrefered":"10","energyType":"1"},{"index":3,"seed":"URUSBXFCSDGD9GGN9HVVSYCWTD9SOYFMDVBTKJPBCOGG9OIGALCXKT9NDHTKV9VPVRHRDKIEKAWWSQFXL","address":"MATBKBDTTKEUTDXBECMWYPPQZXWKWCJKHUNMV9KDLBDEJNOZOPIYESFT9NB9UWS99XKYCTPZXMEQXJUZZ","optimalPurchaseTarget":-100,"optimalPurchaseTargetScore":-100,"availablePurchaseTargetList":[],"optimalSaleTarget":-100,"optimalSaleTargetScore":-100,"latitute":"51.814732","longitute":"-1.433724","amountGenerated":"7","pricePrefered":"16","distancePrefered":"10","energyType":"2"},{"index":4,"seed":"GP9VWURIRIYHUSTL9NACPXIHIJNTMHBJVRL9BHTMLOURYOKOTPKOP9OY9FMWSDBXWXCWOA9EJPXRYRWBL","address":"EQHRJRKU9RZFKLYMOSAJXKZZFYXMNVYKV9WAIOXEPHWYSBQKKCXWUMZDIACBUYGJGBX9XZESDHBMA9YTD","optimalPurchaseTarget":-100,"optimalPurchaseTargetScore":-100,"availablePurchaseTargetList":[],"optimalSaleTarget":-100,"optimalSaleTargetScore":-100,"latitute":"51.691006","longitute":"-0.149261","amountGenerated":"5","pricePrefered":"16","distancePrefered":"13","energyType":"1"},{"index":5,"seed":"YSCIDUEGCOYQBCASFGVVGEIAGSTYHHGGAXWBIJVQHWQ9U9QEGDFFFGTQNAB9KXPTPYEKCCMFREGHIQYQC","address":"UQYGURYXJHSBSACSMHDJ9QMMTXJLXCHYOAYSJEMOLABJYDNYHEUKESBDBOCAOMLTGWUWBQUOCBW9QFHWX","optimalPurchaseTarget":-100,"optimalPurchaseTargetScore":-100,"availablePurchaseTargetList":[],"optimalSaleTarget":-100,"optimalSaleTargetScore":-100,"latitute":"52.218576","longitute":"-1.276100","amountGenerated":"9","pricePrefered":"15","distancePrefered":"10","energyType":"2"},{"index":6,"seed":"PSKGMKAFRLQQDCMGALAQC9WVRWFAHJXWCSIUTTOIUMKYOFFUXDWSLKVLOGJATAOTSNECWN9MVYS9VESPQ","address":"9RLM9NKSVOURSCADLMTSY99PKHEFBXBHAZOXANPBGJCPWKXRAAFXMPHIEYOZMFRRGTKYCHEXVI9NISNJC","optimalPurchaseTarget":-100,"optimalPurchaseTargetScore":-100,"availablePurchaseTargetList":[],"optimalSaleTarget":-100,"optimalSaleTargetScore":-100,"latitute":"51.147692","longitute":"-1.662751","amountGenerated":"9","pricePrefered":"15","distancePrefered":"13","energyType":"4"},{"index":7,"seed":"KERHN9RG9DHDSHPNQYOVUOEXKQYMFXPCUFGCAW99LALYDNHLDYVMLHRMHGIPIIKIPYIHGWJATXYVHTNSR","address":"ZXMTJNFKBHZFZZPLTNOB9ZBMOBT9IIDJ9YKMONFB9BPWLVMQLYSHYADZZUMMMKMUWPMQZROSZG9BSKRDZ","optimalPurchaseTarget":-100,"optimalPurchaseTargetScore":-100,"availablePurchaseTargetList":[],"optimalSaleTarget":-100,"optimalSaleTargetScore":-100,"latitute":"50.977942","longitute":"-0.136340","amountGenerated":"9","pricePrefered":"14","distancePrefered":"10","energyType":"3"},{"index":8,"seed":"NXLAPHH9WEMVROSAJSGGQDJQGKVKPRFBRPSBBRCGPWXWB9DMPJC9VSFFTC9IIYUBHBJXXWFYHFHAWDWSM","address":"ATREBBNTBOHKYPZBSUALPDGUFORXEGGZVZGEVUVMLQEMLNGSAMGDWGLRZUXLUHXYMYFEIHXR9NWQMK9RW","optimalPurchaseTarget":-100,"optimalPurchaseTargetScore":-100,"availablePurchaseTargetList":[],"optimalSaleTarget":-100,"optimalSaleTargetScore":-100,"latitute":"51.709304","longitute":"-1.919756","amountGenerated":"6","pricePrefered":"15","distancePrefered":"12","energyType":"2"},{"index":9,"seed":"MBMFLGQRGMWYTS9YJEJ9YUTOETANHAIBXHKGTFTTT9OQICXFWRAPAELLGTKYFVWBGQKXQLJWNBX9IUOUT","address":"9ACAXACBBFBR9LHOOTJQCJVZFIKBJEKLEAJMRKX9MVAGCJWHEGGOGAIUEQDRETGAOJSIXSIVXAMGGKOIW","optimalPurchaseTarget":-100,"optimalPurchaseTargetScore":-100,"availablePurchaseTargetList":[],"optimalSaleTarget":-100,"optimalSaleTargetScore":-100,"latitute":"52.314403","longitute":"-0.769881","amountGenerated":"6","pricePrefered":"15","distancePrefered":"13","energyType":"4"},{"index":10,"seed":"YOLSCDAEVNULPNVJNYOLTIMFJ9QNKVLMDT9YVXMTBLAYPXISHUOHCLNJVOBCKOLAQT9F9RARMACNMFEWN","address":"NSHEPNTKAJESRENRDILEXELOMRIEDIACCOGZUJUJTHXAPFLCGQQRWJNAOOMCECYVILOWLPSVEMPLKKWJA","optimalPurchaseTarget":-100,"optimalPurchaseTargetScore":-100,"availablePurchaseTargetList":[],"optimalSaleTarget":-100,"optimalSaleTargetScore":-100,"latitute":"51.060695","longitute":"0.185659","amountGenerated":"5","pricePrefered":"15","distancePrefered":"15","energyType":"4"},{"index":11,"seed":"WCNBSMTRUOCTPBUMNSGEG9E9MFAIKLUBY9SBJIXIOSLTRPSRWRRPSSETWWKRTMB9YTYFUDQUH9WECIHNJ","address":"FLBDMIKTPRTHVDPRWEMT9UTTSPJMNPMNFSTRHZAZFMWCRNVYNL9QCSSO9EOIBHQLEHOSOEIAOOFZUAYQY","optimalPurchaseTarget":-100,"optimalPurchaseTargetScore":-100,"availablePurchaseTargetList":[],"optimalSaleTarget":-100,"optimalSaleTargetScore":-100,"latitute":"52.171094","longitute":"-2.194874","amountGenerated":"6","pricePrefered":"14","distancePrefered":"12","energyType":"4"},{"index":12,"seed":"GHLITA9YMGBSSRIAGBGHMBEKVVVBWPPCEPXHJVVLWWETMXK9PIXBAY9BE9COAPT9TIKNJ9GPTGUUBPENU","address":"LQUKC9WFSLBIJRYKRNRHYVDSPDCECHULGLFZAGCGLTMVXWNPLPEAYGEKITVZWCFSYIZIJNQTT9UXCHRQY","optimalPurchaseTarget":-100,"optimalPurchaseTargetScore":-100,"availablePurchaseTargetList":[],"optimalSaleTarget":-100,"optimalSaleTargetScore":-100,"latitute":"52.308882","longitute":"-0.366058","amountGenerated":"9","pricePrefered":"14","distancePrefered":"11","energyType":"4"},{"index":13,"seed":"NWJDUPLOQCYBLJWPTHCMIYKIVCOIXLDSDDEDLJQFCCNMK9AIOQTWGOKCIYMJRXBKEVBYPLHOLUDBNDTWB","address":"RUJZRFFC9POLSFRVDCFNWLMZCZHXQYFHIGIKHISHZBVQYPPFWVANWDGUDOGPNQN9UIKY9AMSKZTANMFED","optimalPurchaseTarget":-100,"optimalPurchaseTargetScore":-100,"availablePurchaseTargetList":[],"optimalSaleTarget":-100,"optimalSaleTargetScore":-100,"latitute":"51.524516","longitute":"-0.915265","amountGenerated":"7","pricePrefered":"14","distancePrefered":"12","energyType":"1"},{"index":14,"seed":"9SVJXFVMJDHRAVVQUVLMPPIHQ9JBLPWPVFBBTMSNERYELDWIKXLRYREGKTV9NPDFJOQNQTWDHIM9HM9EY","address":"WKROBEVMADSEE9FQOPPAZOYUZDNNBHQMKZBLQSVFHNWZULPRJSAIIKUHWFFIFSUYMLHTJTYVEJUAG9TL9","optimalPurchaseTarget":-100,"optimalPurchaseTargetScore":-100,"availablePurchaseTargetList":[],"optimalSaleTarget":-100,"optimalSaleTargetScore":-100,"latitute":"52.319447","longitute":"-1.472085","amountGenerated":"5","pricePrefered":"15","distancePrefered":"13","energyType":"2"},{"index":15,"seed":"YHLOLSTAOIORQLBDVCGLXKIAMMQYB9SEHRBLVMVEYJASCWNE9KSRMGLBGRLXWVASKOGABLQPYUEBUCL9P","address":"BORBEJOCIOCRVEPAFILZNRQDLTEVIZIIAGJXXGPHFAQVWLSYAPP9HHLQRFIPKRIKMTVVMXF9URWBYZULY","optimalPurchaseTarget":-100,"optimalPurchaseTargetScore":-100,"availablePurchaseTargetList":[],"optimalSaleTarget":-100,"optimalSaleTargetScore":-100,"latitute":"51.527833","longitute":"-1.125797","amountGenerated":"7","pricePrefered":"14","distancePrefered":"11","energyType":"0"},{"index":16,"seed":"QSYDB9VLPVCIQDACXCRALSHFSNG9PTVRVPYWQFVLISFJEVUB9UFYDLECWCPBLPQUJSSHHOCOOGVFXWVLM","address":"EVKHGSLVJBXIFUYXGZHKMGIWHLRTOZ9FZVPK9GCAOWRYTKWEYYBDZZIQOLVVVESKPIHEKECJFVYNUHXA9","optimalPurchaseTarget":-100,"optimalPurchaseTargetScore":-100,"availablePurchaseTargetList":[],"optimalSaleTarget":-100,"optimalSaleTargetScore":-100,"latitute":"51.468384","longitute":"-1.183897","amountGenerated":"9","pricePrefered":"16","distancePrefered":"14","energyType":"1"},{"index":17,"seed":"O9BCJGUJLSNVQLGVWFVBHFUYWTUSMVEHYKRBIRDFQRBHHXQPTOCDAT9YTJGPDEMPPKHJVVHXENQJUQRUN","address":"ETWHFGKXVJYTQOKQNJCGOCXSRPLSUURLUOEAYASZNXVUNZLGYWTXPCPWSIFFNAQIJVYGMSXCRBBPPDFLW","optimalPurchaseTarget":-100,"optimalPurchaseTargetScore":-100,"availablePurchaseTargetList":[],"optimalSaleTarget":-100,"optimalSaleTargetScore":-100,"latitute":"51.626481","longitute":"-2.215322","amountGenerated":"10","pricePrefered":"15","distancePrefered":"14","energyType":"0"},{"index":18,"seed":"GIXHQHSYMTEWUOOSIJN9JGDQGBRTRY9GVXYGLIKKDGLBKJNIKFJWIJMQ9MUXXVTQWOUDTACDGPIVOHJJM","address":"9MTJEZOJPNFDVSHIMTXDZBSGBFLJDGHUEPLNKKXTSEVAUMPWUSPFCRJUGCPNF9PKWPPWPYEA9RJODXNP9","optimalPurchaseTarget":-100,"optimalPurchaseTargetScore":-100,"availablePurchaseTargetList":[],"optimalSaleTarget":-100,"optimalSaleTargetScore":-100,"latitute":"51.693316","longitute":"-0.639295","amountGenerated":"7","pricePrefered":"15","distancePrefered":"12","energyType":"2"},{"index":19,"seed":"MHOSU9EOIKRWGKQHYNPEVAWTI9GQPQOPYSFYSRJXF9TCGYNPTVFSPOEG9GJURXEIQEHFWMBOBHJSACPSQ","address":"HEXHMGRFHFUGUHJKJOHDRJLOINODFQNDVSYGKJKWCBPIUGLGPCRSQAYKPSXALPDZYIRGVMGNRXJCFTOJW","optimalPurchaseTarget":-100,"optimalPurchaseTargetScore":-100,"availablePurchaseTargetList":[],"optimalSaleTarget":-100,"optimalSaleTargetScore":-100,"latitute":"50.972036","longitute":"-1.614536","amountGenerated":"8","pricePrefered":"15","distancePrefered":"11","energyType":"4"},{"index":20,"seed":"MGNEGKTGLKT99ODNTULONOYYWKENJMYHDSLOOHTFQTENPOYHWGH9QWKAPLBSNBETEBKEDYBMFDV9D9JUR","address":"TYXEWNOTAEM9QLXFQFSOBF9GFTRIFNZOZUJZIVGGRVYZUQZXPIFTECCCOIYJDWZOOVQ9QXTPJMRRLXFQA","optimalPurchaseTarget":-100,"optimalPurchaseTargetScore":-100,"availablePurchaseTargetList":[],"optimalSaleTarget":-100,"optimalSaleTargetScore":-100,"latitute":"51.859077","longitute":"-2.303597","amountGenerated":"8","pricePrefered":"16","distancePrefered":"14","energyType":"3"},{"index":21,"seed":"EENMKMQJYSOJACFAYWECXJ9ECFKSQNQXECOAYFWCBAUIO9GFCBYWJVHQJFSEPVUSFACFWXURCGGJNNVTF","address":"JRHTEKYHKHQDYYEAVZXTEXLLRDOHSUDFCVIS9VBVKBORJBUCNNVTXLKVOKFWXIIXPUROHYQRZXEVWIHSX","optimalPurchaseTarget":-100,"optimalPurchaseTargetScore":-100,"availablePurchaseTargetList":[],"optimalSaleTarget":-100,"optimalSaleTargetScore":-100,"latitute":"51.101576","longitute":"0.184064","amountGenerated":"6","pricePrefered":"15","distancePrefered":"15","energyType":"3"},{"index":22,"seed":"MBCO9LFMKTTSXVIOQIKGNTAJHWDYKO9KMBELRAFOOVFN9HANERJXCEYRENKJEWKPCDVPJKIKAWTJH9DB9","address":"N9UJSIJKBZOH9FSSLTPFKBIDGBMMRMGXTPVQTNAA9SFVVKLIOBMKNWKMQEGJATDMTSVKKGRPZJDIIBXOY","optimalPurchaseTarget":-100,"optimalPurchaseTargetScore":-100,"availablePurchaseTargetList":[],"optimalSaleTarget":-100,"optimalSaleTargetScore":-100,"latitute":"51.795174","longitute":"-0.210479","amountGenerated":"7","pricePrefered":"15","distancePrefered":"13","energyType":"0"},{"index":23,"seed":"HGCGNBOEQFJQT9UUYTKPDDACFEMBCCQQANCTUEAAVTPS9SFWORQQIVDQXENDPSFPGPGYETXCWAXTLNVCV","address":"O9TAPRNCHVKTVKYFCEHCNSSEFNBWXRARHPOTODCOXMQXYNHCHVDRTGMLXDKTQAUFOQVINSYTPHCJTRSR9","optimalPurchaseTarget":-100,"optimalPurchaseTargetScore":-100,"availablePurchaseTargetList":[],"optimalSaleTarget":-100,"optimalSaleTargetScore":-100,"latitute":"51.207234","longitute":"-0.508682","amountGenerated":"9","pricePrefered":"14","distancePrefered":"15","energyType":"1"},{"index":24,"seed":"VCCKYKVNBDE9NWKSYCLAEE9MEIHVLPNGWSWDAURBYRHMWYTNMWIGUUFUF9WTPNWCGHLGM9OQTODXLOQIQ","address":"ILFJSZUOVPLDGHGWDVMWGNJVKGTHOFWIJ9JPPNNCSGAA9MHGSYWWCFVNQUXLAFGUBJUEJAOP9LSDPPTNX","optimalPurchaseTarget":-100,"optimalPurchaseTargetScore":-100,"availablePurchaseTargetList":[],"optimalSaleTarget":-100,"optimalSaleTargetScore":-100,"latitute":"51.707822","longitute":"-0.059428","amountGenerated":"9","pricePrefered":"14","distancePrefered":"14","energyType":"1"},{"index":25,"seed":"UCXO9EIIEVOSSMDSEEEJXKMWSORQVOQ9XJVIXKOKCBPP9RBJVCRYBNCILNMTCCJDJSP99NOIXLJCBBFCD","address":"WQBXDKWEZXHKJWCJLWHP9OUWBIE9QYMKHIKMZ9KEOLXRCASAAXCOHEBTTFVUIXKFVVRAKASUQAJOFABID","optimalPurchaseTarget":-100,"optimalPurchaseTargetScore":-100,"availablePurchaseTargetList":[],"optimalSaleTarget":-100,"optimalSaleTargetScore":-100,"latitute":"51.534638","longitute":"-0.597315","amountGenerated":"10","pricePrefered":"14","distancePrefered":"15","energyType":"4"},{"index":26,"seed":"9SAKSTMLVKFKOMXHEVRNSWRTS9F9IFS9NMBUIYIUYXYWTKGNKSHXOHOCFAURMMQBMDKKOMMXCHYJ9QBXO","address":"BIAZADSENBEMEMPJDGEILCBA9AKNAVBQIIAQINTVRDYKMUFLWSINDEMRPOO9ESAADPDHJIUFPAPELQWMD","optimalPurchaseTarget":-100,"optimalPurchaseTargetScore":-100,"availablePurchaseTargetList":[],"optimalSaleTarget":-100,"optimalSaleTargetScore":-100,"latitute":"51.522697","longitute":"0.206916","amountGenerated":"5","pricePrefered":"15","distancePrefered":"11","energyType":"1"},{"index":27,"seed":"YBWWUINGXJTJKGJCABHEVYSRRC9SQ9BYXWVIYCRRPSUVFYFBFGYLBHKFKTTKLKPGFWRXXUYAKTHNGUTTV","address":"HXZELEUMOYICXLJ9VIKXORSXRSQWOA9UDYMYKQA9OMGXZFB9PRRXVPHIAHMIIDMBAFBBANXGZFGKDEJLC","optimalPurchaseTarget":-100,"optimalPurchaseTargetScore":-100,"availablePurchaseTargetList":[],"optimalSaleTarget":-100,"optimalSaleTargetScore":-100,"latitute":"52.038713","longitute":"-1.594821","amountGenerated":"8","pricePrefered":"15","distancePrefered":"12","energyType":"1"},{"index":28,"seed":"VPGCTNDEVYCEGDXYTXCBWSLAUTRNCPNQBXYNVTBLDHVDXKKDBRWVMMOJKISVWCPM9INKBV9IFOFPCRRLH","address":"HOGYATDIBR9KZXALFCJBCSGCYMDKVIR9SAQMZYPTKFHRTUYYJEMBMRVGMOGJIMGOSCDECLPPDITFRMYNX","optimalPurchaseTarget":-100,"optimalPurchaseTargetScore":-100,"availablePurchaseTargetList":[],"optimalSaleTarget":-100,"optimalSaleTargetScore":-100,"latitute":"52.212367","longitute":"-0.961107","amountGenerated":"9","pricePrefered":"15","distancePrefered":"11","energyType":"0"},{"index":29,"seed":"MJ9UNVNNAYXXSDXNVRCXGMMIEQYARYGCVQPALFDIETPPQCQYLWJIORIWXACFHAAFIKRDSOCMEVEKABEWE","address":"JNZRIAVNSHAPJP9ZCDVV9ZAOZZDRZQESVCKVRFSSITNJPUUIHRYWBSOGBMPCNRKKJILMVQMFUVZNUUAXX","optimalPurchaseTarget":-100,"optimalPurchaseTargetScore":-100,"availablePurchaseTargetList":[],"optimalSaleTarget":-100,"optimalSaleTargetScore":-100,"latitute":"51.752875","longitute":"-0.016668","amountGenerated":"6","pricePrefered":"16","distancePrefered":"13","energyType":"3"},{"index":30,"seed":"JDIPMWGNQFOOFXQSTMP9RHBRIXRO9UQSDVUCVCN9QWTHDSDROCBLPKRUIYGELSSXREXKJNI9QWSHFHMKQ","address":"DJXRGXFPYPAPOKQDRMASUUOZCMXCW9MGYW9BQIFHRHTTFHD9M9CTUDCBZVJCHSLMPPCFBFTMVPKHOWEMZ","optimalPurchaseTarget":-100,"optimalPurchaseTargetScore":-100,"availablePurchaseTargetList":[],"optimalSaleTarget":-100,"optimalSaleTargetScore":-100,"latitute":"51.490818","longitute":"-0.451941","amountGenerated":"8","pricePrefered":"15","distancePrefered":"13","energyType":"2"},{"index":31,"seed":"NDMMTOIMOGTXPGQJFSSKKNJXYLLMHE9IIFJMMPBXDRNAAKGAOFIF9R9NEU9NVRGBORXSOOYUPGNMSYMCD","address":"XQUYJCXVZUYBWOFSLEPR9GHPWCWXAHDBDXLCGWU9MUACVFEKFOGFWSREYOCJPSQTOOWOYPUBVBESJTTYZ","optimalPurchaseTarget":-100,"optimalPurchaseTargetScore":-100,"availablePurchaseTargetList":[],"optimalSaleTarget":-100,"optimalSaleTargetScore":-100,"latitute":"52.169740","longitute":"-0.672609","amountGenerated":"9","pricePrefered":"15","distancePrefered":"12","energyType":"2"},{"index":32,"seed":"USXPYT9UNSUFANIGVBIYATRNGPLIUNFFERC9JWNPUFEEDK9UXSGKKXCYFKIEHCXM99MSDKUGTCEYY9QIG","address":"JRQYEJHWYPYFPKVIFXTKEXPBZDSBVWVIYBZ9UPCDPSISONWDANVBXVKW9HJAKSHKORTFJFDVBEQSCMIHC","optimalPurchaseTarget":-100,"optimalPurchaseTargetScore":-100,"availablePurchaseTargetList":[],"optimalSaleTarget":-100,"optimalSaleTargetScore":-100,"latitute":"52.300060","longitute":"0.215821","amountGenerated":"6","pricePrefered":"15","distancePrefered":"12","energyType":"3"},{"index":33,"seed":"9KGVDINTFQVLEVRASWGYXXU9JFRNW99JRJAABJMUMTEFTANVPMIRBXEPYNXIPAFPQSUMDBMMWNNVQDWFA","address":"DHGJLOTBVFMC9ONTYNRFUXXVKKAUQAHTWNCWGSUYCVZDCPKVGHFNP9SUTDDYCA9INNUXG9DFY9TLHJYWD","optimalPurchaseTarget":-100,"optimalPurchaseTargetScore":-100,"availablePurchaseTargetList":[],"optimalSaleTarget":-100,"optimalSaleTargetScore":-100,"latitute":"51.307872","longitute":"-0.241629","amountGenerated":"5","pricePrefered":"14","distancePrefered":"14","energyType":"4"},{"index":34,"seed":"WOGFYLDOUMJXHMYH9WCDBVQDKJUEII9TETPVUBA9XIM9KTEHBXSBKDY9IPIPQB9CQQGANMMIEGJBQGDBW","address":"TNEFQYZODOCUVNUNGHXDEXGFZIPWAQPSYADVLEKHWNPXTRPOT9XPGMMEDZG9GPTKWEROALPC99UQLSFKB","optimalPurchaseTarget":-100,"optimalPurchaseTargetScore":-100,"availablePurchaseTargetList":[],"optimalSaleTarget":-100,"optimalSaleTargetScore":-100,"latitute":"51.686983","longitute":"0.265583","amountGenerated":"8","pricePrefered":"15","distancePrefered":"13","energyType":"4"},{"index":35,"seed":"RWYPUBVDOJSCOSAUL9WXBDCQFFIIMGMK9PTJDUTQJLOLRMQQANBMIBCPJLLXDEOUICQLQX9XOOLCLGJDK","address":"GVANLMXKISGCPXUUPWWNBUD9JGFZ9MRWXJSJMIZPTCMLDDMOPRCPEGFDZKRLBDVVJXELGBJRGQEWWAGGD","optimalPurchaseTarget":-100,"optimalPurchaseTargetScore":-100,"availablePurchaseTargetList":[],"optimalSaleTarget":-100,"optimalSaleTargetScore":-100,"latitute":"52.271371","longitute":"-0.672244","amountGenerated":"8","pricePrefered":"15","distancePrefered":"12","energyType":"0"},{"index":36,"seed":"PYBYUMGTXYCEQQPCQBFBTVBJQGLFNVGHMPNTBTBPVWEU9HCODIEDBFVFQILXKBGHKFHDWEKRTHJHNVNB9","address":"ICB9QHXYFCZEWHKFZ9DNMDNZTFFNSWQRWNHQWNRKBKGXLQALGORIOUQZPDISFQLWPOZPKFGSKWJ9AMPHD","optimalPurchaseTarget":-100,"optimalPurchaseTargetScore":-100,"availablePurchaseTargetList":[],"optimalSaleTarget":-100,"optimalSaleTargetScore":-100,"latitute":"51.524746","longitute":"-0.650464","amountGenerated":"5","pricePrefered":"14","distancePrefered":"14","energyType":"3"},{"index":37,"seed":"NTFJFABMGXCH9NUVVDJWCOSCRNSXH9SUDWHKSYGOSTFF9JBDJPVGMROHHVMNIU9WGVIVRVCHTADLI9ENV","address":"UQ99TGEVUWMHPZTPUKXIYEDVOULAGCAFJQZIISYBVNYMOHLHHBFXRNNXHJXX9NXGMVTLGAUNRERANBS9X","optimalPurchaseTarget":-100,"optimalPurchaseTargetScore":-100,"availablePurchaseTargetList":[],"optimalSaleTarget":-100,"optimalSaleTargetScore":-100,"latitute":"51.053914","longitute":"-0.292055","amountGenerated":"10","pricePrefered":"15","distancePrefered":"11","energyType":"1"},{"index":38,"seed":"GSGVBAYPYNMYURKKLS9KPQPNLMCMMJQEQTFITFCEHTIVOPGCMEQVUTRQTOOHXQOMUXGNIJOXSRIPDMNMW","address":"RZJNHRFVTYIHWYXRYIWEAJNLOLDDNKIZJRYTCJZ9SAWFCVHFVMKGFZII9WVJNPOUXESQTZVWASPNYT9XX","optimalPurchaseTarget":-100,"optimalPurchaseTargetScore":-100,"availablePurchaseTargetList":[],"optimalSaleTarget":-100,"optimalSaleTargetScore":-100,"latitute":"51.800113","longitute":"-1.061571","amountGenerated":"9","pricePrefered":"16","distancePrefered":"10","energyType":"1"},{"index":39,"seed":"PBFOLDBWPKFCC9VWADASD9ONKFCDAIMGRSMIVSPQTQDAWCRQQDGUWQDJQOHXVHFEERHOMIAWHVDTGE9XF","address":"VYTASGTPOMNBQIKNHDDJZNONWBTUQICDVABIIYUUQJELIJQCLOYBMHNUDIGBQJOCUPDTFWAAYLRXIQP9X","optimalPurchaseTarget":-100,"optimalPurchaseTargetScore":-100,"availablePurchaseTargetList":[],"optimalSaleTarget":-100,"optimalSaleTargetScore":-100,"latitute":"51.218113","longitute":"-1.512976","amountGenerated":"8","pricePrefered":"16","distancePrefered":"10","energyType":"4"},{"index":40,"seed":"SJSILLCCICCEKLKLYWBQYENLBGGAX9QUANUNVAXCERRQGANUKWMWVTDBLE9JEC9IYTUYLRDHXAPIJGLIF","address":"NCBNURWJXOILPFJPIZI9GNGCMKZHJAKSVFXSJI9UJCJTLTKZJFQZTODUAULCJMSZUXVIDNHLCUTYGBVQY","optimalPurchaseTarget":-100,"optimalPurchaseTargetScore":-100,"availablePurchaseTargetList":[],"optimalSaleTarget":-100,"optimalSaleTargetScore":-100,"latitute":"51.411824","longitute":"-1.077312","amountGenerated":"6","pricePrefered":"15","distancePrefered":"11","energyType":"1"},{"index":41,"seed":"DXDLAKTXUGMOGVBIXPDGIRIFWJYUOUPPFQAOCJRGKIBGTNX9FBGYHDOUVOUQJBSJWIWK9FBEISXFNQD9W","address":"AIEFKVSTMLVJQXLTAPLOODSZBLDJGYNLUDVSTVULRIFABTZTRAWHFTWKJDEEYREOQRRSVHUNGAUFMHQGY","optimalPurchaseTarget":-100,"optimalPurchaseTargetScore":-100,"availablePurchaseTargetList":[],"optimalSaleTarget":-100,"optimalSaleTargetScore":-100,"latitute":"52.047958","longitute":"0.081741","amountGenerated":"6","pricePrefered":"15","distancePrefered":"10","energyType":"1"},{"index":42,"seed":"XBJP9KMIA9RGFKK9WKDASPSMQYMYXCSJ9IEMATOJDXQCSHTMUAOWCFANY9XYULJAUJORBXRVQSBQGUUGJ","address":"UFHYMMXZKRNUVZPI9JDNDX9FBTLPEKJHHZLMHL9MHXFATQG9MZVFUWBZBKWMTV9BFHSTTGDAIYYGFKRBW","optimalPurchaseTarget":-100,"optimalPurchaseTargetScore":-100,"availablePurchaseTargetList":[],"optimalSaleTarget":-100,"optimalSaleTargetScore":-100,"latitute":"51.596797","longitute":"-0.249493","amountGenerated":"7","pricePrefered":"16","distancePrefered":"12","energyType":"2"},{"index":43,"seed":"UDGIAWSIQBWTDKEJGTEMEOAXAHCSOJDNVRAYL9VHHFFWKXCKTGPRKMRUNNLKP9YJAOQDQQKBK9NBOO9EC","address":"ICQYNZ9YFEVETANCOWMDDAJRPJOYGNHJSVJJAPFDOHDFRHGDNEGZEYIJ9WEKDIQTQYRWRBGSULJLAKODA","optimalPurchaseTarget":-100,"optimalPurchaseTargetScore":-100,"availablePurchaseTargetList":[],"optimalSaleTarget":-100,"optimalSaleTargetScore":-100,"latitute":"52.057536","longitute":"-0.479100","amountGenerated":"6","pricePrefered":"14","distancePrefered":"10","energyType":"2"},{"index":44,"seed":"N9BVJYIPPDFUWDXQHFOSCDNYNWYCGOOOU9QAGUI9GCUOAQDDUIIAJIXSXKMAPVJIGMYIXCMSLUSCEYGGA","address":"RVAMEDOVQESWQDLRKOYQSZJDPPUFZXCBDENLMPHTBOOACYWTOPGE9HJ9AEIKINHPXCPHU9VOKCOKFYDQA","optimalPurchaseTarget":-100,"optimalPurchaseTargetScore":-100,"availablePurchaseTargetList":[],"optimalSaleTarget":-100,"optimalSaleTargetScore":-100,"latitute":"51.255104","longitute":"-0.473490","amountGenerated":"9","pricePrefered":"16","distancePrefered":"14","energyType":"2"},{"index":45,"seed":"QWIBGRFJ9SUIMFJJBIJXNFTQDERJP9K9UOQIP9VCPHQECQASBHCAGBNCJUOYQLKIEXAJ9SROVBVANXAUL","address":"WNALKRASEKXYCLELRTKSWYYBVQR9VSYXMOGPZBTRNBCCZFXNFJJDJRUACDTSXVUYQBPXBZJXFLRKPPVLB","optimalPurchaseTarget":-100,"optimalPurchaseTargetScore":-100,"availablePurchaseTargetList":[],"optimalSaleTarget":-100,"optimalSaleTargetScore":-100,"latitute":"51.082926","longitute":"-1.986074","amountGenerated":"6","pricePrefered":"16","distancePrefered":"15","energyType":"3"},{"index":46,"seed":"HQGWVSVHAIONWISGNLDIXMJRHWLTQQ9MNCTKRNT9FGNMYITKPANXOSMDHJOSCYFBFIIULNJROC9SCLYHW","address":"9RJGBXQFRQSTBEAN9HYIKZANVIFLIWNJWCCSBE9RJNJKDBIZHWCSIHIZNQBT9FGBLID9XESLPCZGKRAPD","optimalPurchaseTarget":-100,"optimalPurchaseTargetScore":-100,"availablePurchaseTargetList":[],"optimalSaleTarget":-100,"optimalSaleTargetScore":-100,"latitute":"51.541061","longitute":"-1.165352","amountGenerated":"7","pricePrefered":"14","distancePrefered":"14","energyType":"0"},{"index":47,"seed":"M9LHTXFHMXGBASLAHLQOFWJWYFAME9UUPCIKSBONDLQEPYW9D9VNVPY9RAENQOUNUIKLQGVABFEOUBJKE","address":"HCEGLDBAZHBZROEGTKCJRU9WJEMMWCKMELHCHNT9SZKEHQ9HCMJU9IRQULCB9A9ORHRXMTTOWXQCJPHRY","optimalPurchaseTarget":-100,"optimalPurchaseTargetScore":-100,"availablePurchaseTargetList":[],"optimalSaleTarget":-100,"optimalSaleTargetScore":-100,"latitute":"51.992034","longitute":"0.174896","amountGenerated":"5","pricePrefered":"16","distancePrefered":"14","energyType":"0"},{"index":48,"seed":"9LBQHXJXWNYMFFHVWVACFAQLYKRDQFR9FWVGJSB9ISPVFHMTDIQXYYDTHLRDNINJGMLAG9AWPBFMHLCJH","address":"XTFPVGX9PVPWGABZDUZATINLHKAYYLZ9XZASKIGPLQXJUPQPEOIL9GYMADFBSNSWKWTSCAKRYLXNPRL9X","optimalPurchaseTarget":-100,"optimalPurchaseTargetScore":-100,"availablePurchaseTargetList":[],"optimalSaleTarget":-100,"optimalSaleTargetScore":-100,"latitute":"51.973090","longitute":"-1.075101","amountGenerated":"6","pricePrefered":"14","distancePrefered":"14","energyType":"1"},{"index":49,"seed":"TKLEXO9GTXISUSSKLRSDTJXGKVMRAQQCUALRBHMEEOOKQ9IFIUY9CNUWXNGNXMOFUQDTED9LDQ9OQXMQL","address":"FUYXCNSUNCGJLWHXEP9MNIPQYMXZLUPQIELYSZ9JSTQBRYLVFBL9JVADOFYYGDHQADYHYDKAUCQJPGGKC","optimalPurchaseTarget":-100,"optimalPurchaseTargetScore":-100,"availablePurchaseTargetList":[],"optimalSaleTarget":-100,"optimalSaleTargetScore":-100,"latitute":"52.386145","longitute":"-2.176340","amountGenerated":"7","pricePrefered":"14","distancePrefered":"13","energyType":"1"},{"index":50,"seed":"TLUDAKLV9TIAVWLLPSJBAXEVHQRSDEAOVFKQTGKPSJSQMAXJJIJOCEHG9NCVJQRWFXQBGR9MRDRSNWGGN","address":"BPSBMSWKKUGUUKRTIST9OTMESMZUDMHUSLFEYZAPRZJQSNAZFVSHAEFEFJSWINJYXPHGDWYSIS9ORVFQW","optimalPurchaseTarget":-100,"optimalPurchaseTargetScore":-100,"availablePurchaseTargetList":[],"optimalSaleTarget":-100,"optimalSaleTargetScore":-100,"latitute":"51.025617","longitute":"0.215149","amountGenerated":"7","pricePrefered":"14","distancePrefered":"14","energyType":"1"},{"index":51,"seed":"YPW9G9EUVOCTUQUSMSNEKKYYKBLETMWMWSMDDTMYJRYD9YSNBGAJJPIJVQOHRMJAIRSYFFRRJIWUGDMEO","address":"GISVVBHMKKMAKVRKOZGWBELRKUMQVTHNCCKUAP9EQEQOSBMBSYZMVGHZW9WLVPAROGISZ9CQS9CJSZRVX","optimalPurchaseTarget":-100,"optimalPurchaseTargetScore":-100,"availablePurchaseTargetList":[],"optimalSaleTarget":-100,"optimalSaleTargetScore":-100,"latitute":"52.294231","longitute":"-0.998574","amountGenerated":"7","pricePrefered":"14","distancePrefered":"14","energyType":"3"},{"index":52,"seed":"MMSQMGGJBGBWDJWBSLKBBRWMTPYTFUNXDDDTLTXKXFVUARJOLKUQLTABUUNDESVALOYK9LBSQAHSKORDM","address":"ENYHLVWWJYALEFBWN9AERTMCPCSM9E9NOKCJKHGBCNYWDPAUMLAAZLYAXOAHHUDANI9HRCBXNDQVHJZCD","optimalPurchaseTarget":-100,"optimalPurchaseTargetScore":-100,"availablePurchaseTargetList":[],"optimalSaleTarget":-100,"optimalSaleTargetScore":-100,"latitute":"52.079231","longitute":"-0.376145","amountGenerated":"5","pricePrefered":"16","distancePrefered":"13","energyType":"2"},{"index":53,"seed":"HJJFHCJEU9YJQVYXUPRYLQJYKSYTOIGGOEFYYVKGFHJAELWBDGRATNBJUD9JUTHAIOXOMHIVGEPMRUFDM","address":"GMK9HDZWROJCZHNWBHSAFLKTGWR9YIBSSYVQRZKCFTMPSGTARMXFN9UDWJAGGSKNZSXGCCAHJ9EWVGDY9","optimalPurchaseTarget":-100,"optimalPurchaseTargetScore":-100,"availablePurchaseTargetList":[],"optimalSaleTarget":-100,"optimalSaleTargetScore":-100,"latitute":"51.478062","longitute":"-0.687508","amountGenerated":"10","pricePrefered":"15","distancePrefered":"14","energyType":"1"},{"index":54,"seed":"JRNSTNSTDMGVHRHOIGRGLUACXUSDLTSHPOHYRRHQSLGXFIUYTJACTMIMLMTDPFOLJRIJMPADBSYQKMXNI","address":"JCNXJNOUDEWOLHGTETBFRD9EHNUHJR9TYHUBT9GOTVCXTRYAKFZGXQRKIBGVSYWFUKXACLQVCDSMVAFWB","optimalPurchaseTarget":-100,"optimalPurchaseTargetScore":-100,"availablePurchaseTargetList":[],"optimalSaleTarget":-100,"optimalSaleTargetScore":-100,"latitute":"51.619735","longitute":"-1.704172","amountGenerated":"8","pricePrefered":"16","distancePrefered":"13","energyType":"0"},{"index":55,"seed":"KQXKWUJHXPMLHTT9QJNI9KGALKAHEWAJDEXFTKWBKMNHXIQMMA9EP9GXPREWIKIPXBBKAMJIVDUKKVRMS","address":"VLYHDOLYQFRXQHUOZRWWVXKGOYNK9KJUIGDKUKIJSJEU9BMOLMUWAJNURAXUPDGOXCRH9ZLLI9YTNDKAX","optimalPurchaseTarget":-100,"optimalPurchaseTargetScore":-100,"availablePurchaseTargetList":[],"optimalSaleTarget":-100,"optimalSaleTargetScore":-100,"latitute":"52.030531","longitute":"0.248697","amountGenerated":"6","pricePrefered":"15","distancePrefered":"13","energyType":"1"},{"index":56,"seed":"PUYYLSCVTYFIMNQPUXRVCGPYKG9XSLCYKOCKXEWMNOAXSBRIGKEJNQQPTELGTWOOFVEJTSHXMSALX9FNR","address":"NLQZTYSJASKOJSIMTBIXSCPLZMGSXSUL9ILJDESNXONBQGGEYWCUDBWYEHBIZPOZ9EOZPQYFLDXMULYWW","optimalPurchaseTarget":-100,"optimalPurchaseTargetScore":-100,"availablePurchaseTargetList":[],"optimalSaleTarget":-100,"optimalSaleTargetScore":-100,"latitute":"51.623716","longitute":"0.194669","amountGenerated":"9","pricePrefered":"15","distancePrefered":"12","energyType":"1"},{"index":57,"seed":"VUHKEYBGWJTAFRWKBGUOKXFJTRFERIPJKMICENXAVKUGUMHIHMKDJBMKJOEAOGKWBWRFCHAXYDCJMXVNC","address":"WKHVUXZBSJCNBTTLOKPPLDZJFZLRWVTGSPGXOHVGOSNSDGKUVDADZZJVGUPLDUMKZGDKRFMYZBCNPYTUA","optimalPurchaseTarget":-100,"optimalPurchaseTargetScore":-100,"availablePurchaseTargetList":[],"optimalSaleTarget":-100,"optimalSaleTargetScore":-100,"latitute":"51.496936","longitute":"-1.020832","amountGenerated":"8","pricePrefered":"15","distancePrefered":"13","energyType":"3"},{"index":58,"seed":"T9RNISEFWNUDRO9YLBSLAQSNAPOPKHJCDYPSTWWNVBJSPUCXPVBVORCLANJDFUPNQCNNKNGSA9IAR9QOW","address":"KTXQYKAZUD9UFDXDDOHMJHXCPJPZRWDJZVFYULVI9PVQ9VYBLBHVJOOCLNKFGNZTYMYLRKIXEJZLEBMRW","optimalPurchaseTarget":-100,"optimalPurchaseTargetScore":-100,"availablePurchaseTargetList":[],"optimalSaleTarget":-100,"optimalSaleTargetScore":-100,"latitute":"52.132297","longitute":"-0.096156","amountGenerated":"7","pricePrefered":"16","distancePrefered":"13","energyType":"2"},{"index":59,"seed":"EVIJNIUPNEXAHNAHKYULTGXLUSCAUNXPCOWOPTNGADEPYRDFRKHBINTXCHOYKMV9HKMPBGSDVQTSHGAIU","address":"I9TBMHVMQIUSKQTXJVXKBPFDU9X9ZJSPOHXMAXEPZKMF9JQOCJASUZGZAQVDVWBGPBUDUTURKHHUTRNSC","optimalPurchaseTarget":-100,"optimalPurchaseTargetScore":-100,"availablePurchaseTargetList":[],"optimalSaleTarget":-100,"optimalSaleTargetScore":-100,"latitute":"52.395150","longitute":"-2.367252","amountGenerated":"9","pricePrefered":"14","distancePrefered":"14","energyType":"3"},{"index":60,"seed":"VEJGOTVAN9XGF9WIOVOVAIUFCBRHB9SJSVIIUMPEEENTXTVXJ9RMMJHQYXWQCFYLDJUAVFDUVVWUGDWHN","address":"ACRBMYMYMJLZRZAIPASFAAW9QWZSPLWUGJCTDJIPMYZJQFZIUNNEARSGLQSGJUVLREOTSXYVIYOBVXBGA","optimalPurchaseTarget":-100,"optimalPurchaseTargetScore":-100,"availablePurchaseTargetList":[],"optimalSaleTarget":-100,"optimalSaleTargetScore":-100,"latitute":"52.248706","longitute":"-2.145544","amountGenerated":"7","pricePrefered":"14","distancePrefered":"14","energyType":"1"},{"index":61,"seed":"PJQJQAJKBDVMYQLWKGHL9FEXOTKHPRVXJKXEBYTJGEDBANEHHJFACMMQFYRNDTEB9VHYBVMTFKXINDKEQ","address":"RALEQF9LULERRPWXHXRHBZMCOOPQDXWTWPSQYTSJDTPVY9JPRDQMJJITAFJMELFVMGEQGYDRWUZRSAGSD","optimalPurchaseTarget":-100,"optimalPurchaseTargetScore":-100,"availablePurchaseTargetList":[],"optimalSaleTarget":-100,"optimalSaleTargetScore":-100,"latitute":"52.303207","longitute":"-2.297376","amountGenerated":"6","pricePrefered":"14","distancePrefered":"14","energyType":"3"},{"index":62,"seed":"KUGMTT9TJENHL99PFTHQCIYKWCLKXGKCEBUJBRMBBTGSLBKOCGHXVE9QSTQCOLUB9Q9ALUCQVUEIISXYV","address":"LZTGPSBZSPMQDHFKYJHOKSUCNBOHJTMKLLIWLBHISPHTEACPDEHBJDVGRVCPNKWWQHTHCXFAXDWTCKYSZ","optimalPurchaseTarget":-100,"optimalPurchaseTargetScore":-100,"availablePurchaseTargetList":[],"optimalSaleTarget":-100,"optimalSaleTargetScore":-100,"latitute":"51.835550","longitute":"-1.350926","amountGenerated":"8","pricePrefered":"15","distancePrefered":"13","energyType":"3"},{"index":63,"seed":"WMCXOAIRMVWIKALCFAFGJOAFK9VWRABF9BYSEBREVIVCOOWEFLLBLDMCQFYMHTHKBHMYMDYCTYVRUDQLM","address":"LJCAHWZSLFUJDQPJDLPWMFIZSXZODVLHZQVMGNLXLALUNHLXCZSQISJHGCHYUGITKAERVGNGPORBEUSIZ","optimalPurchaseTarget":-100,"optimalPurchaseTargetScore":-100,"availablePurchaseTargetList":[],"optimalSaleTarget":-100,"optimalSaleTargetScore":-100,"latitute":"51.583754","longitute":"-1.817905","amountGenerated":"5","pricePrefered":"15","distancePrefered":"11","energyType":"3"},{"index":64,"seed":"MH9BUGSADTDAVENNRJF9OWSKOTOQRFLVJISLFASAXVIBENRGNUBUSASMGBYLSGCUOMBYODPRQB9RFKADN","address":"DCLKPQDAEEGUSDSBGCLVJXYGOEDAUJHKTDOPMI9BIUMENDVDQUWJOSHAXLPYC9LHITHMMMOHZPKPRODUX","optimalPurchaseTarget":-100,"optimalPurchaseTargetScore":-100,"availablePurchaseTargetList":[],"optimalSaleTarget":-100,"optimalSaleTargetScore":-100,"latitute":"52.012952","longitute":"0.216872","amountGenerated":"5","pricePrefered":"16","distancePrefered":"12","energyType":"2"},{"index":65,"seed":"DKIJNMPOPYFVNDAQRSRPSYINRNJMCVEMSSUWRDTVTBR9UYNRYICHJTHUHFNYLGQMVPSUGWAPNOYPTSDIE","address":"EMESK9QMPMGMIGEDCTYLMLCVSLEYTUFGWNDKFAPBENXAHIPXMCHUBQIXJWSSZZTTUUKODNKOQQNGCT9XY","optimalPurchaseTarget":-100,"optimalPurchaseTargetScore":-100,"availablePurchaseTargetList":[],"optimalSaleTarget":-100,"optimalSaleTargetScore":-100,"latitute":"51.436720","longitute":"-1.358475","amountGenerated":"7","pricePrefered":"15","distancePrefered":"11","energyType":"2"},{"index":66,"seed":"FXDEEHFNAJNT99MVVQBDPMAXHCPHWEYMPB9JRRBNKUJ9TIYCVHQTEJNGXWEQXGHPBFXQFGXKEFINISDKF","address":"H9FPXVCULUWMFYGKOSSLMHZI9VNJQCUQHZUBXW9HTPJLYGRUTYQXSYDXWSPMNBTTTMRZKY9GDLPMLAPYW","optimalPurchaseTarget":-100,"optimalPurchaseTargetScore":-100,"availablePurchaseTargetList":[],"optimalSaleTarget":-100,"optimalSaleTargetScore":-100,"latitute":"51.934490","longitute":"-1.420605","amountGenerated":"9","pricePrefered":"14","distancePrefered":"12","energyType":"1"},{"index":67,"seed":"RRDIUY9OJ9GDPLFJQQ9UKUBCGNLUE9GCYCBHLTHJFPI9OJCALRG9GSFXYSYVDLUDUIXBMYRWCYYJTE9RV","address":"TEX9XLQ9FCOBYSRUZBU9NQVHEYZIJM99NEIWEFYSYQW99Z9GRDPSADEUBSFDGIMSSIYNNYNNMSVDVUHCW","optimalPurchaseTarget":-100,"optimalPurchaseTargetScore":-100,"availablePurchaseTargetList":[],"optimalSaleTarget":-100,"optimalSaleTargetScore":-100,"latitute":"51.431667","longitute":"-1.420812","amountGenerated":"10","pricePrefered":"15","distancePrefered":"13","energyType":"1"},{"index":68,"seed":"LKKMAX9JU9DWJQVYSIRVALIHKNBBUYKXQA9CEOMPFAIFVQQY9LCLLVYTEDWWYJLXOQONBXMUGOWFCTLHL","address":"YEBYJXLTRPTXHJFEBGDUCHGBRESFXHNWF9IYAUJ9PEFEGTDMKYEIGHYSB9F9RC9ZXJFRAVFDPACQGKT9B","optimalPurchaseTarget":-100,"optimalPurchaseTargetScore":-100,"availablePurchaseTargetList":[],"optimalSaleTarget":-100,"optimalSaleTargetScore":-100,"latitute":"51.791603","longitute":"-0.649289","amountGenerated":"8","pricePrefered":"16","distancePrefered":"13","energyType":"2"},{"index":69,"seed":"AVADTDULHGUTXRYKCBCNIANHAKEXJAYOCMIXPSIPYB9GQSHYN9OUROYBGMPAD9VBEPIEEUCNUDVGSVDPI","address":"LCIJL9IXVYVOXO9XUNRQIUUTWVJYBZWGHJKMTDEDQPGGSDQTRCPCTRBBNPZQKKIZX9BAXQJXVI9MNSUPD","optimalPurchaseTarget":-100,"optimalPurchaseTargetScore":-100,"availablePurchaseTargetList":[],"optimalSaleTarget":-100,"optimalSaleTargetScore":-100,"latitute":"51.919817","longitute":"-0.997111","amountGenerated":"8","pricePrefered":"15","distancePrefered":"12","energyType":"4"},{"index":70,"seed":"ULXODXMNQDFKV9LNHBKMQNXBBTVIIGIXQXPYHV9WTP9JKJNHYNF9KPSCTPTLJWCRDLDVMHDQSOVBQUTKK","address":"IIHYSCQNYZEINEMIECOJIUSWRTMRENLPGQDIHLZNBLCKCYDIYMGAXMCZH9RJOXCJ99XRKDIBGTYRHRNOW","optimalPurchaseTarget":-100,"optimalPurchaseTargetScore":-100,"availablePurchaseTargetList":[],"optimalSaleTarget":-100,"optimalSaleTargetScore":-100,"latitute":"52.033804","longitute":"-1.808095","amountGenerated":"7","pricePrefered":"16","distancePrefered":"11","energyType":"1"},{"index":71,"seed":"NLVYXWDMYTPTKIGYJDNDDGPFB9FAIHPYXPOHDIOAKXOCKYHHOHAYGY9LJVYYMDUANLMJMB9XTDAAN9RMU","address":"LF9KTWQOMMTUCWCLFTSKBVJJOJRKCQKSXLDT9XFRRN9WXNEPG9YQGNQMRMCYEQZWCOWP9PEEB9VWKKPTC","optimalPurchaseTarget":-100,"optimalPurchaseTargetScore":-100,"availablePurchaseTargetList":[],"optimalSaleTarget":-100,"optimalSaleTargetScore":-100,"latitute":"51.248172","longitute":"-1.627977","amountGenerated":"9","pricePrefered":"16","distancePrefered":"12","energyType":"1"},{"index":72,"seed":"IWTWIYC9QLODVAQVFVMGUBJJTO9RFHGKJTVTQCSHXUNCXMSLOOQFTMKOSGGMUQANYXWGIMRCNQEFYIGTU","address":"US9IBFQDCDQKVSCQLJTVGTRXGLTYI9TFAF9PNWUWEOKBEGXZ9MILQRENZWVUL9CB9PNNTIWDPEGUUUVKY","optimalPurchaseTarget":-100,"optimalPurchaseTargetScore":-100,"availablePurchaseTargetList":[],"optimalSaleTarget":-100,"optimalSaleTargetScore":-100,"latitute":"51.841854","longitute":"-0.624793","amountGenerated":"10","pricePrefered":"14","distancePrefered":"11","energyType":"0"},{"index":73,"seed":"OYMMMEXMY9DTJQISATWRIOEYROIOAEUR9KALVVEUMYSBJ9IFJXJYONPPXNFDPGWWSTDXKNMXTNDHJMKVM","address":"YOFOQCXECRUQV9ZVJRXQNOWMLSNACCLRNYMWDUTQOKJFTIKKAJHUGNOJQTGRCF9PNWNTUEHUEGBXQXE9C","optimalPurchaseTarget":-100,"optimalPurchaseTargetScore":-100,"availablePurchaseTargetList":[],"optimalSaleTarget":-100,"optimalSaleTargetScore":-100,"latitute":"52.421025","longitute":"-1.053069","amountGenerated":"6","pricePrefered":"15","distancePrefered":"12","energyType":"3"},{"index":74,"seed":"URLIENY9AJURJXGEDFSDLVYJVDPDHJURQUJWFSUXYRP9MOTV9SQUECKHJRKTRMEELDURSG9HJYUP9EMHQ","address":"VLAGGVDBISBIQWHHYWLCGBJGDFFWVWYWKQDKNUBXNH9VE9PHUZXVCJMXCWAKWIRVMLSGTGIUQJDIBDLVA","optimalPurchaseTarget":-100,"optimalPurchaseTargetScore":-100,"availablePurchaseTargetList":[],"optimalSaleTarget":-100,"optimalSaleTargetScore":-100,"latitute":"52.109852","longitute":"-0.532582","amountGenerated":"7","pricePrefered":"14","distancePrefered":"14","energyType":"2"},{"index":75,"seed":"ALMGBDAJDBYJLRUENABFQCR9YAUBRAEVQNYHFIYWMQVBAYMJYYQDPDPVWEIVQCUJNEJCACKKFFKG9RBJS","address":"NROYLVCIWOJXWM9DRLZFFVCHLAHKBTURQFW9GODPGXWKNBPPTQA9CRXLCNNCNIYAQXUKBIVGNJARDDP9X","optimalPurchaseTarget":-100,"optimalPurchaseTargetScore":-100,"availablePurchaseTargetList":[],"optimalSaleTarget":-100,"optimalSaleTargetScore":-100,"latitute":"51.613927","longitute":"-0.369840","amountGenerated":"5","pricePrefered":"14","distancePrefered":"12","energyType":"1"},{"index":76,"seed":"QIUBDDITNJNPNEVCSUUSSYYKYQICODQTTSCB9FKFOFFBGRJEOMXB9KQLWFDFCICGUQRCRAJKBEL9KJCFM","address":"JXYQXA9IUZVPWVQJGJKFBAIDOIUDPMHVNYAIUJLU9GQHGJFCCPH9ZZ9VPVSNKPKZNYQZGWQNJZEICJRHD","optimalPurchaseTarget":-100,"optimalPurchaseTargetScore":-100,"availablePurchaseTargetList":[],"optimalSaleTarget":-100,"optimalSaleTargetScore":-100,"latitute":"51.459006","longitute":"-1.053189","amountGenerated":"6","pricePrefered":"15","distancePrefered":"11","energyType":"3"},{"index":77,"seed":"FHQMGONUGCHRJEDBF9QIMLSVNTEKYBLCPVBMOBVMTFHJSPABTNDSGGXGLVCQ9UJACPR9QNXLUOFK9AWRT","address":"MOHKZZDGITZKJGMYKE9NGWXYBGHIKWVEAKIVKQLANQHPUKEFLDONBKEKUAWMOZQ9AEOJRITDPFVYDLIHY","optimalPurchaseTarget":-100,"optimalPurchaseTargetScore":-100,"availablePurchaseTargetList":[],"optimalSaleTarget":-100,"optimalSaleTargetScore":-100,"latitute":"51.077074","longitute":"-1.073511","amountGenerated":"6","pricePrefered":"16","distancePrefered":"11","energyType":"1"},{"index":78,"seed":"SFQ9BCTVUVIGVKIBSCQCHSFVNTBCJSFMWESHO9WURMDAQVDPCCUWGKYXUWRBHCNFIJXRYHFHQM9XAEUAI","address":"FTEH9GPPVETHXTKHUGQZXRRBAUKPMNHOEIJMXVRVB9NJFIW9TZWGJWFGBGXTVZROLHCCHYYDHWUQDQYMD","optimalPurchaseTarget":-100,"optimalPurchaseTargetScore":-100,"availablePurchaseTargetList":[],"optimalSaleTarget":-100,"optimalSaleTargetScore":-100,"latitute":"52.283792","longitute":"-0.311010","amountGenerated":"6","pricePrefered":"14","distancePrefered":"12","energyType":"2"},{"index":79,"seed":"LSMWMJSWODOFYGQNR9IXRRNUQDLCPYWKOVSGNGTX9MLKK9OFLVGKWHBRUXPQDJKRAPL9BIOCWCV9ACVSY","address":"UZBIUPFJFQURJOPSGQFIUAFHIRZCDNNEMQULVHNOZQPGZDD9XLVYURW9DSVVGSJN9DMXCMW9NEAFJSCS9","optimalPurchaseTarget":-100,"optimalPurchaseTargetScore":-100,"availablePurchaseTargetList":[],"optimalSaleTarget":-100,"optimalSaleTargetScore":-100,"latitute":"51.502870","longitute":"-0.236490","amountGenerated":"9","pricePrefered":"16","distancePrefered":"15","energyType":"3"},{"index":80,"seed":"KCOHFCGJGAXYWLGWKSGH9KFYFEDVUFPSHHXXFOUSS99CASFGMHQDYVBDTTVADTNEBNJKMJNNRWSKHRBTT","address":"ZHGFVDJHUM9MADEUWYIDAXOICSBRR9JAXLZCQDQO9VPEZY9UE9JNNNR9XRAANDZWTPCEPWRTDRQBNXFPD","optimalPurchaseTarget":-100,"optimalPurchaseTargetScore":-100,"availablePurchaseTargetList":[],"optimalSaleTarget":-100,"optimalSaleTargetScore":-100,"latitute":"51.385887","longitute":"-1.414494","amountGenerated":"6","pricePrefered":"14","distancePrefered":"14","energyType":"3"},{"index":81,"seed":"LJIYBKNCHVKBPEHDGFMKLRCPYWLIL9VAOWLFNWBNETHVQPLEXHNU9CA9YGNYJMAULRBKCVAPPGIKGSBXN","address":"RGPDG9VEEFAKTTVXAUDSTPLHOQDINKDKFBFFFUVVFRYJBR9XBRLTNSTRLVFTUAZLFIYUGKXHQALHJQUJW","optimalPurchaseTarget":-100,"optimalPurchaseTargetScore":-100,"availablePurchaseTargetList":[],"optimalSaleTarget":-100,"optimalSaleTargetScore":-100,"latitute":"52.050845","longitute":"-1.036604","amountGenerated":"9","pricePrefered":"15","distancePrefered":"15","energyType":"2"},{"index":82,"seed":"9SSSBKFJEVNKPUXRAEIYWO9SSLXFNSIVTQXO9POLOBOGXBOOHMSSSBYVSGICGVLUXRMX9JUTRIKHKYDVG","address":"KSJFMHXHPDSQINLTJBFHRPQUICMSZGOSDFCRBJLCZSN9MTJAIEEVXWZLQSRGQICJ9Q99HXSZZFPGUVSIZ","optimalPurchaseTarget":-100,"optimalPurchaseTargetScore":-100,"availablePurchaseTargetList":[],"optimalSaleTarget":-100,"optimalSaleTargetScore":-100,"latitute":"52.197472","longitute":"-1.412097","amountGenerated":"8","pricePrefered":"15","distancePrefered":"14","energyType":"3"},{"index":83,"seed":"QHQGA9SVNFNMWFBWUXPJNBRINPVIFPMROWC9CERENPYVFQOVCABKUUGFKQXJYODGDLVDBQFP9WDADHHRO","address":"MFESQLYSRCLQGCF9HXLXBSZWZHRPMYORKFTEHN9EXGWXVQUFOQRSEZZM9UVMIFHUZCPE9SYUJKUP9NFOC","optimalPurchaseTarget":-100,"optimalPurchaseTargetScore":-100,"availablePurchaseTargetList":[],"optimalSaleTarget":-100,"optimalSaleTargetScore":-100,"latitute":"51.663528","longitute":"-1.870999","amountGenerated":"6","pricePrefered":"15","distancePrefered":"15","energyType":"2"},{"index":84,"seed":"HKUJGQPAULXQ9UMYLMJKBMXBWMYCRUNC9WRBWWRCCIWO9IKQBHAOYCT9FJLMJFV9VPWUFDFYIXSJ9AAT9","address":"JXUYJAKFFAKDLAENCVIUCVGCYBZSLNWVBZOMOOJZCGNXCFAZKQYJCTPEGK99HUJPOWRKNNIBSYVHUFMCZ","optimalPurchaseTarget":-100,"optimalPurchaseTargetScore":-100,"availablePurchaseTargetList":[],"optimalSaleTarget":-100,"optimalSaleTargetScore":-100,"latitute":"52.263189","longitute":"0.245605","amountGenerated":"8","pricePrefered":"14","distancePrefered":"12","energyType":"4"},{"index":85,"seed":"NAUMIDYHEFXFMFWHUPFASO9PV9P99OTPKYQNONUNORGOIBFMFRAOVP9KMWVMHTOVXREDYFC9VOKYIMAID","address":"9WEVIXTXSVTCGUJQEXLGRLEOTLMFPYYEOLIAXR9JCKIE99ZEPMRKUKML99GDYACQEFJ9FFQZKZEPLTHBW","optimalPurchaseTarget":-100,"optimalPurchaseTargetScore":-100,"availablePurchaseTargetList":[],"optimalSaleTarget":-100,"optimalSaleTargetScore":-100,"latitute":"52.405723","longitute":"0.065175","amountGenerated":"10","pricePrefered":"16","distancePrefered":"11","energyType":"4"},{"index":86,"seed":"XFWCVSVUVKBHNYDYQJBVOFPVKXOWCXDDVLOJWSSHAGVJQRDVTJENEEOPBKDD9AL9TCUCVFFWCWQWRMGUT","address":"9PZHQYPSXV9DPLNADJRXBVWPVFDHQGUKTMFKOXVLPVLZEEVOZWLQKEHITIKVSIMMOGCRUYVSAZGJPNDQX","optimalPurchaseTarget":-100,"optimalPurchaseTargetScore":-100,"availablePurchaseTargetList":[],"optimalSaleTarget":-100,"optimalSaleTargetScore":-100,"latitute":"52.115026","longitute":"-0.417655","amountGenerated":"8","pricePrefered":"14","distancePrefered":"11","energyType":"1"},{"index":87,"seed":"GJVOBGKVCONXMVNQINTLUOCLLFAWGIHKMLIOWBKODTPTDNKHQXBLDXVTLWSTTBYUYJ9XURQYCHTAFWRBD","address":"KTCDQUTZEVISGZGH9BTMNFFS9M9SQBEBMAPJPDVGNMTWCME9CMILRQO9YJEJWJUKRBFNBFWUJWPTZYDHD","optimalPurchaseTarget":-100,"optimalPurchaseTargetScore":-100,"availablePurchaseTargetList":[],"optimalSaleTarget":-100,"optimalSaleTargetScore":-100,"latitute":"52.055004","longitute":"-1.204649","amountGenerated":"6","pricePrefered":"14","distancePrefered":"10","energyType":"4"},{"index":88,"seed":"QDVKFVPVEBTYLWNWWINBVGLLVPFMQSPTTTFIUFWA9LPODYSFCMBCOCMMNCPLQMXRNQI9WOITHC9AUJTYT","address":"WMOHNTHPXFTCFLNIQANHOWHZMTRQYTBZXPIXBLPNCYCHJHQZPAMIQJ9COAGTOXCXBLJ9LZTFLBMBNWUSZ","optimalPurchaseTarget":-100,"optimalPurchaseTargetScore":-100,"availablePurchaseTargetList":[],"optimalSaleTarget":-100,"optimalSaleTargetScore":-100,"latitute":"51.098586","longitute":"-0.796293","amountGenerated":"8","pricePrefered":"15","distancePrefered":"13","energyType":"4"},{"index":89,"seed":"EXMU9GKSDKLHUSOOHBAKCKTJYUQFQNYHRXOYATO9OPYRFLDYJHUQJIEMAEVDBDFSEIYOPSYCEOQBWUXRG","address":"IZARRQRBRASTNSHMPDJLQCF9OJUCFGBHHBKCWDUTEXBSVWMBQUHTOMYFQJDUJPZXVDVGNSZFTTJBBAMC9","optimalPurchaseTarget":-100,"optimalPurchaseTargetScore":-100,"availablePurchaseTargetList":[],"optimalSaleTarget":-100,"optimalSaleTargetScore":-100,"latitute":"51.283720","longitute":"-1.121097","amountGenerated":"8","pricePrefered":"15","distancePrefered":"11","energyType":"2"},{"index":90,"seed":"UFJFCLSBTEENAKOIGYIEBEXHGPGVQBSCPSACVKQHIBNDIP9QWKPPLMNUVLXKDNCLKNANWCHHDHWYCKMNT","address":"QGJSXQUMOYLJEBBDEDITKHUTQXIUBQZHFUOVMYNGEYTRZHKNZRSIZNHCCXKCLONGGHGCISROQPCSOUJPX","optimalPurchaseTarget":-100,"optimalPurchaseTargetScore":-100,"availablePurchaseTargetList":[],"optimalSaleTarget":-100,"optimalSaleTargetScore":-100,"latitute":"51.792283","longitute":"-0.435427","amountGenerated":"8","pricePrefered":"16","distancePrefered":"10","energyType":"0"},{"index":91,"seed":"KOUSUVCGBNKPTRXYKJENGFNY9OORFO9IBLCPXHOFIXGTTFOWPLYMDUFPJGMEKGRVNLJRIGAESTMJPRYQ9","address":"PDTVWWWRRDXAMWCZTYFPNGOMLYIWUPTNCYMSNQYFOOIOWUE9KUKVERDYBS9DMNRHYYRGEFFT9UFAEOUMA","optimalPurchaseTarget":-100,"optimalPurchaseTargetScore":-100,"availablePurchaseTargetList":[],"optimalSaleTarget":-100,"optimalSaleTargetScore":-100,"latitute":"51.759323","longitute":"-1.102714","amountGenerated":"6","pricePrefered":"15","distancePrefered":"14","energyType":"4"},{"index":92,"seed":"N9BOYIRGMMSYOO9DYBBQX9XSRQIUTQRWBKUEDI9ESJ9OGPGEIUDVSUIMPAMNBLYRVJRMNXJYWIDMSRLDA","address":"SPGKQHPFOLPMXEB9USDDJYMXCJQTHWNOZPCCEPSACBBQLHVLYOFVMMYAMRDXGMO99AUPGJSTZQETGOWYB","optimalPurchaseTarget":-100,"optimalPurchaseTargetScore":-100,"availablePurchaseTargetList":[],"optimalSaleTarget":-100,"optimalSaleTargetScore":-100,"latitute":"51.410307","longitute":"-2.317059","amountGenerated":"9","pricePrefered":"16","distancePrefered":"12","energyType":"4"},{"index":93,"seed":"IJRLGIOCJHXISKKXQBLTCSKDAYFHJRLNWARQXQBAQLGYSDCPPAGRWRMGB9VPQGJDVWCPNBSEBNLBTKRCL","address":"MOLSHXDSMHIRUB9LGGRQUXSLPWAKNFODYUQBWYWELKJRY9DXYKRZJ9FXVHTCEGSYZGS9KGHDTDHVPVMTC","optimalPurchaseTarget":-100,"optimalPurchaseTargetScore":-100,"availablePurchaseTargetList":[],"optimalSaleTarget":-100,"optimalSaleTargetScore":-100,"latitute":"52.073888","longitute":"-0.955511","amountGenerated":"10","pricePrefered":"15","distancePrefered":"12","energyType":"3"},{"index":94,"seed":"CUOBRXMLAILJEGQHJIVJMVCAGJDJRJJKBTRJFFBFYTENMO9WULNNSMNLIVMPKBERPHWKFPRLAPEAKTMKH","address":"LAZEDR9GCPUJZZLM9FSEWAMDBWTEIXSBHPCRPKTPDRLRAVDUJWMI9HCCZVSUSSWMIJYBPYGJPEVICDMUD","optimalPurchaseTarget":-100,"optimalPurchaseTargetScore":-100,"availablePurchaseTargetList":[],"optimalSaleTarget":-100,"optimalSaleTargetScore":-100,"latitute":"51.500802","longitute":"-0.610604","amountGenerated":"7","pricePrefered":"15","distancePrefered":"14","energyType":"1"},{"index":95,"seed":"JGDNTE9FGUQPCAY9DUVVLCLCRGSTXNUUSYNT9R9VXBSCG9RBREG9MPLLIYWGIXIEHUFMGDIYNDNRXLISQ","address":"PFUE9AQDQKRNRIXGKWXOX9FEVSILMWFPCLL9Y9WRFWHORGPBN9HQS9Y9YUCMWZZERYESMBXQXJNEXOKC9","optimalPurchaseTarget":-100,"optimalPurchaseTargetScore":-100,"availablePurchaseTargetList":[],"optimalSaleTarget":-100,"optimalSaleTargetScore":-100,"latitute":"51.283296","longitute":"-1.242949","amountGenerated":"6","pricePrefered":"15","distancePrefered":"11","energyType":"2"},{"index":96,"seed":"LQHENHSAQLKPIJSHEBUWUQGYOAKAMXFM9QVFGTNCIJNBQJVQXBKXYNJDMQULJSKLMHWALGRJHYNKRFMME","address":"XRVZCHDMBHXPGNNQCJQYYOSDUUCNOBEFFGGAJZAVUMABW9QHA9INFWVLTXNYOB9CD9RGQMSLPYMOMRPMD","optimalPurchaseTarget":-100,"optimalPurchaseTargetScore":-100,"availablePurchaseTargetList":[],"optimalSaleTarget":-100,"optimalSaleTargetScore":-100,"latitute":"52.379990","longitute":"-1.264260","amountGenerated":"5","pricePrefered":"15","distancePrefered":"12","energyType":"2"},{"index":97,"seed":"YKMRVWSUTUDNUBDCRSKRNSVEOGAUID9HSAAJQWSROHIRFPHGE9VYGJ9JYEOHXSHYWM9JPQJBOGQMRDK9G","address":"DYGNXZVRWXMTFTCCSLIRXQUDMPNS9QXSYKKZQZDAOLYZMUADBHUMUQLLN9EKS9AJ9CMVVPA9BRBUOJXZD","optimalPurchaseTarget":-100,"optimalPurchaseTargetScore":-100,"availablePurchaseTargetList":[],"optimalSaleTarget":-100,"optimalSaleTargetScore":-100,"latitute":"52.175477","longitute":"-0.183070","amountGenerated":"9","pricePrefered":"14","distancePrefered":"10","energyType":"2"},{"index":98,"seed":"DBIBQTDJXHR9SGWNHSTBIARQTYBNYOGOLCQRIHPYPNETIUAJRTKWWXVVBOHUMWFXDMVSQRJBJPJHXYFM9","address":"OEQRPSVVUH9FKYKWHYZVHY9VWTAONDALQFEKYFCTGMF9BI9QELHCABDVWUDMEUHVANHILPJS9TOECBYVD","optimalPurchaseTarget":-100,"optimalPurchaseTargetScore":-100,"availablePurchaseTargetList":[],"optimalSaleTarget":-100,"optimalSaleTargetScore":-100,"latitute":"51.037844","longitute":"-1.858991","amountGenerated":"5","pricePrefered":"16","distancePrefered":"10","energyType":"2"},{"index":99,"seed":"CPIEOPBBVQBC9WTPKHHCGCYRFXWEWSFSQMXRJHNVNGR9YPKHEYIUMSPCBRUNSFHAHXULEDUUYYVJBTLLR","address":"DKJXP9IDNGTYRZOPCN9RMNMZPQDUKZVWWPQUIQP9YFTBWEWPMFWZGJHREICLAFP9CNWROIS9QDVDTVCYW","optimalPurchaseTarget":-100,"optimalPurchaseTargetScore":-100,"availablePurchaseTargetList":[],"optimalSaleTarget":-100,"optimalSaleTargetScore":-100,"latitute":"52.008856","longitute":"0.120419","amountGenerated":"9","pricePrefered":"16","distancePrefered":"15","energyType":"3"},{"index":100,"seed":"QBCVSRBABIQQLSESUSJTXDPDNIFBQITHJADNS9EGCBPMYDCNX9GKWRUHUCPVUX9HPOCEMNFJKIYAPMFLV","address":"VENYZQC9PVA99EIHAQFADNDTVHLGDQYS9WSYGWNZYZHFPPGGXSLXQLREXRYNARUTVSO9ZHELVHA9YG9AD","optimalPurchaseTarget":-100,"optimalPurchaseTargetScore":-100,"availablePurchaseTargetList":[],"optimalSaleTarget":-100,"optimalSaleTargetScore":-100,"latitute":"52.052763","longitute":"-2.346332","amountGenerated":"5","pricePrefered":"15","distancePrefered":"13","energyType":"4"},{"index":101,"seed":"C9QEJBVROLDVXCRGRKFYYRHQRRPBOXYFVCEORGKP9DVKFTBQMPTFDHXE9BILHXCDED9PXQUWX9UWFSGXC","address":"SECMAR9DX9APA9DMROZJUXLOZFBCICFMDHYIFDAYMACZSNOMOCIPD9MDN9TABRQLYTGRGRUHFSFLXSVCB","optimalPurchaseTarget":-100,"optimalPurchaseTargetScore":-100,"availablePurchaseTargetList":[],"optimalSaleTarget":-100,"optimalSaleTargetScore":-100,"latitute":"51.615437","longitute":"-0.739708","amountGenerated":"8","pricePrefered":"16","distancePrefered":"15","energyType":"0"},{"index":102,"seed":"XIPKNTEHRHLVKMBKEGGCEDGQLDCUJWRLLWVAMLOHKLUAQEOUASTPMANBIJVYTAGG99WWA9TVQKBETAJDU","address":"LOFTHESDGGZGEQIUUXCWOTYGZYDRKCSWZZXBGICNZYXCIOLHQYMBGVSIKLEZLYMFNUNMZTYWKGXPAJNCA","optimalPurchaseTarget":-100,"optimalPurchaseTargetScore":-100,"availablePurchaseTargetList":[],"optimalSaleTarget":-100,"optimalSaleTargetScore":-100,"latitute":"51.715327","longitute":"-2.255666","amountGenerated":"6","pricePrefered":"15","distancePrefered":"15","energyType":"4"},{"index":103,"seed":"HBHOPUTCIAVOMDPRFJW9NMFWEXEWNERR999ADBYMJS9RCIRRFNAEIRIWC9VMJEHYQBQWHGBOKT9YIFUS9","address":"CE9EJHVCOGCSPDCTBYBKQQXOPNNOOTZHXETPIKNQRFDPHFQNYR9MATHTNKPIENMPPKUWGWEMVZGCQNJLD","optimalPurchaseTarget":-100,"optimalPurchaseTargetScore":-100,"availablePurchaseTargetList":[],"optimalSaleTarget":-100,"optimalSaleTargetScore":-100,"latitute":"51.187557","longitute":"-0.355266","amountGenerated":"6","pricePrefered":"14","distancePrefered":"15","energyType":"2"},{"index":104,"seed":"WBGAT9WKYJ9QDRPUV9XDTSPRYBFCDCOJCQPHIXIBD9GLQYJBKLDMVFPMIUFMGK9LIYBKADWTMPKQISARY","address":"JZDSL9MBQXXS9NKAUSWCXQAYJNUHTL9RWXQDBKYQNC9OZCY9IMBPWAYMHBSSXLRCIOAQSOCNIUPBODLUX","optimalPurchaseTarget":-100,"optimalPurchaseTargetScore":-100,"availablePurchaseTargetList":[],"optimalSaleTarget":-100,"optimalSaleTargetScore":-100,"latitute":"51.037883","longitute":"-1.071562","amountGenerated":"6","pricePrefered":"14","distancePrefered":"10","energyType":"3"},{"index":105,"seed":"RKSF9YOYKQTHVJIUXGCHRADRPIARUEP9YOLTWQOPQPQANFXICOLLWGTT9WCRFKGNYKLHWRIPUESVXQMDL","address":"FOELFBHYPPLDTMABQIRDDBDXJNTQEFHAFWVLGCCVZBBJSNHMKEQDHTZYZCESZSAHLWQDSKTDOSACTQGVB","optimalPurchaseTarget":-100,"optimalPurchaseTargetScore":-100,"availablePurchaseTargetList":[],"optimalSaleTarget":-100,"optimalSaleTargetScore":-100,"latitute":"52.405727","longitute":"-1.888493","amountGenerated":"9","pricePrefered":"16","distancePrefered":"11","energyType":"3"},{"index":106,"seed":"YXLTXDPTEQBFUECJWCSMRTEFKVXCXWMEMLLLQQL9DTUMUEPDYCCORUQPCUROKRJWUOAUAUUWOKL9DMBXM","address":"YVMSJLLU9EXCUKNBALIYWAQWTPQKVKZZNXM9ZFCBBBCOIO9QVONHVSUTSJWJQD9XYGMLNSVBGKRJUUKUW","optimalPurchaseTarget":-100,"optimalPurchaseTargetScore":-100,"availablePurchaseTargetList":[],"optimalSaleTarget":-100,"optimalSaleTargetScore":-100,"latitute":"51.522507","longitute":"-1.092098","amountGenerated":"8","pricePrefered":"15","distancePrefered":"14","energyType":"3"},{"index":107,"seed":"CHXBPFDAFVAKNOAEQYFDMBXBOHVMVFKOKUQPNTECIKKJ9GTTWVQQESMFVIJBRLHNCPOQRHDNTROUBCEBC","address":"QNVCGAGKPKEJROGQRUBTHSZMDQIUFCH9DUXNTKIKEIWMWDAFDFNNSGDPIDLUZFYLLGGPEEGJLKIWXRTSA","optimalPurchaseTarget":-100,"optimalPurchaseTargetScore":-100,"availablePurchaseTargetList":[],"optimalSaleTarget":-100,"optimalSaleTargetScore":-100,"latitute":"51.426969","longitute":"-0.885575","amountGenerated":"6","pricePrefered":"16","distancePrefered":"13","energyType":"3"},{"index":108,"seed":"TDGVIKMBMYHHHHGCNACBIXDNPHDGYSVDRSFOQUKNCGTCNHLCWIHOJ9BYDRRIYXTOWAASXALGWG9MRCBXQ","address":"HRCTDDGNSVJRFBLRICJZDTQH9SDQJINWCJUCV9ZEXLKZFM9OIQCABFVRDWZ9TKTRNV9RGLOPQLTUVBBLD","optimalPurchaseTarget":-100,"optimalPurchaseTargetScore":-100,"availablePurchaseTargetList":[],"optimalSaleTarget":-100,"optimalSaleTargetScore":-100,"latitute":"51.442400","longitute":"-0.446688","amountGenerated":"9","pricePrefered":"15","distancePrefered":"12","energyType":"1"},{"index":109,"seed":"PLHXWJPVAYSFDUPYBCWHVHVCTPXDEALUAEXEYCOKPPPMUQGFIX9FCIQKIJFSNYMENOTKPCLKGDYAXXXTF","address":"SSFGUQCKADJHBUHGVBSATAVVPCOLNOBIUUK9QUKFIWQNRSS9VDPWOIVYBJQDUQXDSQMO9PZOW9NPAMGFX","optimalPurchaseTarget":-100,"optimalPurchaseTargetScore":-100,"availablePurchaseTargetList":[],"optimalSaleTarget":-100,"optimalSaleTargetScore":-100,"latitute":"51.338473","longitute":"-1.908523","amountGenerated":"6","pricePrefered":"15","distancePrefered":"10","energyType":"1"},{"index":110,"seed":"SCEFOKAGOTQRCCVSFDGTQLFVHWEMEGBYIIHLFOHANMF9IBRNYYUDPWSCHRPYDRAPO9GYJXAGFBEPABRIV","address":"9VVADBKUXUBBFAXFBMNYFUYWSHGKBVHKVTZKNPJLADSIMZNQFQRWPTEWKALARFKW9OSAYLNDCBMVGUDH9","optimalPurchaseTarget":-100,"optimalPurchaseTargetScore":-100,"availablePurchaseTargetList":[],"optimalSaleTarget":-100,"optimalSaleTargetScore":-100,"latitute":"51.882764","longitute":"-0.611029","amountGenerated":"8","pricePrefered":"15","distancePrefered":"15","energyType":"1"},{"index":111,"seed":"GLTCINTL9ILCNCEVEBRVUMVWVHNMHUDSMLBFKEYCASGPKMRRMPFUBKGVTLHIRQGDEUURMUTTCU9JONETH","address":"9XMLNZLYPKWJSXDRZHIQIYVTGZ9HFCCFCXWCQBF9IZPPEHOQFQKUURTO9WITB9TNJLXSIMNGPHKJIZRSC","optimalPurchaseTarget":-100,"optimalPurchaseTargetScore":-100,"availablePurchaseTargetList":[],"optimalSaleTarget":-100,"optimalSaleTargetScore":-100,"latitute":"51.452582","longitute":"-1.211225","amountGenerated":"6","pricePrefered":"15","distancePrefered":"13","energyType":"0"},{"index":112,"seed":"GSBODGTCVMBKHXSMOWPYSDKYPSPNQGCYXIEKIYF9NBKUSFHYJOYOQMAGABK9DODDUGKFHJYRYEJKIQFFP","address":"VAMKHBQSBCGURCXL9TCUOFAWBFSHEWJJFMRWMWHNFCXUNONQDQTMF9QMEXOVAVBQVGNEMFAPTKECB9PZY","optimalPurchaseTarget":-100,"optimalPurchaseTargetScore":-100,"availablePurchaseTargetList":[],"optimalSaleTarget":-100,"optimalSaleTargetScore":-100,"latitute":"52.062773","longitute":"-1.551393","amountGenerated":"9","pricePrefered":"16","distancePrefered":"13","energyType":"3"},{"index":113,"seed":"AQSGB9SEWHBTBTBSHWWHWFFUIDHYV9CUPKTQHPBTTBJTWPKYULDFNUYPK9CSOGGCKCKEDKDG9XDQCQALW","address":"SSTSCYDFOXHZVLBIHIDRCZOLCHCUPQJCCJCYGEHJMJZRPMFY9PBQLHSDCJYLXJUADNHWPRJEKUAXCREGB","optimalPurchaseTarget":-100,"optimalPurchaseTargetScore":-100,"availablePurchaseTargetList":[],"optimalSaleTarget":-100,"optimalSaleTargetScore":-100,"latitute":"51.571147","longitute":"-0.762636","amountGenerated":"9","pricePrefered":"14","distancePrefered":"11","energyType":"0"},{"index":114,"seed":"HPLSDPDPUBRQMOTBSLPVOC9YWUYWDFCDYAWRQTWODDACBKUNEMDYEUULYDLIXPNPRJYMUAKYRUSSSASJD","address":"HJNBYFUZDPFNAFVHBEOVNMHKBSYDPQGRAUSZXADQPXGRLDRFRYLEEQXUSAQX9LYHLNJYDGCUHFM9HLFSC","optimalPurchaseTarget":-100,"optimalPurchaseTargetScore":-100,"availablePurchaseTargetList":[],"optimalSaleTarget":-100,"optimalSaleTargetScore":-100,"latitute":"51.689172","longitute":"-0.551587","amountGenerated":"9","pricePrefered":"15","distancePrefered":"15","energyType":"1"},{"index":115,"seed":"ONNKLGHEHIKWBUDWBKYNKWIQLOSCTDRFQSUEE9XLCLRSFPQLEYJBAXGV9PFNQITDSXHAWGF9TBLBJWIXK","address":"AMKOLRBJWKWC9LNLZWBWKJIEC9GSWHZ9NVNJQVZOQBYKTCAQHLQMXRWRVRF9ESDGJWIQQPZCWCKATQJOX","optimalPurchaseTarget":-100,"optimalPurchaseTargetScore":-100,"availablePurchaseTargetList":[],"optimalSaleTarget":-100,"optimalSaleTargetScore":-100,"latitute":"51.104096","longitute":"-1.614578","amountGenerated":"8","pricePrefered":"15","distancePrefered":"15","energyType":"4"},{"index":116,"seed":"BEJNNXCDWXU9ELY9OHKNMWHVBPIUARYGWNQONLVWL9F9N9B9DXQSHDNUDJFIJXMDHSOSGRXD9UVYGGUIJ","address":"JYJZGNQWAZZKI9TGIKAHAIFSKOQCZWFWZLKXSRRTHSXQAMHGVCALAAGCOUQRSLYXKZUQATAWHARPTXUHX","optimalPurchaseTarget":-100,"optimalPurchaseTargetScore":-100,"availablePurchaseTargetList":[],"optimalSaleTarget":-100,"optimalSaleTargetScore":-100,"latitute":"51.698334","longitute":"-1.406155","amountGenerated":"6","pricePrefered":"14","distancePrefered":"13","energyType":"2"},{"index":117,"seed":"JWTILAV9KRXQSBKLHEBRKGDRUWDIRAORBJDNCLLSDYXPPMUCINKULUKPEMLOPJMESJHSPTBYPFSIRGFTX","address":"EOFZVGPLDVYZGTWVPXGXTOQQSRREXOMCSKTRAYNUKXKSRHOPBUURSBPHEAN9NYZYWFXZIOUDDXP9VDBNX","optimalPurchaseTarget":-100,"optimalPurchaseTargetScore":-100,"availablePurchaseTargetList":[],"optimalSaleTarget":-100,"optimalSaleTargetScore":-100,"latitute":"51.167376","longitute":"-0.491538","amountGenerated":"10","pricePrefered":"14","distancePrefered":"12","energyType":"1"},{"index":118,"seed":"JFSOWWECOUWO9L9WUHVULYLOROEKXP9XXEONYQWCB9SSWDEWRRXLQM9XJNCMYIWP9WYKKPKAWAMAAAMWJ","address":"IPZYAWVTMHRIQGVNTSHPVFKWARRWFPUFWIVPLGZOCJJRUONBCGUOBNA9PZNQWATJFBKD9GYJQ9WIMMETZ","optimalPurchaseTarget":-100,"optimalPurchaseTargetScore":-100,"availablePurchaseTargetList":[],"optimalSaleTarget":-100,"optimalSaleTargetScore":-100,"latitute":"51.142613","longitute":"-0.017491","amountGenerated":"6","pricePrefered":"16","distancePrefered":"14","energyType":"2"},{"index":119,"seed":"ASRNWAP9LBIOGNDRXR9SNFLBVAWRSUESITNGGO9UFFRAGPUHWKGDXEMAJHFBQKCVIPXFFSLBRTBQEOLTG","address":"KQBFKZUYWJIOKFQLYDREICHDSZQODDINZWZKIJJVGHWVULZUFYHSV9M9EAQWOLPMFKIKFGNXZWGSLBZVB","optimalPurchaseTarget":-100,"optimalPurchaseTargetScore":-100,"availablePurchaseTargetList":[],"optimalSaleTarget":-100,"optimalSaleTargetScore":-100,"latitute":"51.042438","longitute":"-1.774764","amountGenerated":"10","pricePrefered":"15","distancePrefered":"12","energyType":"3"},{"index":120,"seed":"OSGPRQK9JNKMVQHMHTLKSHCLSEPDSKQWIGGMNREFVQARQWTXXDXTYC9NYJMFPTBVIAOYXUUMWX9XTPUNW","address":"BFPYKWG9RGLBFFQKJORUJSWZX9WYT9XJO9LLWXHMOGZNTPHIZBUD9GJC9CBYMAJQNAYEWUCTRQWKZDLCW","optimalPurchaseTarget":-100,"optimalPurchaseTargetScore":-100,"availablePurchaseTargetList":[],"optimalSaleTarget":-100,"optimalSaleTargetScore":-100,"latitute":"51.074746","longitute":"-2.129106","amountGenerated":"6","pricePrefered":"16","distancePrefered":"14","energyType":"1"},{"index":121,"seed":"CNBWSWXGAJJWDSLEOQKWSWON9FNRJXCNBOJWUQNIDMORBNDRGXJJBOKQYXHEFIXDSYQBFISJLKLEPKBII","address":"NFRUBFVRODUXHHBOXJLEZWHQE9CCLJNLU9KOIKIJWSPDFOUWSFCNMLUPJTZ9IAXADAYXYPZCPJVOSPNCC","optimalPurchaseTarget":-100,"optimalPurchaseTargetScore":-100,"availablePurchaseTargetList":[],"optimalSaleTarget":-100,"optimalSaleTargetScore":-100,"latitute":"51.247696","longitute":"0.111571","amountGenerated":"5","pricePrefered":"16","distancePrefered":"14","energyType":"0"},{"index":122,"seed":"FFMHYIIN9DFFCGPGOPRDDYLINR9ODXHLUKWTSOJWIPFSDQMUKMJSOWGLFRWOATYQOSWFMFURBCEVLVUUQ","address":"J9GXTGJUEWCX9PIVLITKBXKJEGPPJEGZIXOYHWXUZYPLZZJLUMWGANBZECHHUENJEHMCMTETBHFINRIFD","optimalPurchaseTarget":-100,"optimalPurchaseTargetScore":-100,"availablePurchaseTargetList":[],"optimalSaleTarget":-100,"optimalSaleTargetScore":-100,"latitute":"52.150704","longitute":"-2.135664","amountGenerated":"8","pricePrefered":"16","distancePrefered":"12","energyType":"1"},{"index":123,"seed":"9LNAOQSYDRFESBYDD9QIQCDAMPHQCP9MILXYHF9CI9HTKEFCFKPOTRWHCOGFFKDYBOAHR99VDYHQWHVEV","address":"TUJNRSM9DGVBNIWGXDGOAXQUWJYGTZMOJCAFEJGQOQIHMKOYCJONPAIBVCZTCPNOJVTDNYOAUDKOUJWPC","optimalPurchaseTarget":-100,"optimalPurchaseTargetScore":-100,"availablePurchaseTargetList":[],"optimalSaleTarget":-100,"optimalSaleTargetScore":-100,"latitute":"52.277610","longitute":"-0.633064","amountGenerated":"6","pricePrefered":"15","distancePrefered":"11","energyType":"2"},{"index":124,"seed":"QXCCVPFJISWORLEQRFNAMKDMKNWQEIMLJNIOW9WBFCQBCGFKXYCWIIABYHTCWSVCOWBNIIEGCI9BMXLYE","address":"ITTIGQ9FYLKUSXAOYUNIBSHZOQKBCMADLZBAHURYCLERECAPZVOZLFWOEAWIXPSSHZNHYGRVKZIFCNSSD","optimalPurchaseTarget":-100,"optimalPurchaseTargetScore":-100,"availablePurchaseTargetList":[],"optimalSaleTarget":-100,"optimalSaleTargetScore":-100,"latitute":"51.822242","longitute":"-0.826827","amountGenerated":"8","pricePrefered":"14","distancePrefered":"11","energyType":"2"},{"index":125,"seed":"BAKDMRBQXEVLIOQLQLVXJIEUIYKTPRWNUGBBJPTNWFWCLKPRUHDIBEFJATPLJNQRNENYV9GRXRSTQMJNB","address":"HNYCDJL9H9UIAKGMBSYNEUYTNWLBOJCUZTOQQZQMNPK9MGTPENQOLWUYDYBYLUOXENMJRT9EJFOIZDPCC","optimalPurchaseTarget":-100,"optimalPurchaseTargetScore":-100,"availablePurchaseTargetList":[],"optimalSaleTarget":-100,"optimalSaleTargetScore":-100,"latitute":"51.966138","longitute":"-1.109467","amountGenerated":"5","pricePrefered":"15","distancePrefered":"11","energyType":"4"},{"index":126,"seed":"RTNHIXLFVEELCTCGHIRJMKDGSWUIGHBPNIWGPFSTEBTMKUKAAMISRQEFINTDPQAMYBNFFGYQLHTP9PYCK","address":"JEIVSNJ9GRRXHLEKHGRHVOCCRRIZVJY9UDCPTTBVUPAVBTJDTRSNDXY9NOEYXYKBAAFOOGHHMBWOWVPNX","optimalPurchaseTarget":-100,"optimalPurchaseTargetScore":-100,"availablePurchaseTargetList":[],"optimalSaleTarget":-100,"optimalSaleTargetScore":-100,"latitute":"51.718335","longitute":"0.214779","amountGenerated":"9","pricePrefered":"16","distancePrefered":"11","energyType":"2"},{"index":127,"seed":"STGQPXXISRUBETPWQBMGYNIXCEYOG9RD9MAONUHYMNLWVMSYFXV9YXCXARNEOKAYJFUTMPCLHPFVEIKXK","address":"IQNCGKTITMMZZUXZGODOWAMQDGYGEWUVKYI9RWZFEFFUNENBKSRLCBQNDDIZRZAXOPMESAXM9VFECNLHD","optimalPurchaseTarget":-100,"optimalPurchaseTargetScore":-100,"availablePurchaseTargetList":[],"optimalSaleTarget":-100,"optimalSaleTargetScore":-100,"latitute":"51.276172","longitute":"-2.083299","amountGenerated":"9","pricePrefered":"15","distancePrefered":"14","energyType":"3"},{"index":128,"seed":"MLYGCPBHKWEYRUKSYYFKEOOUCRGJUCHYFRDYJQXNFRJIWYG9QQKKAXDNPECOIXINXMYYOAPXQQEIIJDYR","address":"BOEFCDRLNNDULWPS99CNRLOGAAVAMKAPQMJROGCWJEZKRWILOWMGRGGNJUPRKUEYISHRDLFKHIF9CFJZD","optimalPurchaseTarget":-100,"optimalPurchaseTargetScore":-100,"availablePurchaseTargetList":[],"optimalSaleTarget":-100,"optimalSaleTargetScore":-100,"latitute":"52.211575","longitute":"-0.448777","amountGenerated":"8","pricePrefered":"16","distancePrefered":"10","energyType":"2"},{"index":129,"seed":"UYNXCLFNIBIUFTLBUWQWXHLALWQJJRMXUDLXPDXNJXEHF9HODARUQMAFNBCBNCMBIHQDJEURFCHQL9UYU","address":"NNHAS9FIVPS9JYGOBDBYKHKIEQJIOBHPGVMMNICWWOZTEJEMHWSFXCUZJ9HDNMDKCG9YBDOWDZBJUTIUD","optimalPurchaseTarget":-100,"optimalPurchaseTargetScore":-100,"availablePurchaseTargetList":[],"optimalSaleTarget":-100,"optimalSaleTargetScore":-100,"latitute":"51.210067","longitute":"-0.766528","amountGenerated":"7","pricePrefered":"14","distancePrefered":"10","energyType":"1"},{"index":130,"seed":"TAL9EDSWJCL9WGSPNNVA9JBJUVKGAEXT9FR9CCNOUIMTFCPIHRUDKYLNLNEEIAVISAPDQ9UFTVGVFYEVD","address":"XFXZAZXGTMSPIPDRTZKOZLVIZONEFGCMCLNLEKKOCYFJHTIQAFEUFGMEUAJETCEBALNVTUZCPGMQUIX9A","optimalPurchaseTarget":-100,"optimalPurchaseTargetScore":-100,"availablePurchaseTargetList":[],"optimalSaleTarget":-100,"optimalSaleTargetScore":-100,"latitute":"51.565244","longitute":"-1.701450","amountGenerated":"7","pricePrefered":"15","distancePrefered":"14","energyType":"4"},{"index":131,"seed":"JHCJUMXIJHJLXJOXUNVNCIJRTYQKCNMDKSOBHOVS9THSMYTRJCNSJMVQOVUEDPJVTYHD9KJLWVMSKJSXG","address":"PBFFLGJTWZWMVGVWLQOPMFUCCOZHGCENJIGH9M9ZXPOMEZDFNKCBBDEYTALKSIZGHTDYLQCVZIXJ9MZZX","optimalPurchaseTarget":-100,"optimalPurchaseTargetScore":-100,"availablePurchaseTargetList":[],"optimalSaleTarget":-100,"optimalSaleTargetScore":-100,"latitute":"51.129696","longitute":"-2.292696","amountGenerated":"8","pricePrefered":"16","distancePrefered":"12","energyType":"4"},{"index":132,"seed":"QDOMVUQBGLQKQPNACLALCOVRPGTYBDQU9QELDXLAM9KWVIUONOSOCXVN9IRBCQLFTKOTGBJORKRQCLTCT","address":"NDMADBMABTCLTLVVECABFKVSRPWMKGBFXKITBIRPXHPUDNNYSAZBGFVXDSZZQVHPG9JBWWGVSXDZZRQWX","optimalPurchaseTarget":-100,"optimalPurchaseTargetScore":-100,"availablePurchaseTargetList":[],"optimalSaleTarget":-100,"optimalSaleTargetScore":-100,"latitute":"51.653725","longitute":"-1.474029","amountGenerated":"10","pricePrefered":"14","distancePrefered":"11","energyType":"3"},{"index":133,"seed":"DSYEK9ENOKBPWPCUFC9LIVIQEKHYILBAXEURSLVFLHHY9HACOGRHENHJKWJSUCHCJVFEGEWNNAELYPWYH","address":"TMJVSQOKROISGFWGCTMXSPTZXHIMZSQAFVYMHMQPNSIEKOYALXNJCPKUBCZDEUSIWNBBMDUIFAJIXVDYW","optimalPurchaseTarget":-100,"optimalPurchaseTargetScore":-100,"availablePurchaseTargetList":[],"optimalSaleTarget":-100,"optimalSaleTargetScore":-100,"latitute":"51.651544","longitute":"-0.993186","amountGenerated":"10","pricePrefered":"15","distancePrefered":"11","energyType":"2"},{"index":134,"seed":"CLKJWEAWINMO9RFCOVYXFJVRGFHS99KLFIKHP9EFCBEEEPYVANVWCMTAKFDRUTWTXQMCYORFYLTGQTQWV","address":"9YBBQGNHVBEIEX9QIH9ZTGQ9QMOWPFQYGFWFEFERRSURGCATACBCIYSVBXPEMSSCIIWJTEYEIYQ9EOEDD","optimalPurchaseTarget":-100,"optimalPurchaseTargetScore":-100,"availablePurchaseTargetList":[],"optimalSaleTarget":-100,"optimalSaleTargetScore":-100,"latitute":"51.443142","longitute":"-0.046854","amountGenerated":"5","pricePrefered":"16","distancePrefered":"11","energyType":"4"},{"index":135,"seed":"TSCHYSHN9EPWQRGEHAIRDQOSBOUHFWGPNNLMDSHO9LBQHAQMQD9NASUKBXWQRSVEKYSPYITJAYXQLECYE","address":"RCSLZQDYVKDGFB9DCCYWDKPNYJZMJRQCTHQDDJDAFMZSDB9NDQFCIXUKSVIBSFYHXJDOEAJBJGRNBS9FX","optimalPurchaseTarget":-100,"optimalPurchaseTargetScore":-100,"availablePurchaseTargetList":[],"optimalSaleTarget":-100,"optimalSaleTargetScore":-100,"latitute":"52.245504","longitute":"-0.469998","amountGenerated":"8","pricePrefered":"15","distancePrefered":"10","energyType":"3"},{"index":136,"seed":"WENQGSKGLKWSXFDROGHYW9TMBWOTKQ9NCSPPEGNL9XAANVSVIELHDWOJWRKNBHQEYNAAPFNHFAUQDJXM9","address":"WTAJPHQAPCOBKHUMUOFBBTNJUOTKXGELVOAGIBBMZEQDBOJVQQEDVAXKWUQGDYBIPDODNZBPYPKJ9JGWX","optimalPurchaseTarget":-100,"optimalPurchaseTargetScore":-100,"availablePurchaseTargetList":[],"optimalSaleTarget":-100,"optimalSaleTargetScore":-100,"latitute":"51.897321","longitute":"-0.646482","amountGenerated":"5","pricePrefered":"15","distancePrefered":"14","energyType":"1"},{"index":137,"seed":"BFPPUULQAIVBQQAPB9GDDDRKNQHEC9BELHUTXNHBSIRX9OBCUOR9EWRJFUEQKGNGC9JRS9UFTILFDYPXR","address":"HSPGIWLTPLQO9INVQIZALXXFWPDUOXYJGUOKHYXFWZZOCEXSSIKRAZPBCWRFK9X9OULIIEMICVQEMOBVX","optimalPurchaseTarget":-100,"optimalPurchaseTargetScore":-100,"availablePurchaseTargetList":[],"optimalSaleTarget":-100,"optimalSaleTargetScore":-100,"latitute":"51.997968","longitute":"-1.034340","amountGenerated":"10","pricePrefered":"14","distancePrefered":"13","energyType":"1"},{"index":138,"seed":"MLJEV9TSOMCBORY9EGRD9NHEGRSLOOHUEYWIDGFRDGUVJFSGXLSTBPLMFUDSINTETDYNUDQYNHJCFUACM","address":"SYBYWNRHRRVHUEWAV9HSVYMVTXRWPYQRZQHJUQFKQJDZWDMRSGTHBRUBUTHMJJWMFCZ9ZLBWVUPDPAPXW","optimalPurchaseTarget":-100,"optimalPurchaseTargetScore":-100,"availablePurchaseTargetList":[],"optimalSaleTarget":-100,"optimalSaleTargetScore":-100,"latitute":"51.140994","longitute":"-2.193743","amountGenerated":"9","pricePrefered":"16","distancePrefered":"12","energyType":"2"},{"index":139,"seed":"R9IDODTIGNUMAR9MGGUADYKENSFAQHEWPVXT9GMCNPJCKYYSXACROYXRPQIMMITRFVYAT9BULQQIRJWDV","address":"TQZVJQSFBRLUBRMJUJZBCWCTGTTXBECLFJ9OAILPHKKR9MWFQJGTTMQFNQIUQXRLQROSDKHOUXNFU9GHC","optimalPurchaseTarget":-100,"optimalPurchaseTargetScore":-100,"availablePurchaseTargetList":[],"optimalSaleTarget":-100,"optimalSaleTargetScore":-100,"latitute":"50.977474","longitute":"-1.230350","amountGenerated":"9","pricePrefered":"16","distancePrefered":"10","energyType":"2"},{"index":140,"seed":"WRQRQISJUGIQBWWFYUBPYMWLOVIGRYXMJUSSWAYADJRTCAWQVBMADMTNTWXEINBV9RXSIPNRKMSNRPNRU","address":"FSRZBZWPRTVDKANXLAQGRJMKXLVZFNUQGFKJFHDOYXJAJPMKEEOJG9SVHQQBXCWLPICKZHUBAQQZRJMYB","optimalPurchaseTarget":-100,"optimalPurchaseTargetScore":-100,"availablePurchaseTargetList":[],"optimalSaleTarget":-100,"optimalSaleTargetScore":-100,"latitute":"52.251618","longitute":"-0.223405","amountGenerated":"9","pricePrefered":"16","distancePrefered":"10","energyType":"1"},{"index":141,"seed":"A9FF9DAVGCT9LIJAUHSOXRB9ADPYTFOPUEGDR9FAXRJIYNXRGPTOLGRCHCLAHEMDXCYTMPJVNXPCHCJCS","address":"TSTUYYB9UTTZXSAEBJABGLJXXBNTBHLVUMCTSZCPIVIRESJGCXQHG9GP9OXEDR9CB9TUVESCHXYVXCEOD","optimalPurchaseTarget":-100,"optimalPurchaseTargetScore":-100,"availablePurchaseTargetList":[],"optimalSaleTarget":-100,"optimalSaleTargetScore":-100,"latitute":"51.496827","longitute":"-0.188949","amountGenerated":"5","pricePrefered":"16","distancePrefered":"14","energyType":"1"},{"index":142,"seed":"TXDNEROBBNYMEYASAL9CESYSCPXLAJU9DKSMRDCIPTBNTTSDMBLXLCGK9UWTKP9BOMJTGXKMQBXJGJTLW","address":"9QOONGMUPWWOBQDZEKGUEZULDMNFGEMTCWCQIXFIOLBTFBKSS9CTNYSRH9PXBXUIVXAGQMVUT9OWTYODC","optimalPurchaseTarget":-100,"optimalPurchaseTargetScore":-100,"availablePurchaseTargetList":[],"optimalSaleTarget":-100,"optimalSaleTargetScore":-100,"latitute":"51.853235","longitute":"-0.854174","amountGenerated":"5","pricePrefered":"15","distancePrefered":"13","energyType":"0"},{"index":143,"seed":"YOMMJSMLWCU9JKNERESHY99LNGQLEWSJUHSNOTBOHLRS9NYQSJDGE9QOKGSFDIBSOXEKPAYLGGBNMRRPK","address":"HVAPSDGSHXKAL9PEXYNJQREPIVKXLYVXMBITQFKPMXJUMEDSKYNUAIHKCOCIPJCVOZVZKRVDBLLYSHUJD","optimalPurchaseTarget":-100,"optimalPurchaseTargetScore":-100,"availablePurchaseTargetList":[],"optimalSaleTarget":-100,"optimalSaleTargetScore":-100,"latitute":"51.712943","longitute":"-0.606851","amountGenerated":"6","pricePrefered":"15","distancePrefered":"14","energyType":"2"},{"index":144,"seed":"FKQMTFUSGKLWJYVGLPKNWEEGSNYDOFMVXHXTGOTLVSPIEYOJFWFARUUKFJWEBMS9GVFQNGBWRBUOBYVXK","address":"SAMEAAKBBCERY9QNCMGJ9YLAOYBBEZDPVARMVHAZVXVERJBQYSI9GRVZPBOWNTMSMJPIYQQRWCPCNIHE9","optimalPurchaseTarget":-100,"optimalPurchaseTargetScore":-100,"availablePurchaseTargetList":[],"optimalSaleTarget":-100,"optimalSaleTargetScore":-100,"latitute":"51.966768","longitute":"0.013088","amountGenerated":"7","pricePrefered":"15","distancePrefered":"12","energyType":"4"},{"index":145,"seed":"SKJVPBCRAOHUQYEQAAUSYJHURTCYW9IBYXUKFYGJLVYJYTXDCABPRREMNSHNBSW9WDWNOPP9NURJSLRGM","address":"IUWWMOEZZGBPYONSETWQMMIJFAOROEFVTPXBNXOYP9HSBHTUVTSNCWDTRJOSFWXOLRDSFB9BQLYTXTI9Y","optimalPurchaseTarget":-100,"optimalPurchaseTargetScore":-100,"availablePurchaseTargetList":[],"optimalSaleTarget":-100,"optimalSaleTargetScore":-100,"latitute":"52.038388","longitute":"-0.915349","amountGenerated":"9","pricePrefered":"15","distancePrefered":"10","energyType":"1"},{"index":146,"seed":"UVLF9OYRGAFNVRFPK9EJJVXJVUAXDNUK9VP9UKKYFYPGDHPUIOAYOUXBBMIHPYJJHBCMVIWYXG9LHYWTQ","address":"CZIXBZAFTDACQ9BXEC9HTQMTEQKXUONJVBBUFI9YUO9WLAGFPMNPGHLHI9LJXQSJAXFXGZJEF9CBR9GZ9","optimalPurchaseTarget":-100,"optimalPurchaseTargetScore":-100,"availablePurchaseTargetList":[],"optimalSaleTarget":-100,"optimalSaleTargetScore":-100,"latitute":"52.159911","longitute":"0.128647","amountGenerated":"10","pricePrefered":"16","distancePrefered":"13","energyType":"3"},{"index":147,"seed":"MXFKEXWEBYGJFRKQYYJLXYCJXWYFPACEWJOPIHXELGGURACWDCGJXIDYCHWQOGJVEPYQWWRLTDSWNVIHT","address":"GNHYJXJWJDUIMROQRZM9J9NEIZSRYFUKBXFCR9ARDOSDGCBZFJDCBWTEEOPTZCUTYIHATYVLWNUHWBFLC","optimalPurchaseTarget":-100,"optimalPurchaseTargetScore":-100,"availablePurchaseTargetList":[],"optimalSaleTarget":-100,"optimalSaleTargetScore":-100,"latitute":"51.123949","longitute":"-1.121172","amountGenerated":"6","pricePrefered":"14","distancePrefered":"10","energyType":"2"},{"index":148,"seed":"BKYSWHVNWVMENIEDEDMUEMXPONDEUUFJGAKLR9TQKAQMXTIDFDRGTCDTCKAQHSBCEVHECCPX9QTXQDVPR","address":"WCNMTDJ99MJTUJRHOJRDWUGSJFUSZQFEONUEIRUPCSNEXIOKKPLZCBCOOKZTSIOVKJKFTJMIDUZSOSYZD","optimalPurchaseTarget":-100,"optimalPurchaseTargetScore":-100,"availablePurchaseTargetList":[],"optimalSaleTarget":-100,"optimalSaleTargetScore":-100,"latitute":"52.115805","longitute":"0.046127","amountGenerated":"5","pricePrefered":"16","distancePrefered":"12","energyType":"1"},{"index":149,"seed":"VLEKHVARNTSPGFRJNOVVVDVGDEDFCGPS9AYMPULGTXSPGCEGNNIPUDTRFXIFTDEKVDXBANFQKPVXYSFNR","address":"DGCWHMGRNEVXSISCCCNXOEWLEVPSVO9CULKSVF9RDHXMBVARQDWPFRQXYEACJCIMFQKP99P9NHVKNFASX","optimalPurchaseTarget":-100,"optimalPurchaseTargetScore":-100,"availablePurchaseTargetList":[],"optimalSaleTarget":-100,"optimalSaleTargetScore":-100,"latitute":"51.184813","longitute":"-1.848104","amountGenerated":"6","pricePrefered":"15","distancePrefered":"12","energyType":"1"},{"index":150,"seed":"WCQXTSIHIGDFXABVRRDNVTTCPWDPIMFYUVEURRKUDBSDTXXXEUNKBATJ9SOSUVCEVONXICQTLP9MNUDHE","address":"HPTIMHXRUEDNQWVPTQWREKDRSXGTGCQJTZTWCSDOKJZSHMLV9UZUKAFMEHVUZHKHFZUAROFLYPVMELEHZ","optimalPurchaseTarget":-100,"optimalPurchaseTargetScore":-100,"availablePurchaseTargetList":[],"optimalSaleTarget":-100,"optimalSaleTargetScore":-100,"latitute":"51.508072","longitute":"-1.477682","amountGenerated":"9","pricePrefered":"15","distancePrefered":"14","energyType":"1"},{"index":151,"seed":"GSGPUARCUUWEGECNSICHYXRVJMBSD9CPEWUQTSSAUAATAS9WERDTHHFBLPKYYCLPVOJHWVGQSMWGBYHNU","address":"GTWTHICNKQMHPWKTTMQQSIHGGEBQKGPHEAGFOXFKQOUGHSBCWPNJGXU9ZKLQMQGWIAZFVYRP9QAKXDWWA","optimalPurchaseTarget":-100,"optimalPurchaseTargetScore":-100,"availablePurchaseTargetList":[],"optimalSaleTarget":-100,"optimalSaleTargetScore":-100,"latitute":"51.077444","longitute":"0.101145","amountGenerated":"6","pricePrefered":"14","distancePrefered":"14","energyType":"4"},{"index":152,"seed":"NPNTFQXAQINKBPTFN9UKODFKJHIRBSBPGERSWMKXCN9AFSQYH9SQSNWJUKUXRVTVTTMDBSUJXV9E9K9AQ","address":"GOQBWUDUVWOFEH9XWRUZXQGMFWRNROSFAUMZKXZXCBZAPIRONGIWHZKJJFDECFDWKIPAFKQMLFSGN9WGB","optimalPurchaseTarget":-100,"optimalPurchaseTargetScore":-100,"availablePurchaseTargetList":[],"optimalSaleTarget":-100,"optimalSaleTargetScore":-100,"latitute":"51.350698","longitute":"-1.142958","amountGenerated":"9","pricePrefered":"15","distancePrefered":"15","energyType":"0"},{"index":153,"seed":"AJPMQHFCPOBR9EEMDJJUI9Y9NYHQATD9H9EVKWXVDXFFNWAFOVOCFUGWBVKEUXNRRTKLKSVBINKQKLWPN","address":"BYMYJKW9OZFMTKXDDMSOBRHCTMSSLCMYFHYLYBXWURBCFNBMTBHIXEPEZOPUYCTADYOBMRVZFBUDXVVOX","optimalPurchaseTarget":-100,"optimalPurchaseTargetScore":-100,"availablePurchaseTargetList":[],"optimalSaleTarget":-100,"optimalSaleTargetScore":-100,"latitute":"51.926959","longitute":"-1.719699","amountGenerated":"8","pricePrefered":"14","distancePrefered":"13","energyType":"1"},{"index":154,"seed":"BIIBEXTYWFGRDVACORKAMXIHQG9LHRFVBPUHHUWAJY9JOOUPHKDLUJABLLBKIGBRLC9QHISUKKYWWXXTL","address":"GQORVUL9KPHJAICYZNFBATUDZTJSWYH9UAPPLPQ9DBHXLKIEISEBIEYZAMTTYDQIBT9BHYBDMLCABEOJW","optimalPurchaseTarget":-100,"optimalPurchaseTargetScore":-100,"availablePurchaseTargetList":[],"optimalSaleTarget":-100,"optimalSaleTargetScore":-100,"latitute":"52.051946","longitute":"-1.457050","amountGenerated":"8","pricePrefered":"15","distancePrefered":"14","energyType":"1"},{"index":155,"seed":"HGEBIJBUMFOQICG9RUJFKCRUOODGBGHUXWBSHLPDIABDQOVHLUQMJKHTVWVUDHQF9GYKHMYSWJOYSASDK","address":"YNTAZRHP9XUROGNDDMXDDEX9OGWMKKFGOALFVGTZWAPXFIUAUBSKISUFQQHMD9UFHOO9YWWJ9RNCVQOFX","optimalPurchaseTarget":-100,"optimalPurchaseTargetScore":-100,"availablePurchaseTargetList":[],"optimalSaleTarget":-100,"optimalSaleTargetScore":-100,"latitute":"51.216382","longitute":"0.075614","amountGenerated":"10","pricePrefered":"14","distancePrefered":"14","energyType":"4"},{"index":156,"seed":"TXNQTGRBXLIJPTSKTTFLCMHETXXHKWEPRRRACKGXKGDUYLSPRLCXKGYBANJDKJACPBJGNEKLXLVFNGHHC","address":"XMRAJQOJITWXUFRFZLDCMPPQ9XLUICFAKWWIUBB9ZHDTGOGGP9AWTTNLJRMICLSJWYDMRDOAFUVZZSWSD","optimalPurchaseTarget":-100,"optimalPurchaseTargetScore":-100,"availablePurchaseTargetList":[],"optimalSaleTarget":-100,"optimalSaleTargetScore":-100,"latitute":"51.692853","longitute":"-1.191511","amountGenerated":"8","pricePrefered":"14","distancePrefered":"12","energyType":"3"},{"index":157,"seed":"TJCGJDQBQB9SROTXRNGAGVFHGGNBIA9VUQOKTYDWBFUSRYQFKXPY9FTIKKAJRIFEROJBIAXCDX9GJEKHK","address":"UZXGSQQRAGMMW9NEUTEZ9YYHNA9LYZOUDIBOGBHLQI9KSWFJF99BJJAXKPJOBVLRRRAXEXLYOUJWGTXM9","optimalPurchaseTarget":-100,"optimalPurchaseTargetScore":-100,"availablePurchaseTargetList":[],"optimalSaleTarget":-100,"optimalSaleTargetScore":-100,"latitute":"51.706746","longitute":"-1.491821","amountGenerated":"10","pricePrefered":"14","distancePrefered":"11","energyType":"3"},{"index":158,"seed":"LSVPHSPPYMWYHBRYENGOA9VFXXEDKNBPISXYRUEFQCWE9SUJCCWEWTOVEIXBWOUJCMRVKBYSGOCAYMKRY","address":"LRULNMLVVKFXXCKGWDGHZGDMKILBYPELWNFHFTRNMIZJLLZBO9BTGHZMZ9IZ9DAKQWLAJCYAYKPUXFMFX","optimalPurchaseTarget":-100,"optimalPurchaseTargetScore":-100,"availablePurchaseTargetList":[],"optimalSaleTarget":-100,"optimalSaleTargetScore":-100,"latitute":"52.278330","longitute":"-2.364150","amountGenerated":"9","pricePrefered":"15","distancePrefered":"14","energyType":"2"},{"index":159,"seed":"MS9GVORPVBNJVXN9FPPWTGTGHT99DQWVLFNPESSGGRBMPFQCLVSP9EWEFJNGDVFYCNRVTTKAQ9VBMEUVA","address":"YCYIQQWBINAWDXHC9LUF99LHVESLLDWWZEINYBAZJDH9ONRTAJWWJVIRMZTELRIBAKORPKHCZFQECAHMZ","optimalPurchaseTarget":-100,"optimalPurchaseTargetScore":-100,"availablePurchaseTargetList":[],"optimalSaleTarget":-100,"optimalSaleTargetScore":-100,"latitute":"52.248102","longitute":"0.139039","amountGenerated":"5","pricePrefered":"16","distancePrefered":"15","energyType":"1"},{"index":160,"seed":"TQBYVAGO9EEYEINQRRNRUGHJSDHRFVAQQ9AGO99CM9LWOOQ9KTRNLCEOQVEKSPTXAASVCL9VJBJMRCLUE","address":"XSKUOBSLYU9JGTWOKSQLWMMGILCBHMJQDLZTDXZR9ZFEOBLXCOVFPHQXBXURZHUKW9CLWSDIZZLVGGBNX","optimalPurchaseTarget":-100,"optimalPurchaseTargetScore":-100,"availablePurchaseTargetList":[],"optimalSaleTarget":-100,"optimalSaleTargetScore":-100,"latitute":"51.541593","longitute":"-1.035727","amountGenerated":"6","pricePrefered":"14","distancePrefered":"13","energyType":"0"},{"index":161,"seed":"XBDUOQOVULUHEDCBRJWUQJBQDEMPYXJIAJFBLAAPLJHSEADXAAMVNAH9JLLLJDFYWSIDAQLNUIISRGXTY","address":"OPNTOIVQER9SJZQIXLUOLE9ZUXRIKMBHGAUUA9AHOIYQUJDJTQSMEPMSCDBRZS9YZURWQZXWXJ9E9FNVD","optimalPurchaseTarget":-100,"optimalPurchaseTargetScore":-100,"availablePurchaseTargetList":[],"optimalSaleTarget":-100,"optimalSaleTargetScore":-100,"latitute":"52.070510","longitute":"-1.084081","amountGenerated":"8","pricePrefered":"14","distancePrefered":"12","energyType":"3"},{"index":162,"seed":"MRCTFYRJSUWONEEQYHEABMHKFGATPXHJIPPINYYELKKTIDTYK9PMOVISOCNYTSWQXVUYPKW9LYRMPKVKM","address":"XOXKILWLVUFKGCYTG9NGMDTUMEFRTXXKUJQGJARCENM9NHCYAXUZMVJLML9QY9QAXXWLPT9ZLDYMPIIJX","optimalPurchaseTarget":-100,"optimalPurchaseTargetScore":-100,"availablePurchaseTargetList":[],"optimalSaleTarget":-100,"optimalSaleTargetScore":-100,"latitute":"52.125910","longitute":"-2.231160","amountGenerated":"8","pricePrefered":"16","distancePrefered":"13","energyType":"0"},{"index":163,"seed":"EGGAGSSRAVAFY9X9BCXWVBJCLTPG9GFBHPXNTWLAKQVNTG9CQYJXBTYBMQLKQLLWMQVAPBDDSAWLWUURQ","address":"TIYDMVSHXMOMUR9UOWJASUJLFIHU9TGY9ENDYYQTZIXQNS9MCACNJRDWA9MQRSQLKTASA9DCLYOBJBHDY","optimalPurchaseTarget":-100,"optimalPurchaseTargetScore":-100,"availablePurchaseTargetList":[],"optimalSaleTarget":-100,"optimalSaleTargetScore":-100,"latitute":"51.311404","longitute":"-2.059709","amountGenerated":"7","pricePrefered":"16","distancePrefered":"14","energyType":"3"},{"index":164,"seed":"GBXPNKADBQXKOLUTHTGCQCTARJXRLDMVYWPFQQIXENGPKOQG9WNWMKPHBNLH9XVCUFRV9RPYFWG9UOEKK","address":"VQJROIT9UHGZNFPHAUOSURPDPGHONLPPIMNLAXIWHTEVCAEUQNGOWJSFSMERFPLRZLDRNZQMUCTVAPRTA","optimalPurchaseTarget":-100,"optimalPurchaseTargetScore":-100,"availablePurchaseTargetList":[],"optimalSaleTarget":-100,"optimalSaleTargetScore":-100,"latitute":"51.531368","longitute":"-2.124318","amountGenerated":"7","pricePrefered":"16","distancePrefered":"12","energyType":"1"},{"index":165,"seed":"OPUOVBLAOQRHPFENDCADVYBISJMYRTMJTFMUFEMNNOPSXHQVVECYL9DXFKFTGBRTKVPHLJWTTSUKJKLDG","address":"BUVQWGGSZLFPKSDNECYRCCLNFJRLJOU9IBKDHBVFNPDFSBKIGURUMMXQBTWXCRJLDQM9FCCSDXES9EEA9","optimalPurchaseTarget":-100,"optimalPurchaseTargetScore":-100,"availablePurchaseTargetList":[],"optimalSaleTarget":-100,"optimalSaleTargetScore":-100,"latitute":"51.823076","longitute":"-0.384165","amountGenerated":"8","pricePrefered":"15","distancePrefered":"15","energyType":"4"},{"index":166,"seed":"9EETKFUGWWUMNNDTFAGYNWUHKGXDTB9YOVRJBCPRTLSKFQYOGBRV9VFACKVVFKAQIB9UGUAWUBGKRSWXX","address":"WOPSRNHQLFTGL9HDHAQNDQAORTHEHDCWIQKIDMWASSTKUBMLADIITTQXCMAEGDOHMOFQ9YGYZSSSDJBGA","optimalPurchaseTarget":-100,"optimalPurchaseTargetScore":-100,"availablePurchaseTargetList":[],"optimalSaleTarget":-100,"optimalSaleTargetScore":-100,"latitute":"51.703742","longitute":"-2.177077","amountGenerated":"5","pricePrefered":"16","distancePrefered":"14","energyType":"2"},{"index":167,"seed":"9INORJFT9A9YXQLN9SNRKRFPRQKSMBIJKQCHPXSVATD9KQJNDD9EXKFIRLQDGBOBLUDGUHEAORQKU9QSB","address":"YWPAALOZXUQOVRJQ9WSNQADIBX9XUSSPETPPMPQRFTMIRCYULBV9JTXVTOUP9QLZXOO9CLZPBGNWSKHZW","optimalPurchaseTarget":-100,"optimalPurchaseTargetScore":-100,"availablePurchaseTargetList":[],"optimalSaleTarget":-100,"optimalSaleTargetScore":-100,"latitute":"52.232843","longitute":"-1.154436","amountGenerated":"6","pricePrefered":"16","distancePrefered":"12","energyType":"2"},{"index":168,"seed":"AAFTJAKBTGRRNDY9XFCUIKDKRHRRGYLOUEFCGGLTPUHJJHMSGYYBCBWKGKDPQDQKSNXBJILBTPPSSJNYD","address":"XQEWAVUB9ACTLYXGYLEHVZGMSYJDQPQPJUAUDPPUIAASPIOHSJFBD9XVCHELFNCLFDXKZLUUUSCIKCRSA","optimalPurchaseTarget":-100,"optimalPurchaseTargetScore":-100,"availablePurchaseTargetList":[],"optimalSaleTarget":-100,"optimalSaleTargetScore":-100,"latitute":"51.907113","longitute":"-2.236980","amountGenerated":"8","pricePrefered":"15","distancePrefered":"15","energyType":"2"},{"index":169,"seed":"RIMFHMIDPU9OTVXKWHOYFCXGJTTX9UVDXQ9CKOINCUGRPQJAFEDLFGTNSUWUYCJDDEUOYWPRCVNDIINNP","address":"SVXOWJJZKV9BSFPVVWYRHAHMCRYXITQYQ9LFJEJDPEN9CTVNXN9IPRODGZUVCZUBVYAO9FZ9UIEBDFTQA","optimalPurchaseTarget":-100,"optimalPurchaseTargetScore":-100,"availablePurchaseTargetList":[],"optimalSaleTarget":-100,"optimalSaleTargetScore":-100,"latitute":"51.898352","longitute":"-1.034625","amountGenerated":"6","pricePrefered":"16","distancePrefered":"15","energyType":"1"},{"index":170,"seed":"PJEWLUAW9FYTLY99IHPTEYYBUGHNMWEEL9R9ODXYOMDQSTLXNRWDQ9GCLGHDMYVBGWUB9WYBIMHTAUVVG","address":"FQQVA9NGVUDNBHTBLULXKDJAYUENOPFQIOEHQIOROHVTFPPLCIOTFKDSKBGRFSETKWZXSGKEZZTNMYLAX","optimalPurchaseTarget":-100,"optimalPurchaseTargetScore":-100,"availablePurchaseTargetList":[],"optimalSaleTarget":-100,"optimalSaleTargetScore":-100,"latitute":"51.439510","longitute":"0.136966","amountGenerated":"6","pricePrefered":"16","distancePrefered":"15","energyType":"4"},{"index":171,"seed":"PLCCUGBGDYSR9VBAQVBGRCLBQXKPNPX9JCUVRLUNPAPJOURLL9VIKGQDCDETWTBMHTRTOOAHQNHOXFGAO","address":"ZOJQVDJ9AWNBGV9LRLVGEXSDZKYVFGNCQKQEVMLOO99ECCXUOIEXUW9RAKGYYEMNDHNOZHC9NJHY9OSJW","optimalPurchaseTarget":-100,"optimalPurchaseTargetScore":-100,"availablePurchaseTargetList":[],"optimalSaleTarget":-100,"optimalSaleTargetScore":-100,"latitute":"51.781940","longitute":"-0.893241","amountGenerated":"5","pricePrefered":"16","distancePrefered":"10","energyType":"0"},{"index":172,"seed":"WIYNMPUVYGQIEPKLJDOLMXGMNJWRMLSXFJBIPRBMEYWEBEHNLIOPMVKWEQEOTOALNMNDUTFVVYGMJOUBC","address":"IZWZAHEWMGZZADNZIHBBWJJJPWMGCQFCSJSBUWFLNWKVQEPBRGGCNLZCUFFZCHQAWCJEGGKLPYDI9HCAA","optimalPurchaseTarget":-100,"optimalPurchaseTargetScore":-100,"availablePurchaseTargetList":[],"optimalSaleTarget":-100,"optimalSaleTargetScore":-100,"latitute":"52.216002","longitute":"-2.231668","amountGenerated":"8","pricePrefered":"14","distancePrefered":"13","energyType":"4"},{"index":173,"seed":"DDRGAYSDQEWFGEWNAJUYRNETGJSUUIDFRRVMVSCXYIDVR9UGKEDUECNCTSJUEQAGVFDHCDFBJTGCCNA9A","address":"OSDNKC9TZDLOCCFDPQNVR9SY9MXUKPFDPDZDUQKGZOWZSFWSHZTOCHMSSIJGMRYQMFMUP9HPQKBPILVIY","optimalPurchaseTarget":-100,"optimalPurchaseTargetScore":-100,"availablePurchaseTargetList":[],"optimalSaleTarget":-100,"optimalSaleTargetScore":-100,"latitute":"51.322784","longitute":"-1.701723","amountGenerated":"5","pricePrefered":"14","distancePrefered":"11","energyType":"3"},{"index":174,"seed":"WWCLWEQKREJICYOKFHGHNNNWNABNXBM9CTJSYWKYNEVYJHRCNYKWPFQWFHBQDXTMQQUUCUYQM9HBGLBCW","address":"ZJQANAYGPFHPBPXXSHRE9VLUKWSBNMHZHDJWALVYXJNVPAMSQ9OVKLIRJDYW9XKQBMEMYMHEBP9KNGORD","optimalPurchaseTarget":-100,"optimalPurchaseTargetScore":-100,"availablePurchaseTargetList":[],"optimalSaleTarget":-100,"optimalSaleTargetScore":-100,"latitute":"51.474033","longitute":"-0.375755","amountGenerated":"8","pricePrefered":"15","distancePrefered":"12","energyType":"2"},{"index":175,"seed":"QOJKEVQOJFKEGGJMOFOKIRCIHVCHHJG9YFMECD9DJQOGCQANG9C9VDCOGUTXVSDQVCSQCRRPML9UNY9AD","address":"ZCBBAWEVNWEFJUNOKJFJAFGDPKMLGHLSO9TCLKYWXUGUBZMSAGNSFMWKILLFEUDKSHRTBSYZLSANITWGB","optimalPurchaseTarget":-100,"optimalPurchaseTargetScore":-100,"availablePurchaseTargetList":[],"optimalSaleTarget":-100,"optimalSaleTargetScore":-100,"latitute":"52.383821","longitute":"-0.549099","amountGenerated":"9","pricePrefered":"14","distancePrefered":"12","energyType":"0"},{"index":176,"seed":"BTYIWAXDSWQORFPBQCKHSXCRVDCUSN9QVFFRGNBQXCIXUBXETXVUEBMEEBOKTF9EOKFPOXGCFLTNACREQ","address":"AOKTHBEFDXO9NENWNHOCBOLNAPUDTLEW9UCPKJWTFMQXHK9ENTXHSGZXWXKGSNMDDCCMKGMAW9DPGRWWW","optimalPurchaseTarget":-100,"optimalPurchaseTargetScore":-100,"availablePurchaseTargetList":[],"optimalSaleTarget":-100,"optimalSaleTargetScore":-100,"latitute":"51.629954","longitute":"-1.223271","amountGenerated":"5","pricePrefered":"15","distancePrefered":"15","energyType":"0"},{"index":177,"seed":"BVQGHUQXDDHFISWENKJRCIBDCLNKQUXLSQRGERRIEFGSPWQMRTKKVTVGROD9YTPHWFHEYGERSSGFWLFMQ","address":"EX9MPZBGNKPLWCAHOVCJWMDYWHXZCLEECWVZPNNKCNWOVTIMSKFBEQTNQHCVTNQNUQCMTCK9TEYDXVGSB","optimalPurchaseTarget":-100,"optimalPurchaseTargetScore":-100,"availablePurchaseTargetList":[],"optimalSaleTarget":-100,"optimalSaleTargetScore":-100,"latitute":"52.167756","longitute":"0.221459","amountGenerated":"6","pricePrefered":"16","distancePrefered":"14","energyType":"3"},{"index":178,"seed":"YMYEQ9WIGCDJNOWAEWJUPLIVLSPLLQGWPRJIUSHQNFIWNHPSJEWLPIEKTEUNRWWPVLSXRULXSFANITACH","address":"MQVLMZFEZIYNAEPBJRRY9S9DSN9PEBZSHKORTZZMQHWXHY9SDI9VHPMGGEUHZHSIIMMHNGKUAPYPEYUZD","optimalPurchaseTarget":-100,"optimalPurchaseTargetScore":-100,"availablePurchaseTargetList":[],"optimalSaleTarget":-100,"optimalSaleTargetScore":-100,"latitute":"51.945277","longitute":"-1.209574","amountGenerated":"9","pricePrefered":"14","distancePrefered":"14","energyType":"3"},{"index":179,"seed":"NUPPAHPJETCIX9RBNTBDHIRIJYFFOXYRDXXOKNTBSRVMKDKLQMDRLGQHOCTBVY9QGKVMWPYLVOKEIQKKV","address":"PHQXHZ9JXZSOJRICGXLQSJCYVNYLRUHTLLBADOYVG9MDPKOOPVA9NULNFPMVRP9ZKTOPOHGWADVRTLTKC","optimalPurchaseTarget":-100,"optimalPurchaseTargetScore":-100,"availablePurchaseTargetList":[],"optimalSaleTarget":-100,"optimalSaleTargetScore":-100,"latitute":"50.960806","longitute":"-0.823764","amountGenerated":"7","pricePrefered":"15","distancePrefered":"13","energyType":"0"},{"index":180,"seed":"FNFMEGXATJISMYYORSSIFJRNYRQDUEQFMMWGEPBUOPCORGGTTWKYEFSFLXSIISTUJH9DPSSIVFCNHXKGT","address":"VSO9VZQBMBRGXFWMKKGKLYQJOGHPSVDBHBJA9MOCLYBDJQDXMCMSEC9R9CJQKAZXVFPZLMEFJYOKSKCW9","optimalPurchaseTarget":-100,"optimalPurchaseTargetScore":-100,"availablePurchaseTargetList":[],"optimalSaleTarget":-100,"optimalSaleTargetScore":-100,"latitute":"52.113501","longitute":"-1.640683","amountGenerated":"9","pricePrefered":"16","distancePrefered":"10","energyType":"3"},{"index":181,"seed":"XLIYSDOY99PSEKVBYKPBEGIXAESPFWNWHISUAPTCNMTYIDXXSMYARJJXRIATBLLWVAWINSQXPAELEYQXN","address":"ECH9HANNPVFJGXRXGVGHGTIWXB9SWRBYPUJNPLURGSOMZTLCTCXDDZBBWJWUHTGAPRJGTDCPVKMQDVPGC","optimalPurchaseTarget":-100,"optimalPurchaseTargetScore":-100,"availablePurchaseTargetList":[],"optimalSaleTarget":-100,"optimalSaleTargetScore":-100,"latitute":"51.499450","longitute":"-0.675250","amountGenerated":"8","pricePrefered":"15","distancePrefered":"11","energyType":"2"},{"index":182,"seed":"MYBJLKYOWJAHXGLYRWCJJDVVUMQGVYVTDWDYHBIJAWPEOSASSECSBGYCCSXFHMEL9MEIRTAPTYBEW9GHE","address":"ZVSIGXGATRMHIBUFJXUUUVETLLLTGRIXAMPUSZPPUYOPLMFNBXPJMJLHWAIQYJXRVUH9SCCFBDXIBOQJB","optimalPurchaseTarget":-100,"optimalPurchaseTargetScore":-100,"availablePurchaseTargetList":[],"optimalSaleTarget":-100,"optimalSaleTargetScore":-100,"latitute":"51.723601","longitute":"-1.947894","amountGenerated":"6","pricePrefered":"14","distancePrefered":"14","energyType":"4"},{"index":183,"seed":"PAJSBDBSFCOSPBEDEOWRUKRISBWFS9RDDULYXMSACTABGCNG9BPWAAFHS9EGJYSW9PAGNTPISJWBFUEBS","address":"RJYK9ZO9XBHZIZCZR9AGWFJEIMSNAI99HTNWTVEIIPC9ARANCWMUVRRHXVR9QJGZXGGERCTCNQMBWWUMC","optimalPurchaseTarget":-100,"optimalPurchaseTargetScore":-100,"availablePurchaseTargetList":[],"optimalSaleTarget":-100,"optimalSaleTargetScore":-100,"latitute":"51.142463","longitute":"-1.653150","amountGenerated":"6","pricePrefered":"15","distancePrefered":"14","energyType":"4"},{"index":184,"seed":"IBRRFEPBTDYRUANGDUYCIONLCERATKWVUJFB9RWBYUHSADNWHMMICMBNXTJANMALINOCFCGTPLBUFATUU","address":"BGOMO9AOOZEBYOFHHSFROVXQGNYDXIPJUVIKVVBSSXTLPVJWS9GOAYGWRYG9SPUICEQHEDJG9ZFCGFXPW","optimalPurchaseTarget":-100,"optimalPurchaseTargetScore":-100,"availablePurchaseTargetList":[],"optimalSaleTarget":-100,"optimalSaleTargetScore":-100,"latitute":"51.729109","longitute":"-1.589741","amountGenerated":"6","pricePrefered":"16","distancePrefered":"13","energyType":"1"},{"index":185,"seed":"PNLOOGMPONFOJEQVJDKYOQH9DCCANFWXBYBVUMRJB9VLVCAOLKFBSCMVOTCTWY9GLKUK9TATKWGPJN9DT","address":"PTKBUUCZSFLNWMLWHNIKOVMWVMWJWLAQSOEKPRPYWSADSFESKCAMKMVTRKBLHCTOUSJBUJSXRHTCXGKP9","optimalPurchaseTarget":-100,"optimalPurchaseTargetScore":-100,"availablePurchaseTargetList":[],"optimalSaleTarget":-100,"optimalSaleTargetScore":-100,"latitute":"51.156031","longitute":"-2.074239","amountGenerated":"6","pricePrefered":"15","distancePrefered":"12","energyType":"2"},{"index":186,"seed":"NPRS9XVAHPJJXWWTJJTBWMYSCQIOXF9FGMQVIIVMLEDPUR99UAWBTUXPPJHAXLDTIKV9XN9JI9NYQ9JXD","address":"IDLAMWQOAUYDOTNJCWKOUKFPSAKFEYPWDVC9DUBFKYTVBDVQFRASJP9ISXTYNCMXETRLZJPPIPYTTAEDW","optimalPurchaseTarget":-100,"optimalPurchaseTargetScore":-100,"availablePurchaseTargetList":[],"optimalSaleTarget":-100,"optimalSaleTargetScore":-100,"latitute":"50.980931","longitute":"-1.254508","amountGenerated":"6","pricePrefered":"14","distancePrefered":"12","energyType":"1"},{"index":187,"seed":"HMRNJPLJGCIBSTTPLSMN9FKDCTBLBQYXNM99CMOVKWIHMBIALFPWHV9LOXMTNIBRPYBLOXUWEETWMWCLN","address":"VQPFSWX9UFXSLMOFHACQXDJFBAYNLF9S9XYXWHJAQPEGHXTBGZXAHINQXQVUOIQECDMUANAKWCZYVWDMC","optimalPurchaseTarget":-100,"optimalPurchaseTargetScore":-100,"availablePurchaseTargetList":[],"optimalSaleTarget":-100,"optimalSaleTargetScore":-100,"latitute":"50.962889","longitute":"-0.042157","amountGenerated":"6","pricePrefered":"16","distancePrefered":"14","energyType":"1"},{"index":188,"seed":"DTWPAP9SRJWRLEV9XYBNMUMFFPVN9RPMBAYSEHIGTFEWDDSNETLFINHAECWNUGXYBKQBFNUBPY9IPPQSJ","address":"FAPG9QM9OQVCDXKDXSFNPULK9MKSNNMCXVABQXAMUNVNR9MWMTMJS9ZPCEWEFOLTHVIPPTMUGPY9SMMGC","optimalPurchaseTarget":-100,"optimalPurchaseTargetScore":-100,"availablePurchaseTargetList":[],"optimalSaleTarget":-100,"optimalSaleTargetScore":-100,"latitute":"51.809894","longitute":"-1.277858","amountGenerated":"9","pricePrefered":"15","distancePrefered":"14","energyType":"1"},{"index":189,"seed":"WUHUAUP9RMKQSDTGDBGBCYSFAKVARXJUFOGMPMMKBVRAWRVVIXRXSTBHAWD9TBDLDGNHTEGJOEPRJDJTN","address":"AUSVBQITVHQNYOMPXGBAKLHDTDVBZEAPFWYBWSDNDBZAQMENKLVYBXTRYCQHMSYUPKTLMUZFXXNSZSHUD","optimalPurchaseTarget":-100,"optimalPurchaseTargetScore":-100,"availablePurchaseTargetList":[],"optimalSaleTarget":-100,"optimalSaleTargetScore":-100,"latitute":"52.226484","longitute":"-1.562421","amountGenerated":"6","pricePrefered":"15","distancePrefered":"11","energyType":"2"},{"index":190,"seed":"RJERUYCJONTDWQOHENNNPU9OFNQUGJVVQGY9PRGLQTGHDR9AYVVJAQDDDSUBRLQXBEIPJLUBQNA9XENVJ","address":"KGHMDNHRUQERAHPRLHIXFQQEDZIDSADBQYSQAPBTFLHOGJIWCOLF9CTTETEL9TVSJJWLHWFPUEMFZIQLC","optimalPurchaseTarget":-100,"optimalPurchaseTargetScore":-100,"availablePurchaseTargetList":[],"optimalSaleTarget":-100,"optimalSaleTargetScore":-100,"latitute":"51.413985","longitute":"-0.024021","amountGenerated":"8","pricePrefered":"16","distancePrefered":"12","energyType":"2"},{"index":191,"seed":"SMDMNDSFJGLTTVMNRYAMRVISN9GVRAOKYSDRIGJBCXDEXBCYSWHNRXMTBHHEDLRBBFY9Q9NVQMYBULUVO","address":"TPSBQCVFULLYPJTBAIQIRIBJDUWWZSRRGXXPPTLAHI9VX9VMDCPG9RCODVRPAWXODFAEBVHVSJESSRVPB","optimalPurchaseTarget":-100,"optimalPurchaseTargetScore":-100,"availablePurchaseTargetList":[],"optimalSaleTarget":-100,"optimalSaleTargetScore":-100,"latitute":"52.398938","longitute":"-0.663007","amountGenerated":"8","pricePrefered":"15","distancePrefered":"13","energyType":"1"},{"index":192,"seed":"KQKLCNNFQCVVLWLTKHJPYTTGERYAFXHH9QUWBJOTPQUWXEXXWOLXQATIQPIRSAHNQPJGYUOA9FQAIPMUW","address":"MGYTACHDUWWLVPOENPROZOENKLWO9HYS9DOCRMYSWZY9WZXPIDDPKBSYNFQLTFPANFCDCRYBNQKTFJBMY","optimalPurchaseTarget":-100,"optimalPurchaseTargetScore":-100,"availablePurchaseTargetList":[],"optimalSaleTarget":-100,"optimalSaleTargetScore":-100,"latitute":"51.535823","longitute":"-0.722818","amountGenerated":"9","pricePrefered":"15","distancePrefered":"12","energyType":"2"},{"index":193,"seed":"QBVQED9JNCLLBFNLYIOAPBNXBLLRNNKAUOMLVIABNQPBEGUIFMXWQBMKKPWCPLVJIVDDHNE9XYTF9SJBJ","address":"FMSHS9CJHHOMBPLTEXXETLRRKDVVSGKWPNKWRZZSDRKNBYOKZSYHRISBNVSAL9SUO9EPIAPXEVGGXVCJW","optimalPurchaseTarget":-100,"optimalPurchaseTargetScore":-100,"availablePurchaseTargetList":[],"optimalSaleTarget":-100,"optimalSaleTargetScore":-100,"latitute":"51.771884","longitute":"-1.766056","amountGenerated":"7","pricePrefered":"14","distancePrefered":"10","energyType":"0"},{"index":194,"seed":"LNKBICDXKWROQKVHDDLUGKYBVGGXVMUMUEEEXACDXBUOISVVGQVVHGDSSALJRCDLPWBNPKL9WQTEVEBRA","address":"BKKERFBYAJEHAKZROKNDJKABMCFNLILLSBHAGBSVHTBAKQGUJLBLEAVZJKBPIDUQTIORVCLSNRSLUCQRB","optimalPurchaseTarget":-100,"optimalPurchaseTargetScore":-100,"availablePurchaseTargetList":[],"optimalSaleTarget":-100,"optimalSaleTargetScore":-100,"latitute":"52.207453","longitute":"-2.230712","amountGenerated":"8","pricePrefered":"15","distancePrefered":"11","energyType":"2"},{"index":195,"seed":"EBGQWFGOVXFOGLASHSWENCIFGODUCNHPQKYRB9BSWBWH9CMCVGGGHBXURHLHTUJIWXAHEHLKKXAKVXTMX","address":"YMMUQCVEOIQNEPWGPTFITMXGBBWIAPXVAWCIPQWRTW9ZYQEJACEIKBLFQZEKQIJI9TGIGGQJPWLSSZ9HW","optimalPurchaseTarget":-100,"optimalPurchaseTargetScore":-100,"availablePurchaseTargetList":[],"optimalSaleTarget":-100,"optimalSaleTargetScore":-100,"latitute":"52.282209","longitute":"-0.321592","amountGenerated":"7","pricePrefered":"14","distancePrefered":"13","energyType":"3"},{"index":196,"seed":"ISBUGFOQQHBNELADMBGMKLDTJQXWKOTDYOQBWHNLAMFBMURAOPPOSUXMTFCOR9YPFRNAVIOUHYWEVBFOG","address":"TIWZSQ9OHGRNXDWS9HUWNRWKBIJCSNDDGHYKZWQTJJRURDAYSJDDGMEYGHRJFBNMSZMULHORCIOHORKIZ","optimalPurchaseTarget":-100,"optimalPurchaseTargetScore":-100,"availablePurchaseTargetList":[],"optimalSaleTarget":-100,"optimalSaleTargetScore":-100,"latitute":"51.294675","longitute":"-1.462758","amountGenerated":"10","pricePrefered":"16","distancePrefered":"10","energyType":"1"},{"index":197,"seed":"BDTKGK9FNSWKNCPIXBM9GSGMGUMTIKIWJLQHIEYDOVPAIWJAIGPLTSMOAOH9VGDLSNQPRCJUADADJDFNQ","address":"AKBQGGQTMEKKQZVSZRUURG9UCHPPYVDAHGMSWHDIRGUOJYAQHH9MVTYLTWHAHZQHCLOWRLS9DMSPEPQZW","optimalPurchaseTarget":-100,"optimalPurchaseTargetScore":-100,"availablePurchaseTargetList":[],"optimalSaleTarget":-100,"optimalSaleTargetScore":-100,"latitute":"51.328910","longitute":"-0.416783","amountGenerated":"9","pricePrefered":"15","distancePrefered":"14","energyType":"3"},{"index":198,"seed":"VFWTCVVUJ9KQRVSHTILWDWKL9PWRWROCHEVMDOVMJNHVVP9PUDUTFQUADAVQSYQVJUBSGCUNRNAIVBFEV","address":"NOBWGDQSSSTKCEZWZPLMD9WIOEGGOWCRIXJKGHDNNGOQDJFNXPDZAKMO9OADDVBFS9ZDXXQAWVMQBQDEZ","optimalPurchaseTarget":-100,"optimalPurchaseTargetScore":-100,"availablePurchaseTargetList":[],"optimalSaleTarget":-100,"optimalSaleTargetScore":-100,"latitute":"51.297524","longitute":"-1.471297","amountGenerated":"9","pricePrefered":"15","distancePrefered":"12","energyType":"3"},{"index":199,"seed":"SATSG9ECITHGLJGPCXLNPQRS9CDOAUPSEQRM9WNLOSOCKYUINAEMM9AYPTINEOHCVPBSB9TWOHPXVUIEW","address":"FRTCKWESBBRJGWWASVMHDHREZIQPOCFEQLJKLEBKXJZPCYIRFOFCGDSZCNGCXATUASSFEYNETHGQCNWTX","optimalPurchaseTarget":-100,"optimalPurchaseTargetScore":-100,"availablePurchaseTargetList":[],"optimalSaleTarget":-100,"optimalSaleTargetScore":-100,"latitute":"51.245996","longitute":"-0.383613","amountGenerated":"8","pricePrefered":"15","distancePrefered":"12","energyType":"4"},{"index":200,"seed":"MQLQNUYEPTYWDXIILJVHY9EAJPMYDQNUSKJWHKX9AQB9HWKKNAEHCEWGPQMKG99PQHUOXIGNOVD9PUHMM","address":"YVZIYHZRABYOWKNMOTSYDW9RMWYVQDBXKMJKOZH9ONEODZQSSYFTMJRQJJKILFJRGWZSAFBUBSMGVU9NA","optimalPurchaseTarget":-100,"optimalPurchaseTargetScore":-100,"availablePurchaseTargetList":[],"optimalSaleTarget":-100,"optimalSaleTargetScore":-100,"latitute":"51.810957","longitute":"-0.006190","amountGenerated":"8","pricePrefered":"16","distancePrefered":"12","energyType":"3"},{"index":201,"seed":"BWVNTRNQFGHDTRRFAHD9IAQPELUSKNPVYWELUOADCGNSHOQFWNHEDMEFKUNFAWAFNJAC9IJIYQODNCKUB","address":"PDIANDRAQJSLPLKJETYXQBLXVKWSGUIMWRKTDSODLYGKGCRSHULNCUNB9XC9SXALEVWRNIKVTSFUYGAXD","optimalPurchaseTarget":-100,"optimalPurchaseTargetScore":-100,"availablePurchaseTargetList":[],"optimalSaleTarget":-100,"optimalSaleTargetScore":-100,"latitute":"52.223011","longitute":"0.201267","amountGenerated":"9","pricePrefered":"14","distancePrefered":"12","energyType":"4"},{"index":202,"seed":"XPNBLPYORNOXOLLUQJTCLTUTDI9YQYKYUUL9KQGGTOTTTMADPHCVRVGFAQCIJEDPMRXXOHHQA9IJGEDDY","address":"MVOMBGKPVYEU9VNATWVXWWXXBTDJNKFBSSAWHJBFVWOVHYUQECXBJZVNEMIPMB9RLYHHLGVYMRVHEJCSX","optimalPurchaseTarget":-100,"optimalPurchaseTargetScore":-100,"availablePurchaseTargetList":[],"optimalSaleTarget":-100,"optimalSaleTargetScore":-100,"latitute":"51.972388","longitute":"-1.903144","amountGenerated":"9","pricePrefered":"14","distancePrefered":"13","energyType":"1"},{"index":203,"seed":"DPABFXDLVWAIW9SDKVFRIDACNSDSUOURIXBPNILCTKYRURIVVKVLLUCDSTFYBVRLBIQUEIDWC9KVPAKDO","address":"JZVEZWKJTTKXHKWWXOQNYMLLASWUUIHPTU9JBXGUOJVPEDISNZKDNKOTGFGDDXKUHYNDYYLEB9BTKUDGD","optimalPurchaseTarget":-100,"optimalPurchaseTargetScore":-100,"availablePurchaseTargetList":[],"optimalSaleTarget":-100,"optimalSaleTargetScore":-100,"latitute":"52.029157","longitute":"-1.874118","amountGenerated":"8","pricePrefered":"15","distancePrefered":"13","energyType":"2"},{"index":204,"seed":"IVKTD9ONAJSKQVAUUOXOPYGBQTTRRQOHGFSKYFIHBUVJNOS9MDEGDXVAOBDLNE9XKFQUWDJ9EMPAAFOEK","address":"UHGMONXHISPTKBDPIJEQTRXEHAZDBQUXLCNNSVNOEHREFXTJNITYWSJJMTFIBNPMIEN9VJUSRIBIDFPDW","optimalPurchaseTarget":-100,"optimalPurchaseTargetScore":-100,"availablePurchaseTargetList":[],"optimalSaleTarget":-100,"optimalSaleTargetScore":-100,"latitute":"51.740661","longitute":"-0.346945","amountGenerated":"5","pricePrefered":"15","distancePrefered":"12","energyType":"1"},{"index":205,"seed":"BAHXSENGTKGEEDTLOUMOWWDTSCMQNEIPPYLPRPQPAAHRVYRVBPJUXBKC9WG9USDTJJER9ITUALKUKLSBO","address":"9IDSKGWJHAQGDCLCMMHJKDODLZLIJGBTVEAVGXYHVLGOERLBLMDJWBUPXLPQZPHGNPCQSLRMNOWHWELLZ","optimalPurchaseTarget":-100,"optimalPurchaseTargetScore":-100,"availablePurchaseTargetList":[],"optimalSaleTarget":-100,"optimalSaleTargetScore":-100,"latitute":"52.016472","longitute":"-2.324863","amountGenerated":"5","pricePrefered":"14","distancePrefered":"11","energyType":"4"},{"index":206,"seed":"OYKTTMNFFSQXHSPQVGKBUNTHPFMMUTATJFBWTBBAGTGNAQNTPADITUEFJEKNPRQMPUDPXKATTEFPFJGQA","address":"LVFWSTTEHOLDKXIEW9DVUYTM9KQMHGQGTGIIOQBFANYRFLXCENDKUBBUYCCZJFSOW9TXXUCDTARETJORZ","optimalPurchaseTarget":-100,"optimalPurchaseTargetScore":-100,"availablePurchaseTargetList":[],"optimalSaleTarget":-100,"optimalSaleTargetScore":-100,"latitute":"52.109925","longitute":"-0.617708","amountGenerated":"9","pricePrefered":"15","distancePrefered":"10","energyType":"2"},{"index":207,"seed":"KPBUCKADGBDIXLNGFCDKTEXKFOMFGGQMRNF9LIF9NLPMGTJEOHXEMU9GKNDOCXTHSPEDQDRHAIVVFJJA9","address":"GRQ9CMPSSKYTAYFXKIKCUB9CHNBZABFMJHFA9QJVWVWZDLRGLKRZPRTDHDPMVMDFFMXJWPAUMEARTLQPZ","optimalPurchaseTarget":-100,"optimalPurchaseTargetScore":-100,"availablePurchaseTargetList":[],"optimalSaleTarget":-100,"optimalSaleTargetScore":-100,"latitute":"52.011760","longitute":"-0.303908","amountGenerated":"7","pricePrefered":"14","distancePrefered":"11","energyType":"3"},