[{"index":0,"seed":"WYPIFBENOFHR9JHYHQAMDUDMKVUADIWVMU9DMXIATNIUSS9QHNMDG9ODF9BRNKFOHSGDUWAWRCMB9COTK","address":"YJGISEVPISSVZK9GXCSOOLFYIJJTCWYHBLKUWEXAWSSFIWH9DBZJZY9NPFPSFNRAFFSYLLQEXPHDJGJJX","optimalPurchaseTarget":-100,"optimalPurchaseTargetScore":-100,"availablePurchaseTargetList":[],"optimalSaleTarget":-100,"optimalSaleTargetScore":-100,"latitute":"51.398502","longitute":"-1.700755","amountDemanded":"4","pricePrefered":"15","distancePrefered":"10","energyTypePrefered":"2"},{"index":1,"seed":"POC9WNETCTLRWACBVK99FMMAUEXOPBK9H9YYGMBBCDWID9PCCMYEKTKXUYB9FBBVYYGQKGGCXGJBCDRVF","address":"NMVXIVRWDQHSUB9P9JPGMUYSHSRDPH9CRTPXQAVSXVYWQSUITEWPNSEGPCMKXHENJSSKECLNCQJDXOTMW","optimalPurchaseTarget":-100,"optimalPurchaseTargetScore":-100,"availablePurchaseTargetList":[],"optimalSaleTarget":-100,"optimalSaleTargetScore":-100,"latitute":"51.236074","longitute":"-0.062558","amountDemanded":"5","pricePrefered":"15","distancePrefered":"14","energyTypePrefered":"3"},{"index":2,"seed":"9EUPKTMWBNADGEQHGSHRKPWAAARIRQ9MGSQHGORKXPUGVPCGKUCBENVJYYJRWUNLN9BERJPHXVFUCIKGG","address":"ZJYXZPYYCUNWUEM9XTOKPBYIZEESL9NZZPCM9EXEQQWFOXWIUPAKZQFFFFUK9VFWJCPLYORJIMPMJJLKW","optimalPurchaseTarget":-100,"optimalPurchaseTargetScore":-100,"availablePurchaseTargetList":[],"optimalSaleTarget":-100,"optimalSaleTargetScore":-100,"latitute":"51.361347","longitute":"-1.310581","amountDemanded":"1","pricePrefered":"15","distancePrefered":"14","energyTypePrefered":"3"},{"index":3,"seed":"MFECIKTJDGU9HAWOKYYIPYGFEDSJTWGMEJP9IEPGQDDEYXAWIAFQKDKMJUSUTCXJFMPXQGUNAIIRLQM9A","address":"LO9PROIEOVAHATHNXAPGVQQFTUNVSIWRFP9PLZNHBWYQOOXUVDZHYDGUDWZNWGXOJKRCDASZDAKOSOXKY","optimalPurchaseTarget":-100,"optimalPurchaseTargetScore":-100,"availablePurchaseTargetList":[],"optimalSaleTarget":-100,"optimalSaleTargetScore":-100,"latitute":"51.903367","longitute":"-1.541382","amountDemanded":"1","pricePrefered":"14","distancePrefered":"12","energyTypePrefered":"4"},{"index":4,"seed":"FPVQLFLRRVQ9BWFTAMDLQJMTOOJNSEGDVJ9VRBHHGAWMWROFMQGKOHDLYCUFPWSWSWBXIIXLVNUTUINOV","address":"IAZRVQDMRRGGCHOBEMQPM9FRQGUTWGIOTOPTKUHIPKGMUBTAFPARTQHTPIQSLNLDT9LNSWP9PYQSEOCGA","optimalPurchaseTarget":-100,"optimalPurchaseTargetScore":-100,"availablePurchaseTargetList":[],"optimalSaleTarget":-100,"optimalSaleTargetScore":-100,"latitute":"51.844050","longitute":"-0.187219","amountDemanded":"2","pricePrefered":"15","distancePrefered":"13","energyTypePrefered":"2"},{"index":5,"seed":"SXXIMYFXMUXDGO9JMAAWTYDLUBICXWC9K9YMJTKFLKQXMNQWGAXAIYD9YEDQBVBRBYBVLGKHVAGEPRGLL","address":"LPDTAPWKBEPBTQWPTPSZECHLWDKLTGKKTJXYOKFOBDPFYGGAJGNHC9UWQSCWPWDT9QZZWUFOGQFSPMEPA","optimalPurchaseTarget":-100,"optimalPurchaseTargetScore":-100,"availablePurchaseTargetList":[],"optimalSaleTarget":-100,"optimalSaleTargetScore":-100,"latitute":"51.348857","longitute":"-0.506102","amountDemanded":"1","pricePrefered":"15","distancePrefered":"13","energyTypePrefered":"2"},{"index":6,"seed":"JELPAMMULACOQJTVEBU9HPPCLUIJBJ9IJBBOQULFYGPYUOTDP99ULKVTQ9SQXB9GINYNTHWEYQYQOUCDF","address":"Z9MEERTRTY9TSJZJNSRSWUXWXBOFYNWEIZUZNXBL9XLZRPAMKLKINIZKOVCFR9QWCEBVK9CXQDOGIIESW","optimalPurchaseTarget":-100,"optimalPurchaseTargetScore":-100,"availablePurchaseTargetList":[],"optimalSaleTarget":-100,"optimalSaleTargetScore":-100,"latitute":"51.557240","longitute":"-0.945539","amountDemanded":"5","pricePrefered":"15","distancePrefered":"11","energyTypePrefered":"3"},{"index":7,"seed":"BVYLHNHFUTDGYDPHQLT9YDSMUXGGMPK9VQJRGQTGLQCDEUSNRKKQEDCJJUTJQBTWWFFAPSFGYKOBTIIQL","address":"KWCTFAIEEUP9OLVPQQPBYRVANGQHSBQSVQWNOJGVKFKWDLHARHZFECHBWTYIOAVIPAIEIRNWTBZCYS9XY","optimalPurchaseTarget":-100,"optimalPurchaseTargetScore":-100,"availablePurchaseTargetList":[],"optimalSaleTarget":-100,"optimalSaleTargetScore":-100,"latitute":"51.672245","longitute":"0.127389","amountDemanded":"3","pricePrefered":"16","distancePrefered":"15","energyTypePrefered":"4"},{"index":8,"seed":"CBJITEKCHLEVRULPTRJKHRLOAQLKWVTSJIPUNUITQQOOSSVHNTNLXUWFOYRO9WPCLYJJGLW9HEKPEXXNR","address":"WT9YQNSXTYAYRLWCYLQVRSJYMIYUIVTGIRVRGLUCNURHUJ9UHZNNSKOQQYPOZQUHJCSEDOBFXPPQUXSYZ","optimalPurchaseTarget":-100,"optimalPurchaseTargetScore":-100,"availablePurchaseTargetList":[],"optimalSaleTarget":-100,"optimalSaleTargetScore":-100,"latitute":"51.286367","longitute":"-0.040963","amountDemanded":"3","pricePrefered":"14","distancePrefered":"11","energyTypePrefered":"2"},{"index":9,"seed":"XKG9XKEEQAMKYKFAKDLVVMRKREHN9BDUDOYQCFGAPLAS9WVDYMQLIOCXRSIAGJAHQCHQCLHYDEIQN9OYC","address":"JKI9LU9LRFMCLJHYXXYKCLYESVCAXZLSPRVJANUQEKRZOZXTLZRBCSXTPX9MCXPOLFFFOYRTYWSSR9YMY","optimalPurchaseTarget":-100,"optimalPurchaseTargetScore":-100,"availablePurchaseTargetList":[],"optimalSaleTarget":-100,"optimalSaleTargetScore":-100,"latitute":"51.208420","longitute":"0.280187","amountDemanded":"3","pricePrefered":"15","distancePrefered":"13","energyTypePrefered":"3"},{"index":10,"seed":"JOJHALYID9BRJFCTHGFCPOMLXDQGEOIDCAEQYTLTAGGAUCDLIWNYGOPIGKETRAUESQTDUSWWKWKPUHGB9","address":"DAASUQXWRIAOJDARYPJVXWOSZALZUIRHCGTEOMILQXAWOKEZUYXYDBACBFLDZLMPITCLKKFUYHRFHVEBD","optimalPurchaseTarget":-100,"optimalPurchaseTargetScore":-100,"availablePurchaseTargetList":[],"optimalSaleTarget":-100,"optimalSaleTargetScore":-100,"latitute":"52.192102","longitute":"-1.003573","amountDemanded":"2","pricePrefered":"14","distancePrefered":"12","energyTypePrefered":"1"},{"index":11,"seed":"9JMTMUCPCENLHSDEMNPWSPGGGJWLLLURPXJFWUSY9HMCETWDILVUTDMUOPBM9QRLGHMCUJMJAUKBUGUGG","address":"OCVMD9IQXQVUGCQKYKNWEXMYJAWK9PYYDG9ODCTQDMSPLVSVIUNDLROCUPICOFMRDLXVLHJIUROKGKXN9","optimalPurchaseTarget":-100,"optimalPurchaseTargetScore":-100,"availablePurchaseTargetList":[],"optimalSaleTarget":-100,"optimalSaleTargetScore":-100,"latitute":"52.242188","longitute":"-1.840705","amountDemanded":"5","pricePrefered":"15","distancePrefered":"14","energyTypePrefered":"1"},{"index":12,"seed":"PGMTXA9JFPMRJVFALQMIONQAKYUXLOFOQNJJTBTUQBBDMBGVXJOPYPGWORNBCXRGLUISADBGRJLUGOTBO","address":"BOCYAEDNWAKDHKVAZJMJAQKWDVUESHKBRVJHSPVUVTQAGBWXTAJIILXAFIGSTHNIBOSXOBIYAJOENDGLW","optimalPurchaseTarget":-100,"optimalPurchaseTargetScore":-100,"availablePurchaseTargetList":[],"optimalSaleTarget":-100,"optimalSaleTargetScore":-100,"latitute":"51.985411","longitute":"-1.390161","amountDemanded":"2","pricePrefered":"16","distancePrefered":"11","energyTypePrefered":"2"},{"index":13,"seed":"CPAOAGNMWXL9JQUBIYQMROLABQMSMQOCSJXFUFUPLYBVVVNTXNBYDJ9RENBFPNAVT9IENO9MJOKIGQLCK","address":"OOJHUHPI9YVSLAP9RTCQFJHTEFD9ZGVUHAZDDXDYIPHIRCIYEFCWXADGUGQXCFAACXNKMMBJNCBSNI9IA","optimalPurchaseTarget":-100,"optimalPurchaseTargetScore":-100,"availablePurchaseTargetList":[],"optimalSaleTarget":-100,"optimalSaleTargetScore":-100,"latitute":"52.093741","longitute":"-1.375586","amountDemanded":"5","pricePrefered":"15","distancePrefered":"12","energyTypePrefered":"2"},{"index":14,"seed":"FSOFQCAQKBRCS9HIRAOR9QVUUXFEF9KOSQKTVDBN9DNGSKEFSENFOFBGMDX9UOQUFD9YJRWBJ9V9SMQCM","address":"CZGGHQQQITJAITUUDIBSDF9MFEYJJFXVAZYGUFHOXBQNWZCXTDLFFGL9RDJJJQLENEUAYUHEVPXECRPQC","optimalPurchaseTarget":-100,"optimalPurchaseTargetScore":-100,"availablePurchaseTargetList":[],"optimalSaleTarget":-100,"optimalSaleTargetScore":-100,"latitute":"51.634208","longitute":"-0.689148","amountDemanded":"2","pricePrefered":"15","distancePrefered":"13","energyTypePrefered":"4"},{"index":15,"seed":"GCRKFABNHPQKPXPCQOVESXHFMLTJICOYFYKTJJPAHTCBEMBBKHSJF9DJHHCFCCNBVNSDWGTNHWWOGMEN9","address":"SW9UBEIDSQOZNIIFPOVFXKMNGREIZFGYBNF9RNMJUYW9IOWCIZ9RBBNASQCJSRXSLDYZXRYCJFSGVCLNB","optimalPurchaseTarget":-100,"optimalPurchaseTargetScore":-100,"availablePurchaseTargetList":[],"optimalSaleTarget":-100,"optimalSaleTargetScore":-100,"latitute":"51.855910","longitute":"-0.286504","amountDemanded":"1","pricePrefered":"15","distancePrefered":"12","energyTypePrefered":"3"},{"index":16,"seed":"JGWLCMEBGSLSEBVWGSM9KFYFAQAVLMCARAYKIVUHMGAJFOOOEAFPKTVYSTDUGWHBJLVOLAYSPIRUVLJJO","address":"XLWDAWVNREOBWLPSAC9ARTTSGZTKRGAZI9KQJLOHCDOTQYLLGSRAVTQFPAKGFQKEGOFNPTUJHQNJHXUJA","optimalPurchaseTarget":-100,"optimalPurchaseTargetScore":-100,"availablePurchaseTargetList":[],"optimalSaleTarget":-100,"optimalSaleTargetScore":-100,"latitute":"52.370249","longitute":"-0.020811","amountDemanded":"5","pricePrefered":"14","distancePrefered":"14","energyTypePrefered":"3"},{"index":17,"seed":"RGXHOWIEVMFXHXHH9BRNBEQCJYVC9GEWFWSLSWAHRLRTREGJPXLBSQP9PMPRIOALPOXJPQEJCCSPRYXUU","address":"OZVVRRVUMQHRVXJKBTPUDJCBTJYBWMR9BJHYAQSG9RGDUSUBGGJOFHQNIRHPBN9WWPHPXJZH9OGPBE9LW","optimalPurchaseTarget":-100,"optimalPurchaseTargetScore":-100,"availablePurchaseTargetList":[],"optimalSaleTarget":-100,"optimalSaleTargetScore":-100,"latitute":"51.902885","longitute":"-0.438813","amountDemanded":"6","pricePrefered":"16","distancePrefered":"15","energyTypePrefered":"2"},{"index":18,"seed":"OVXLBHMHMOBHXMNAEWOSWEEKQCBSQUXCDRKUDHDBPONCJNPBBKIKFMFPMF9QEMEMGCBNEFHKPIRHQDDEG","address":"WOT9THEZJMBZOOYMKVKZCAGCAZKFPAX9KKVOXCUZWY9ZJEZGKXGVGJEYTJIU9OICMKDWMXAHUDGKPKTS9","optimalPurchaseTarget":-100,"optimalPurchaseTargetScore":-100,"availablePurchaseTargetList":[],"optimalSaleTarget":-100,"optimalSaleTargetScore":-100,"latitute":"52.362612","longitute":"0.045723","amountDemanded":"4","pricePrefered":"15","distancePrefered":"14","energyTypePrefered":"1"},{"index":19,"seed":"OPRRMRNEYXEKXBMBGBQHDQMVQJMQUKGNYEOIPOBUUJFDMFDDPFFEB9CR9QHIWQAKCSNHKGHPIBTCTGWCO","address":"XRUSDOQPEZMNL9QEXVZBQROTJKJA9FTISFEFUMFQJKWRLJH9HKLVIEYXAWPCXDBUPUANPUUI9W9URWVSA","optimalPurchaseTarget":-100,"optimalPurchaseTargetScore":-100,"availablePurchaseTargetList":[],"optimalSaleTarget":-100,"optimalSaleTargetScore":-100,"latitute":"52.324997","longitute":"-0.681549","amountDemanded":"5","pricePrefered":"15","distancePrefered":"12","energyTypePrefered":"3"},{"index":20,"seed":"DWTEWSWDQBJ9UQRTM9TAFPAWJMA9MQCLMAMKFNISSG9DKYWOOXXCPRHEMRNBHCQYXXHIHKNHJ9NYU9TIE","address":"ZVBEPIDBKIAWZNCSANTASN9QAAFLFYHEUAIK9STSZF9FAZONDPYESGFRHYPSHJADFTPMZRLYNDFNNWTCD","optimalPurchaseTarget":-100,"optimalPurchaseTargetScore":-100,"availablePurchaseTargetList":[],"optimalSaleTarget":-100,"optimalSaleTargetScore":-100,"latitute":"51.359728","longitute":"-2.132488","amountDemanded":"6","pricePrefered":"14","distancePrefered":"11","energyTypePrefered":"4"},{"index":21,"seed":"YAN9MNOLBQOYBUAQ9SDBMEPFBX9QXMKSNWQWMNF9TVGVBEEADTKOMYEEM9YVNTEA9AXTLVYRGQTJUJXEX","address":"DG99VNVLJZYRD9TTEWDCTLEMMKLEWD9WMIHJWYLZZZGBKXVKTDZMU9ASBGU9FJSQCDVSXDNVDYFHOJHIZ","optimalPurchaseTarget":-100,"optimalPurchaseTargetScore":-100,"availablePurchaseTargetList":[],"optimalSaleTarget":-100,"optimalSaleTargetScore":-100,"latitute":"51.297305","longitute":"-0.756142","amountDemanded":"5","pricePrefered":"16","distancePrefered":"11","energyTypePrefered":"3"},{"index":22,"seed":"VOPWLFGUXIMSBHWTWXLSSOHXRKFYSTWKTDPWLFTWTSXPJXORDPNJKWWVQMMNAMSLDBI9JD9SHYPI9EPAY","address":"NA9GJEWBSYGIMMQT9GFMMJYXMMPGJQANZXN9NVIW9I9GJZWCJZTDHZDRQHVLQCZZEZFWCYVAREBPOOHBY","optimalPurchaseTarget":-100,"optimalPurchaseTargetScore":-100,"availablePurchaseTargetList":[],"optimalSaleTarget":-100,"optimalSaleTargetScore":-100,"latitute":"51.634266","longitute":"-2.346908","amountDemanded":"4","pricePrefered":"15","distancePrefered":"13","energyTypePrefered":"2"},{"index":23,"seed":"9EEMY9FVGMIECLEUILYJXSVBKMWHHXLFAXSRHTAWQBDBXUVUUOLJANCEWNV9JLGPSEIEQXAMAEACPQRQU","address":"FCBUEX9T9DQFEEDAIQYTGCBANYFPKNOFZDDOIMWPJWVMPTQRLQUVPFPAAASJVUVJEWE9Y9AYT9UVMAZBX","optimalPurchaseTarget":-100,"optimalPurchaseTargetScore":-100,"availablePurchaseTargetList":[],"optimalSaleTarget":-100,"optimalSaleTargetScore":-100,"latitute":"52.251046","longitute":"-0.114219","amountDemanded":"1","pricePrefered":"16","distancePrefered":"13","energyTypePrefered":"2"},{"index":24,"seed":"JCHQHQLUMNBBVGXIBVYXOWDLKDUSCWAX9SWJUQSEVGABKEQHFOSKKPQILWTXGJSA9IRASQRYDBPA9DTDD","address":"AQ9MVGODTWJSHG9FXDKGASGSOTZDOUDLOQYATUYTSIBWYHPDOWJOKZQOWSKDDYZQIZBZZRQWBLRSQQUDA","optimalPurchaseTarget":-100,"optimalPurchaseTargetScore":-100,"availablePurchaseTargetList":[],"optimalSaleTarget":-100,"optimalSaleTargetScore":-100,"latitute":"51.164694","longitute":"-0.816306","amountDemanded":"5","pricePrefered":"16","distancePrefered":"14","energyTypePrefered":"3"},{"index":25,"seed":"REUKLKSTNEXAMWIFWHXVGFOLTBHEMMNQ9DPJCADXCVDDNIJIFXQHNTO9YCKXDSTWLMHWQLALONMQK9WNW","address":"I9PISSYLLMCWKJNBBCVTPLXLZBMQNPUFRLSQCYHAFHPCFRTMJZFDWYVPIIBHCJOTADUSQ9TGLNUDVEA9D","optimalPurchaseTarget":-100,"optimalPurchaseTargetScore":-100,"availablePurchaseTargetList":[],"optimalSaleTarget":-100,"optimalSaleTargetScore":-100,"latitute":"51.650225","longitute":"-2.216813","amountDemanded":"2","pricePrefered":"15","distancePrefered":"14","energyTypePrefered":"1"},{"index":26,"seed":"QFDIQYCBEHKBHODQUDTMXONTGGHCSFVDPISTVIEYHKC9DLKRIMWSMWPTK9CWKOJFFJVOIEFMOPLMAUULH","address":"PHNXX9HGGCTCSBJMMZLEPMESMWQKPKSXPLSYXZF9YJJBXHMIWKMWOBDIYLYJYJFDAYJGLP9JSJSPEJVNX","optimalPurchaseTarget":-100,"optimalPurchaseTargetScore":-100,"availablePurchaseTargetList":[],"optimalSaleTarget":-100,"optimalSaleTargetScore":-100,"latitute":"51.725442","longitute":"-0.358829","amountDemanded":"1","pricePrefered":"15","distancePrefered":"13","energyTypePrefered":"1"},{"index":27,"seed":"RISHVMHHTUQWSBVKOI9YVIB9QXYESPWTURAILFJ9QCWKVVEQKJLPDAFKFYGELAKAVOSCOSSTAGSQ9NLAP","address":"VREKRBDNGBRCRDOJPKVQMPLQXDISUSJXCYBHUOQLMCCLDNBIVASNBDIAANVCNEPY9DFIKYPSZZMMVUYXY","optimalPurchaseTarget":-100,"optimalPurchaseTargetScore":-100,"availablePurchaseTargetList":[],"optimalSaleTarget":-100,"optimalSaleTargetScore":-100,"latitute":"51.608881","longitute":"-1.309270","amountDemanded":"3","pricePrefered":"14","distancePrefered":"13","energyTypePrefered":"1"},{"index":28,"seed":"LUQBEFOLVDWINASNBDYOGKMKLMQJDIEKADKKBUOAESWXEPTDNHXEXWA9RJIFMEXODJTFHSQDDJKRRBC9E","address":"AYXXG9DBXRGNQTSUTZAUHXCRI9IDZKHCKQIDCLQCXKUACDEJV9KMMSAB9VAOCDMOZHXMSX9BWBSYKYDCY","optimalPurchaseTarget":-100,"optimalPurchaseTargetScore":-100,"availablePurchaseTargetList":[],"optimalSaleTarget":-100,"optimalSaleTargetScore":-100,"latitute":"52.249181","longitute":"-2.036753","amountDemanded":"6","pricePrefered":"16","distancePrefered":"12","energyTypePrefered":"0"},{"index":29,"seed":"DJMRV9RTXNCJPOALPSYMCIYOAXBJDPXLRNJSNACRAOQWT9JEPJWOBIJVJMLLRKKVUMGXAIHFMXXORWSDO","address":"KMDFZYATIVQKXTKTEZXMVSCCBPLOI9UBJJENRG9VOWICPKMSSCMSVFXDMWNBUXPFNZNEDJWIHIXEUJKCZ","optimalPurchaseTarget":-100,"optimalPurchaseTargetScore":-100,"availablePurchaseTargetList":[],"optimalSaleTarget":-100,"optimalSaleTargetScore":-100,"latitute":"51.400378","longitute":"-1.803692","amountDemanded":"4","pricePrefered":"16","distancePrefered":"14","energyTypePrefered":"3"},{"index":30,"seed":"QLFAJMKCASGXKHSLX9RTEFWQDGRTGDEGMLIDRYTTOUIQOOWNEMJJASBCPIJOAVUQOONDG9CXUSID9YYIH","address":"9XWOZWYFTCATXTVNOLSLYZVKDKX9ZMFBGACSIIMYSBZ9KB9WQDQQZSQDRGZLBXAOTCGRJ9GXLLSGRBHEW","optimalPurchaseTarget":-100,"optimalPurchaseTargetScore":-100,"availablePurchaseTargetList":[],"optimalSaleTarget":-100,"optimalSaleTargetScore":-100,"latitute":"52.126255","longitute":"-0.351208","amountDemanded":"6","pricePrefered":"14","distancePrefered":"11","energyTypePrefered":"3"},{"index":31,"seed":"CCFSULEPABFPD9UU9EPJPDQFIYWOEESX9PLI9RLFAMWQYGSPSVABFAAKVFNTS9CDOKYHSBVMFRIDINOVF","address":"GOVLMMVGXVPQJAMFMRPQONJPYFPZQJ9FKRYGFJCFPXXEYUAIUSOMMRYTNENSXVVIEIOQINYA9RYDOMEIX","optimalPurchaseTarget":-100,"optimalPurchaseTargetScore":-100,"availablePurchaseTargetList":[],"optimalSaleTarget":-100,"optimalSaleTargetScore":-100,"latitute":"51.322023","longitute":"-2.341222","amountDemanded":"1","pricePrefered":"14","distancePrefered":"11","energyTypePrefered":"0"},{"index":32,"seed":"TODTSLISIPCGDMNXGWIFNHAATLBHDWBCJCSCNQVWFQHACYVEULJDPCFOJNHRK99MJY9UVOSFKBWRPJLOU","address":"GBQAPRGIKLMSFMAUEAAPLFKZTHBJBJUIJAQXLDDBHUQB9VMQNIZGBXPK9UYPIVFQGLVTQBWTF9PWD9GFD","optimalPurchaseTarget":-100,"optimalPurchaseTargetScore":-100,"availablePurchaseTargetList":[],"optimalSaleTarget":-100,"optimalSaleTargetScore":-100,"latitute":"51.160033","longitute":"-0.208255","amountDemanded":"4","pricePrefered":"15","distancePrefered":"12","energyTypePrefered":"3"},{"index":33,"seed":"FWWPLVBCOUIURRLSPRIDTWLVQGQNHQXMUE9PCVQYHOGWVQSSLYXCCLWTWBRLMSBJQWPKJLYRTJKHRPOYS","address":"AKK9FDJOZKAAPEMWVCNEQEJYMZVMMYOT9CKAPISZFMJMO9BHTHWKQBX9KLNOUVUCWPZXKNQKAMVXCGLLC","optimalPurchaseTarget":-100,"optimalPurchaseTargetScore":-100,"availablePurchaseTargetList":[],"optimalSaleTarget":-100,"optimalSaleTargetScore":-100,"latitute":"51.950581","longitute":"-0.026091","amountDemanded":"4","pricePrefered":"15","distancePrefered":"12","energyTypePrefered":"2"},{"index":34,"seed":"KYOHCELWYNEFCBOGOTGYGEPBTQBAIJMWQQGO9NLYVUR9PJWHLHUCXOJPMXISCLFCKHLXMBKELCOVKTVMK","address":"HXUBUZJMZOIQKLEHBWSQZHTNOBISGNPOVRFFQNA9TMETKRTZLWGQAS9U9IX9EGCZHFYLZMJOJDXWOFTDY","optimalPurchaseTarget":-100,"optimalPurchaseTargetScore":-100,"availablePurchaseTargetList":[],"optimalSaleTarget":-100,"optimalSaleTargetScore":-100,"latitute":"52.215618","longitute":"-1.229756","amountDemanded":"2","pricePrefered":"15","distancePrefered":"10","energyTypePrefered":"3"},{"index":35,"seed":"SXQPQXODI9TXNRJQBWIDUGX9SXOIALTINFDKVMHVVNEXEC9UQTNTDUQLXMJHSPHDMBAPXYYBFKBEAEGVP","address":"UXDHXXEJUKXEMGMVCOWTTSBLIDMONXCREHPBYHOJQPXXSL9CPLEBHUZBQIAITFSZYSYNPNJOCQYXMCVMX","optimalPurchaseTarget":-100,"optimalPurchaseTargetScore":-100,"availablePurchaseTargetList":[],"optimalSaleTarget":-100,"optimalSaleTargetScore":-100,"latitute":"51.220779","longitute":"-1.369719","amountDemanded":"5","pricePrefered":"14","distancePrefered":"10","energyTypePrefered":"1"},{"index":36,"seed":"F9NANRYNMUBCYICJCHTW9QCFJSOUDGDQ99XQONHCCDAXHHGLTIPXEPRRQMNMGGDRKMCAEWUC9JYAHBYF9","address":"WZKIIDXHQZJQTLAOTHLZAPYAJZFPIGLTHN9WASKWSDSAXMQCBHXYFGUFQP9SHW9SPHBGMNQYLJFDYTKGD","optimalPurchaseTarget":-100,"optimalPurchaseTargetScore":-100,"availablePurchaseTargetList":[],"optimalSaleTarget":-100,"optimalSaleTargetScore":-100,"latitute":"51.407106","longitute":"-1.012672","amountDemanded":"2","pricePrefered":"15","distancePrefered":"13","energyTypePrefered":"1"},{"index":37,"seed":"QYTTPTABOGCKVYIWMPHMESYWVATE9WXFXPPYNO9JGOJVH9MA9EVQNQPJSCSITSVUQGMDAOAQDBKBLBYBO","address":"ARVENFOJTOEEXNUHMADOGMUOIBJZJDFVRWSSWZESNPPZGUSYEIKNLKVZDSKDBUMPQJGXSPKCYJZNURRYZ","optimalPurchaseTarget":-100,"optimalPurchaseTargetScore":-100,"availablePurchaseTargetList":[],"optimalSaleTarget":-100,"optimalSaleTargetScore":-100,"latitute":"50.971888","longitute":"-1.777721","amountDemanded":"5","pricePrefered":"15","distancePrefered":"13","energyTypePrefered":"4"},{"index":38,"seed":"GKAKHPXNFLLEIMQL9NKTDTOESBGXUSRESCEYDFQEWFTDYETBYAGPLGARN9WBN9KTURETTLX9JWBEXXDXK","address":"WFW9IUYHGKDTJAEGULXISTBGFBXUPFTECBPNB9FSCJTXLYVBJSPDMGCMIBVQPOEWL9EVQQVYWSVCHMCAW","optimalPurchaseTarget":-100,"optimalPurchaseTargetScore":-100,"availablePurchaseTargetList":[],"optimalSaleTarget":-100,"optimalSaleTargetScore":-100,"latitute":"52.416695","longitute":"-1.499100","amountDemanded":"4","pricePrefered":"14","distancePrefered":"12","energyTypePrefered":"1"},{"index":39,"seed":"MROOPRHKCHICMEAWII9NTQDFGB9XYDVQX9ATMMKNMDJIOFQYACF9KI9VJYHRUHGOUISCWLALV9J9XAXP9","address":"YXCKUXEFMBMDAGS9WZJTHHSCGSXEGTWYMLVTULCKDCZ9PTNPSFMLFBOTJDHUDURMUIF9RVLQHJSWRESJW","optimalPurchaseTarget":-100,"optimalPurchaseTargetScore":-100,"availablePurchaseTargetList":[],"optimalSaleTarget":-100,"optimalSaleTargetScore":-100,"latitute":"51.027210","longitute":"-0.294626","amountDemanded":"5","pricePrefered":"15","distancePrefered":"10","energyTypePrefered":"3"},{"index":40,"seed":"SQTQHRDBGYAYVGETXMVDTGDUJMSYS9KH9IVLVVPAUERTWXLQKUBBBPYJOGDXKBTMKSEDNPUTN9OFVIFAB","address":"QOSVTVZCSZDUBKZJRUKGYMOWKBPMIODLLJRB9ZLKTUSCDJSDTYWL9ZJURVQ9LRPEUKOYXUYYUAGCCKPHW","optimalPurchaseTarget":-100,"optimalPurchaseTargetScore":-100,"availablePurchaseTargetList":[],"optimalSaleTarget":-100,"optimalSaleTargetScore":-100,"latitute":"51.417504","longitute":"-0.924021","amountDemanded":"5","pricePrefered":"15","distancePrefered":"12","energyTypePrefered":"1"},{"index":41,"seed":"MCKHXPCVRNBXKRBD9QCKOPMHRHVRGOSKAFSJYPH9MBBVRFGDUPBFAIBQJXXSWSIDXGBDVJWHFWUYWRRWB","address":"USRWZYSJGMAITVTKZFYKLZQKJYJJJXLH9WFHYJQCKYO9MQECYIFMANIRWA9TU9DVUQPVWMSQK9QEOTXRW","optimalPurchaseTarget":-100,"optimalPurchaseTargetScore":-100,"availablePurchaseTargetList":[],"optimalSaleTarget":-100,"optimalSaleTargetScore":-100,"latitute":"51.636581","longitute":"-0.829055","amountDemanded":"4","pricePrefered":"15","distancePrefered":"14","energyTypePrefered":"0"},{"index":42,"seed":"NQFBMJJELJ9B9XPXFJNUPLWCCPFOUYGWMDYUAGWFTEGDTBUIOEGLYACRVLVAPLEEHGUFYBURJBYVRRQAA","address":"FSU9C9MDPRKYGUNAD9BY9ODMJLFBT9UOISADOITELARFDUUSZYZQKWEYCFWMBGXAKMXZAXGKXPIVOFIPW","optimalPurchaseTarget":-100,"optimalPurchaseTargetScore":-100,"availablePurchaseTargetList":[],"optimalSaleTarget":-100,"optimalSaleTargetScore":-100,"latitute":"51.620677","longitute":"-2.068310","amountDemanded":"2","pricePrefered":"14","distancePrefered":"15","energyTypePrefered":"1"},{"index":43,"seed":"GOMFPOHYXBTFIMBTMOI9RYVGVMETAIXAA9RUOKCWTEBYDXKYDLFPYWV9DDLICC9KWSFLBKXTEGYGDCRGY","address":"J9XMNSNAJLPEHOQGNLSNJUSFJYZRCAVJ9FABJOANHBEEKQL9MIIVNDDUDSMWEHMXVIDCOD9G9ALLYRA9A","optimalPurchaseTarget":-100,"optimalPurchaseTargetScore":-100,"availablePurchaseTargetList":[],"optimalSaleTarget":-100,"optimalSaleTargetScore":-100,"latitute":"51.978602","longitute":"-2.203423","amountDemanded":"5","pricePrefered":"16","distancePrefered":"13","energyTypePrefered":"2"},{"index":44,"seed":"OUVEXORBWGBIEWJUFAKU9UMXKTEANTSCEHQBNYPWLYDNMDNUDPHKBXJVUCRH9EDMGCVSLTLOKFFDBCANL","address":"JSM9HMLVFXTIZNYPXCADGBIEVYJUUMLIMNIILEEYDQGM9VLUTQWOYPEHPSXIFTCOFNAHCGBFPTRMLRUUD","optimalPurchaseTarget":-100,"optimalPurchaseTargetScore":-100,"availablePurchaseTargetList":[],"optimalSaleTarget":-100,"optimalSaleTargetScore":-100,"latitute":"52.314351","longitute":"0.154578","amountDemanded":"2","pricePrefered":"16","distancePrefered":"14","energyTypePrefered":"1"},{"index":45,"seed":"QGRCSYPJONGSMLMHAL9MTJQVU9TCHYXKOOTJHTDRSYBGCC9R99FAHLIPCTJRYAWTLOALRRSA9EN9VMBIH","address":"UGCZRNDWHAYEPHLZRKLKQYRWGSRCICL9B9EIRDMTYFZYUDQLJ9ZKIWREYKXCM9UBBI9L9S9BELQBB9GNW","optimalPurchaseTarget":-100,"optimalPurchaseTargetScore":-100,"availablePurchaseTargetList":[],"optimalSaleTarget":-100,"optimalSaleTargetScore":-100,"latitute":"52.218186","longitute":"-0.874359","amountDemanded":"6","pricePrefered":"15","distancePrefered":"14","energyTypePrefered":"4"},{"index":46,"seed":"DYBWHAOKWUMNYQBPHILRRRHYIBF99KY9NLVQANHECEGOMFWQIGSNHQIUHVFJBVRU9LLJQ9RNJQGKXPTXO","address":"VCCAVOBCVTPLQJKGXQHYRFOEKDKVOYVWWXOGBCKLFPR9TXZBCDMJKIEDBTRGADQHROSWKBHBSRRNIADZY","optimalPurchaseTarget":-100,"optimalPurchaseTargetScore":-100,"availablePurchaseTargetList":[],"optimalSaleTarget":-100,"optimalSaleTargetScore":-100,"latitute":"51.027722","longitute":"-1.608848","amountDemanded":"1","pricePrefered":"14","distancePrefered":"11","energyTypePrefered":"4"},{"index":47,"seed":"VLICFNUTDPPI9WCECJAOBGORIPWKOFUCWPLDNBMVFHIUIFQOUTFMX9GBXT9SUTIWGVGVUINXFL9OELNEO","address":"Q9YOIICOGADL99QPZWG9WPKVUKBZEIQLKFNHDMUDNKIDXCZMMOFXQCFFDZIFLAODDGUEMTLETH9CHFNXD","optimalPurchaseTarget":-100,"optimalPurchaseTargetScore":-100,"availablePurchaseTargetList":[],"optimalSaleTarget":-100,"optimalSaleTargetScore":-100,"latitute":"52.309607","longitute":"-0.814170","amountDemanded":"5","pricePrefered":"15","distancePrefered":"14","energyTypePrefered":"0"},{"index":48,"seed":"FAWVU9LTIKMRETAGVEIXEBWRVQIXEKBWMSM9FWI9YSDOYEBWVOOFUQFQQDHDLBEOPAXAKMKL9IBJVFBJO","address":"V9KWGHHOT9TOCD9WMJAGI9LN9IPDHDYHIJREIIQARE9FWSWLOOGKGGY9IGDDVKMROP9DTSWVOCZTCPKLW","optimalPurchaseTarget":-100,"optimalPurchaseTargetScore":-100,"availablePurchaseTargetList":[],"optimalSaleTarget":-100,"optimalSaleTargetScore":-100,"latitute":"52.142740","longitute":"-2.020223","amountDemanded":"5","pricePrefered":"15","distancePrefered":"13","energyTypePrefered":"2"},{"index":49,"seed":"DVUKDTDGOOQLCN9RIOXEHIHJFPMEEMNDSREJIQKOSSYNOQFOPXDTWCNNVNIXHOCSXTJUREMVGYN9FYVBH","address":"TCKYEBEWABDAAQGFCNMS9BOUYWGJNVEULRAON9HJWFGAPVATKFERBAGPGJPTPJDC9QUFCPGMBI9JHJW9A","optimalPurchaseTarget":-100,"optimalPurchaseTargetScore":-100,"availablePurchaseTargetList":[],"optimalSaleTarget":-100,"optimalSaleTargetScore":-100,"latitute":"51.870174","longitute":"-0.878364","amountDemanded":"5","pricePrefered":"16","distancePrefered":"14","energyTypePrefered":"3"},{"index":50,"seed":"LLWUUGQY9QKRSXEAFWSUXJGPCCNODTPIFSL9UGMOJBTWYEWGRUVEPDFXUGTYJGRRCCGQHDBVRT9WJEWEN","address":"OGLFHVONIGYKXNQDZWVTYPAMYJTE9KKAIUCAUSCARANOXUMSRFGSWHTSXOMYOJEUOO9WZWUMTGMXFGRLY","optimalPurchaseTarget":-100,"optimalPurchaseTargetScore":-100,"availablePurchaseTargetList":[],"optimalSaleTarget":-100,"optimalSaleTargetScore":-100,"latitute":"51.504383","longitute":"-2.217008","amountDemanded":"6","pricePrefered":"14","distancePrefered":"11","energyTypePrefered":"2"},{"index":51,"seed":"NWUCXAYEHYRLFQSVFGVKSPHFHINPTECWTFT9EDEEEBTIYEAUXLLUTOMAEOKGKDXBKYFAWITAOMOONCPXS","address":"LEMUJULOBGKMKKJBYUFRTWRJHAKRLOQDFDPJYBUB9TQAKWEYIGGKHZQKPATDHBPFZHNFQOTOHDKNKDZFD","optimalPurchaseTarget":-100,"optimalPurchaseTargetScore":-100,"availablePurchaseTargetList":[],"optimalSaleTarget":-100,"optimalSaleTargetScore":-100,"latitute":"51.829645","longitute":"-1.991788","amountDemanded":"6","pricePrefered":"15","distancePrefered":"13","energyTypePrefered":"1"},{"index":52,"seed":"9PKIOUCVDDMIRPSXUAFUMKMOMQCWQU9LCWXKTWMOHPAUFAOPCDYYVHRDOVXRFNRIRHIIVYCRQAESQENMT","address":"JVRSKALJKQYCQMFPUUPJYTRNULTJNNWEPTFDV99MRHUNZQBMPIEFWPPKLEOIBBA9RIESCAJFVXYVXTNNA","optimalPurchaseTarget":-100,"optimalPurchaseTargetScore":-100,"availablePurchaseTargetList":[],"optimalSaleTarget":-100,"optimalSaleTargetScore":-100,"latitute":"51.898508","longitute":"-1.727074","amountDemanded":"2","pricePrefered":"15","distancePrefered":"11","energyTypePrefered":"4"},{"index":53,"seed":"DYSJARLDPEVBYIFRAJCRBUWIRYLERSUVERRUPRVLTFLRVEXBTXIUEAF9HHB9LMSBJQTXTYO9XIM9XYXQC","address":"PXTUYQDVVERTQWHIPUZLXCBZVWRDKIFRFDJTRJD9LQQYSTWDANKWECIKMTFEQKRVNMBRVCIKKFYAJDVCC","optimalPurchaseTarget":-100,"optimalPurchaseTargetScore":-100,"availablePurchaseTargetList":[],"optimalSaleTarget":-100,"optimalSaleTargetScore":-100,"latitute":"51.240884","longitute":"-0.601708","amountDemanded":"2","pricePrefered":"14","distancePrefered":"10","energyTypePrefered":"2"},{"index":54,"seed":"SBHOCKM9HGSRYW9PKVUXSM9YWD9COKWSIUBIHRUTTD9TO9LSEYXWYGXDDQMVWSPGHAJIUWUHEWLETPRHS","address":"OHRQXIL9YW9XBCGC9UMPUBLSXIGIVLOJKY9OVYPWDWLFAGNZWEDFQNXPVJCAOKCLJGFIVIXESAVBBTM9Y","optimalPurchaseTarget":-100,"optimalPurchaseTargetScore":-100,"availablePurchaseTargetList":[],"optimalSaleTarget":-100,"optimalSaleTargetScore":-100,"latitute":"51.776953","longitute":"-1.724773","amountDemanded":"3","pricePrefered":"15","distancePrefered":"13","energyTypePrefered":"3"},{"index":55,"seed":"KUBTJLRYL9OXO9JMD9TXCLFDQ9GSWLDFVQESFNPAMDYR9UMIMCIPBBQLNOLMRHFOLRBHSOYUJDEBUBOCX","address":"JOYBRPEACTJNQXJH9XRIMSEZVHAWYZPXTNRVWKUYXAGAJVADAD9EXBBKYUROOLBOLYNVOBYNRTDKXHPP9","optimalPurchaseTarget":-100,"optimalPurchaseTargetScore":-100,"availablePurchaseTargetList":[],"optimalSaleTarget":-100,"optimalSaleTargetScore":-100,"latitute":"51.389639","longitute":"-1.011604","amountDemanded":"2","pricePrefered":"14","distancePrefered":"13","energyTypePrefered":"4"},{"index":56,"seed":"HYMQIBOSGSTTCJXKKUW9QMNSWEWEDHKJMILEMQXFRUTIFIDCVBTKXIUCPJKKHVHMUBG9KKLHHAYPD9MYH","address":"MYAEEXINMEAEAJNI9XXEICQDNTRQXOEHNOBHJRGHIRMURIWQNHYZUMTFLWBVDJBOAYECSXXKBYIUMGVSC","optimalPurchaseTarget":-100,"optimalPurchaseTargetScore":-100,"availablePurchaseTargetList":[],"optimalSaleTarget":-100,"optimalSaleTargetScore":-100,"latitute":"51.807975","longitute":"-0.025447","amountDemanded":"3","pricePrefered":"14","distancePrefered":"14","energyTypePrefered":"0"},{"index":57,"seed":"YUVPRIJMKFKVECSIRUHCSNDBYHJEJ9CDVSWY9HTPA9AINCPUMYXYVJHVVCSPFINOSTACPULMMLDARISSE","address":"UHNROEHQERDCJEBMTDREKH9BPJZAKBBENUCZJKBRPIIOCGVAKRAQUDUJYRCVAZCPLNICVNPVBLLFGBMWZ","optimalPurchaseTarget":-100,"optimalPurchaseTargetScore":-100,"availablePurchaseTargetList":[],"optimalSaleTarget":-100,"optimalSaleTargetScore":-100,"latitute":"52.059153","longitute":"-0.012795","amountDemanded":"2","pricePrefered":"15","distancePrefered":"10","energyTypePrefered":"4"},{"index":58,"seed":"E9YXIIYAKANJKDXKIRXARJNCY9ESFKVKQCBI9GPYNLBRXASKACP9WNEEAVUQQBEJ9VOCQLBMUVVORYABY","address":"UOLWMFJZELMHRGZFLRECANWEAJHJKPYDPCYXAMILRVHTODPFJTKG9YMJCTUYAOWOPODBVNBH9DFFNHIID","optimalPurchaseTarget":-100,"optimalPurchaseTargetScore":-100,"availablePurchaseTargetList":[],"optimalSaleTarget":-100,"optimalSaleTargetScore":-100,"latitute":"51.939016","longitute":"-1.948302","amountDemanded":"4","pricePrefered":"15","distancePrefered":"15","energyTypePrefered":"3"},{"index":59,"seed":"HRVNECFMQBNALRYSOOKTIJCOVTSOVPYXXXKURNAUOBREDKAXXUCCFRFVKIEDHFCSEETPP9QODIVRMWHUM","address":"OZRKFUXFMDQZNNVTBSOBKKORGJINJJVZILDQAWNHPDHEGZEUWNAIVUWYKONGXVJVJWHQHURTMVNDMPVJD","optimalPurchaseTarget":-100,"optimalPurchaseTargetScore":-100,"availablePurchaseTargetList":[],"optimalSaleTarget":-100,"optimalSaleTargetScore":-100,"latitute":"52.336144","longitute":"-1.660288","amountDemanded":"3","pricePrefered":"14","distancePrefered":"11","energyTypePrefered":"2"},{"index":60,"seed":"VXTB9XLFE9AALGCTN9GUFNGLVWNIACQCDVAVHBYRVWSAANYNQMBTDGBKWYH9OMYAGDRLAIBUIJJNTRDKI","address":"KTBZRGTZGGSGWILZLEZCVPIDNRIJRNCOYNTBJESLWKWGEHDFOVYVSCDCSASQKOKHHMZQUGFZWWQTPXXLW","optimalPurchaseTarget":-100,"optimalPurchaseTargetScore":-100,"availablePurchaseTargetList":[],"optimalSaleTarget":-100,"optimalSaleTargetScore":-100,"latitute":"52.268694","longitute":"-1.420172","amountDemanded":"5","pricePrefered":"14","distancePrefered":"15","energyTypePrefered":"4"},{"index":61,"seed":"KOCQWB9DH99PQBGJ9AIYVFASBTFYSO9KDFTXVA9WUCESTEKLMPQKKUNB9HBQJVOOGLOWHTDLPQVUSOCQS","address":"YXQSQFG9VOHNQMPOOEENVAODNRAHLZODCHRPHHFZHMIF9JQYMWKJZIRPVDUTZNLZHLPROGYANRDJCQNWX","optimalPurchaseTarget":-100,"optimalPurchaseTargetScore":-100,"availablePurchaseTargetList":[],"optimalSaleTarget":-100,"optimalSaleTargetScore":-100,"latitute":"51.718746","longitute":"-0.460109","amountDemanded":"2","pricePrefered":"14","distancePrefered":"15","energyTypePrefered":"1"},{"index":62,"seed":"9BKQSXYALRJEVNEFN9WUQSFAIAMIOUYPQFSRNVNVQHGSS9PPBKJCVNDACO9SGS9GVN9HO9EBRHWIVPDQI","address":"HJSBJANWAPMUQ9TLRHCRSSTQVSQFCYJPTJKEVKDCUFJNTITIXUNFIKXWEHFCVUSYVNYVVWDDVGCXNNRXY","optimalPurchaseTarget":-100,"optimalPurchaseTargetScore":-100,"availablePurchaseTargetList":[],"optimalSaleTarget":-100,"optimalSaleTargetScore":-100,"latitute":"52.010459","longitute":"-1.062359","amountDemanded":"2","pricePrefered":"15","distancePrefered":"11","energyTypePrefered":"4"},{"index":63,"seed":"QAINEMCNORYYDKNYLTFKPREJQWLGRSWTUUEGJMCLWYCDMVTMTH9UAWA9HRKAVYGOLCTJTABNXSVHEBDWY","address":"QEDCQBWOUAZSIIVUPMUSGLFWTXUDWLGGD99ATCGCFKFPDXR9FELACVBPMJJWXHCYSJOJUZRVJFKSKUECW","optimalPurchaseTarget":-100,"optimalPurchaseTargetScore":-100,"availablePurchaseTargetList":[],"optimalSaleTarget":-100,"optimalSaleTargetScore":-100,"latitute":"51.054501","longitute":"-1.666922","amountDemanded":"2","pricePrefered":"14","distancePrefered":"11","energyTypePrefered":"2"},{"index":64,"seed":"OOWKBWIXNSTBQMHJEIGNYDUXNR9OYF9AJNKUJXESNYMIRRUAROLNVACW9GGLWRFUGLQNYPUXNTMUBDBKY","address":"BUADQYIHBIG9JKVZSRTKFWGOVHBUTVFYLUWHOIAJFBQDOBFNMAWQHBTV9HPAUHZHVQFLSYGSRSOFTDKE9","optimalPurchaseTarget":-100,"optimalPurchaseTargetScore":-100,"availablePurchaseTargetList":[],"optimalSaleTarget":-100,"optimalSaleTargetScore":-100,"latitute":"51.466159","longitute":"0.070344","amountDemanded":"5","pricePrefered":"14","distancePrefered":"10","energyTypePrefered":"1"},{"index":65,"seed":"OFINIJPGIWVJRFPGXHBCSBMCBKRWAOHGYEFBASNFIWL9LIKDCYNEQKFYAWXWQLC9XVEVYXN9SKYXX99QT","address":"EOULQBSNWM9RWNRLJGZQCVFRVVROWZXKCZFNDIVGQJOQKNUMSD9XQCKRBFNIKVXXRSLQGA9PBUFKWENIB","optimalPurchaseTarget":-100,"optimalPurchaseTargetScore":-100,"availablePurchaseTargetList":[],"optimalSaleTarget":-100,"optimalSaleTargetScore":-100,"latitute":"52.202000","longitute":"-1.399450","amountDemanded":"2","pricePrefered":"15","distancePrefered":"12","energyTypePrefered":"3"},{"index":66,"seed":"PNLINJUVPCVRBQUGYRBPCHOIFXWCVUSHLCBULEIBRU9WKNFUKGWDOPQHXNKNMTLKHTCCKJOEOIJJSFVLF","address":"DUDZTTNUIXB9UNWDSQQGWCAYNGCFOJIMBBRWYIPZXIGRWJIANJKVVFVZNNJNQK9J9GXXVKEFETT9KOXIX","optimalPurchaseTarget":-100,"optimalPurchaseTargetScore":-100,"availablePurchaseTargetList":[],"optimalSaleTarget":-100,"optimalSaleTargetScore":-100,"latitute":"52.156601","longitute":"-0.826523","amountDemanded":"6","pricePrefered":"15","distancePrefered":"13","energyTypePrefered":"1"},{"index":67,"seed":"BWMLDHFEGQYRXSTWVNWDVDNERBLBMLBAHQELAETTROLNXRGVKSCLCCOSTTITTMCJPTPWYCGNQTYYP9CSG","address":"HPMFQDSDA9YQMAKFYGACNZSIMX9VD9ACSFZIYOUBRNZRGUAYFQJMEYBTNYTSTCMQZRHVSBWZXMHHYOSID","optimalPurchaseTarget":-100,"optimalPurchaseTargetScore":-100,"availablePurchaseTargetList":[],"optimalSaleTarget":-100,"optimalSaleTargetScore":-100,"latitute":"51.495321","longitute":"-1.674430","amountDemanded":"4","pricePrefered":"15","distancePrefered":"12","energyTypePrefered":"3"},{"index":68,"seed":"TPPWFTPGRSNFMVKXALLKWKECLWVBMSCRGJWMWVOXLHSQXORAFLITCONLYAUKARTRLCXSEA9KOQARMBKQN","address":"ROQMABXVWPLQUIAQTGUNCQBMUEDVTPBOUGQOWVDLVWZJGSECUKIGHLFOOEWH9QOYOFEHGKXQQMJGTSXPB","optimalPurchaseTarget":-100,"optimalPurchaseTargetScore":-100,"availablePurchaseTargetList":[],"optimalSaleTarget":-100,"optimalSaleTargetScore":-100,"latitute":"51.403107","longitute":"-1.004535","amountDemanded":"2","pricePrefered":"16","distancePrefered":"11","energyTypePrefered":"2"},{"index":69,"seed":"KPFTLCETUTHEQBXEKWOKQKKRVIPMLOIVGVSPJUUNBKTJTHUFAKFMJSAJUIGDXREIGLFGMGECPLT9VLGWT","address":"NSRHBLOPJOZ9WUVYIXLTFEHPUBJPZTTLYNIBWHBAJMPP9SW9UMXRNDTRQRVNKBTCHGEMWIKSFNMWP9SZX","optimalPurchaseTarget":-100,"optimalPurchaseTargetScore":-100,"availablePurchaseTargetList":[],"optimalSaleTarget":-100,"optimalSaleTargetScore":-100,"latitute":"51.816258","longitute":"-0.768373","amountDemanded":"5","pricePrefered":"14","distancePrefered":"11","energyTypePrefered":"2"},{"index":70,"seed":"EAFGIKKSDVLHXUIKREJKSBVWNIAVKXTUTRKOJMASUFLVGCGVAWU9LBNXCVWIIACUXKILVMEAPWPULJKQA","address":"ZRDBJNQPDGOVZMHMMAVBNQHHXHEXPOTEMPDLQXVCDKYLJSBSNZVWAFTPQ9KEAJFWEQNICBKLVPG9CCWN9","optimalPurchaseTarget":-100,"optimalPurchaseTargetScore":-100,"availablePurchaseTargetList":[],"optimalSaleTarget":-100,"optimalSaleTargetScore":-100,"latitute":"52.327574","longitute":"-1.837724","amountDemanded":"1","pricePrefered":"16","distancePrefered":"13","energyTypePrefered":"1"},{"index":71,"seed":"PRAKUVWLIXDVLFWDNYQ9HDKMBTGCYUTTPWAKQTXCJVNTKKMKTGYJMOXFJWTNTSHBBYRBLDQMKMKYYWHTG","address":"UPKBHUCCURPZWRAXWRZJMQWNXYGLCUKLIWPSRSEJVEBPRUULWYCVXQV9ZGGHCNAKKKTYWOSKVRSHKAIRA","optimalPurchaseTarget":-100,"optimalPurchaseTargetScore":-100,"availablePurchaseTargetList":[],"optimalSaleTarget":-100,"optimalSaleTargetScore":-100,"latitute":"52.006260","longitute":"-0.233661","amountDemanded":"1","pricePrefered":"15","distancePrefered":"10","energyTypePrefered":"1"},{"index":72,"seed":"FVMQTGJOWGHMQY9GSK9WJYDLRMDBYLMKRY9KCKVQADDQMLLUML9RKBBQXKRIQXXDBTWIVJQRYNKAKINHL","address":"K9YFZZJGISVMWMCYUFZZUFOGGORMJKINHGQFRQFRPLTBTJT9ZEUGWNTWLLQICEDBCFWSQEBLWXUZOXIFB","optimalPurchaseTarget":-100,"optimalPurchaseTargetScore":-100,"availablePurchaseTargetList":[],"optimalSaleTarget":-100,"optimalSaleTargetScore":-100,"latitute":"50.991232","longitute":"-0.401714","amountDemanded":"6","pricePrefered":"15","distancePrefered":"14","energyTypePrefered":"0"},{"index":73,"seed":"M9YS9UQVTUYGWPQMWOWSHRRQCQQPNCXIXCSGWOEHSADBITVEDLCKIDCGAQACRCTKEXXOPFVONHJJWGNYJ","address":"FRPCZOIKYFHILDHOGLKVOPCKBOXWGC9IAUNLRGECWJEBNQUBRPNQWOBJBBWMW9ZNVDJAWAWUEEOWVCSDA","optimalPurchaseTarget":-100,"optimalPurchaseTargetScore":-100,"availablePurchaseTargetList":[],"optimalSaleTarget":-100,"optimalSaleTargetScore":-100,"latitute":"51.841254","longitute":"-2.237888","amountDemanded":"2","pricePrefered":"15","distancePrefered":"15","energyTypePrefered":"1"},{"index":74,"seed":"UXGVEVYNVWTCVWN9DMWQNCXWDQQGLRVSKYDPBWTMGAJLEUIFFATQ9ANWPNG9LBO9RYDXTXGTMKDQAGC9R","address":"DWWKJFUW9HYZWNZTKSZMBTAZRHDTIHPNACUKGVKTTSHJSDKSQ9KS9U9RTPZKTDYECRIMUKNFAPSYSWACW","optimalPurchaseTarget":-100,"optimalPurchaseTargetScore":-100,"availablePurchaseTargetList":[],"optimalSaleTarget":-100,"optimalSaleTargetScore":-100,"latitute":"52.423429","longitute":"-1.952312","amountDemanded":"2","pricePrefered":"15","distancePrefered":"11","energyTypePrefered":"0"},{"index":75,"seed":"RUTQTYJRLVHHXIXWOFLOASWCSJUHNOJR9GITIEHMP9WYGQNTIWN9YXNRSAFNLMMEXDEXILHFBFV9XQQYV","address":"RLSUIMF9LX9RLYP9TDNTRDYQPN9MBPRFCBGFHFSYOVOHJRDJDWFKMUVKOJ9ORUKMBQRDF9QBBFYHTOFYC","optimalPurchaseTarget":-100,"optimalPurchaseTargetScore":-100,"availablePurchaseTargetList":[],"optimalSaleTarget":-100,"optimalSaleTargetScore":-100,"latitute":"52.212232","longitute":"-1.382605","amountDemanded":"1","pricePrefered":"16","distancePrefered":"11","energyTypePrefered":"2"},{"index":76,"seed":"KSOYSXHFKPVSSXQLHSWYITJBLWBYXQYNYHSGMWBQGFDJQNGLSVXUFYYE9KALNXBTKODCWSIVHEDSYYPSG","address":"DIHLSFACHEURXSDONTIZWIDGRFUAHDHMWRPOXEYUDQVMTGAXWFZOEDQZKLTPGLHWCFKLWAAYWECPW9EHA","optimalPurchaseTarget":-100,"optimalPurchaseTargetScore":-100,"availablePurchaseTargetList":[],"optimalSaleTarget":-100,"optimalSaleTargetScore":-100,"latitute":"51.415949","longitute":"-0.274429","amountDemanded":"4","pricePrefered":"14","distancePrefered":"15","energyTypePrefered":"1"},{"index":77,"seed":"B9YYSMERMRSROBDUGWLAF9VPIXHJYCBHBIEOLPHDFXSMYQX9ATMUEYGDXRFSWSXLWGWXEDLVLSTHXPQIB","address":"XQSBCUCMKT9RGYNAJAPRNWVDNUFGCXKEK9ZFZTJKH99CQZJNEBSCPTZWURPAKPIYVTADKEBFGWWKHVIUW","optimalPurchaseTarget":-100,"optimalPurchaseTargetScore":-100,"availablePurchaseTargetList":[],"optimalSaleTarget":-100,"optimalSaleTargetScore":-100,"latitute":"51.475408","longitute":"-1.858937","amountDemanded":"2","pricePrefered":"14","distancePrefered":"10","energyTypePrefered":"2"},{"index":78,"seed":"CA9CBGSWCHIEAXUGIBUQMJXRVOSKSODQKLSWOFUKEFF9GBTOGLDUNNHFSAQARACLIYJCDDVCGNIRYJD9E","address":"ANEZRSGAMH9VOFAAAUXIAEXMMXQEVGBMAKHKDCIKVSJEYFDHBCZGYGQSXFWFIJJXZ9SHBIVSMXVSDTMR9","optimalPurchaseTarget":-100,"optimalPurchaseTargetScore":-100,"availablePurchaseTargetList":[],"optimalSaleTarget":-100,"optimalSaleTargetScore":-100,"latitute":"51.634495","longitute":"-2.208541","amountDemanded":"5","pricePrefered":"15","distancePrefered":"14","energyTypePrefered":"4"},{"index":79,"seed":"9MEUGRYACNKPXFURK9OPHGLKDWCFIMYAAUDVNYCNGR9ENAUBHGWCUMGBSEWTSE9VUFOEVSECNQGTAUNOS","address":"9ZFKVCKSLMYDJHVGKSQNIBMHLFVVMKKFQOYMDMGAPQGYQEKXLACIAGGNPVCOLCPMBJCUUOXAQJNMRRMXY","optimalPurchaseTarget":-100,"optimalPurchaseTargetScore":-100,"availablePurchaseTargetList":[],"optimalSaleTarget":-100,"optimalSaleTargetScore":-100,"latitute":"51.766957","longitute":"-0.820992","amountDemanded":"3","pricePrefered":"15","distancePrefered":"12","energyTypePrefered":"3"},{"index":80,"seed":"VBNNLPTPDKXYAQBHAGLJJUEOYLLNYBDIGWTAVUATRLDFISHTMGLFWSOJFYUOQBSWIRIAWKIGCVITIIKKQ","address":"IYHSHEFU9OBYDVZPWZUHKXOOCFUHAAXZZM9PSARXLSZR9SJ9YMDQF9POSJNTHTWBBWMMGOFRFAGVSFLRZ","optimalPurchaseTarget":-100,"optimalPurchaseTargetScore":-100,"availablePurchaseTargetList":[],"optimalSaleTarget":-100,"optimalSaleTargetScore":-100,"latitute":"51.131381","longitute":"-0.214905","amountDemanded":"4","pricePrefered":"15","distancePrefered":"14","energyTypePrefered":"2"},{"index":81,"seed":"YULGFVTNEPUFFMERHFFLEYVEJMCLWNKK9YSD9HXL9IYDXUIJDAAQVJCYJAHIWKRQSHAOMBPXIHJFXHXKJ","address":"YBJWVXBRFLQYOZTDBJINRCLTCHFPBHQZHNYBKVNQDZMNEWMPBOMRJAMX9UTBSCRJVEDKJNAAYOMABHDFC","optimalPurchaseTarget":-100,"optimalPurchaseTargetScore":-100,"availablePurchaseTargetList":[],"optimalSaleTarget":-100,"optimalSaleTargetScore":-100,"latitute":"51.430133","longitute":"-1.360781","amountDemanded":"1","pricePrefered":"16","distancePrefered":"14","energyTypePrefered":"1"},{"index":82,"seed":"CFGJEYJQALGXFEOTOJWCNEEJFHHLJFEVBGCDRLMHJDCCQH9LMRGYNWEWLMHVOEABBSKWHSVOEYIMKOGUI","address":"GQVFXVLBA9FOITCTAWGYGOHZNIYSUOKFMTKLHIVXQSIPZVZYUE9WPTCFPQDUWWUSQCMBCAQWNWUAZKL99","optimalPurchaseTarget":-100,"optimalPurchaseTargetScore":-100,"availablePurchaseTargetList":[],"optimalSaleTarget":-100,"optimalSaleTargetScore":-100,"latitute":"51.231587","longitute":"-1.985950","amountDemanded":"3","pricePrefered":"15","distancePrefered":"11","energyTypePrefered":"2"},{"index":83,"seed":"CIN9RY9N9KGQYVHCQ9MEGRITLHWAA9AQ9ASTPCTS9GAHBSSNRGODXCWCSED9DGKSUUBXKUDCCHTT9KDDX","address":"DVZCLWU9UIUTTVBCAWBAQJRIRBG9YWFJZFTLRRBHEDMCRPTRPSHQMIGDGHHMISANFTWXAHOIUKLKQNSMB","optimalPurchaseTarget":-100,"optimalPurchaseTargetScore":-100,"availablePurchaseTargetList":[],"optimalSaleTarget":-100,"optimalSaleTargetScore":-100,"latitute":"51.543308","longitute":"-0.271727","amountDemanded":"1","pricePrefered":"15","distancePrefered":"13","energyTypePrefered":"2"},{"index":84,"seed":"LIHGRXCLWNXJTWEGAWCQEMOLOKHJRDXASTBQQJKFNBPQIKWVYLQAXPATMEKTDQGBJDIJRUKATKHBPMBER","address":"9XMSAJCO9RFAEQPDTCYXOOD9WSVCNCVVKFVRQAEWEAXKLSQ9TJDSIMZGUKEVUHYRVSKRRCFYQRZAKN9BC","optimalPurchaseTarget":-100,"optimalPurchaseTargetScore":-100,"availablePurchaseTargetList":[],"optimalSaleTarget":-100,"optimalSaleTargetScore":-100,"latitute":"52.408398","longitute":"-2.193060","amountDemanded":"5","pricePrefered":"14","distancePrefered":"13","energyTypePrefered":"0"},{"index":85,"seed":"GWRHSGRLQOQKKKEGLLXUSFTIFFOARHPGP9DANUMVKBQ9UVMVDCNVXCRTYQPEH9X9FYIRVKCQWEYIDBEXO","address":"ULEBSNZSCEQJHFPEJCISBGSFIPJZKEUTTIWUNOBJHEQIPJ9ORPDINZGQZSMNLSQHFRPVMKRNCTQCDOWVY","optimalPurchaseTarget":-100,"optimalPurchaseTargetScore":-100,"availablePurchaseTargetList":[],"optimalSaleTarget":-100,"optimalSaleTargetScore":-100,"latitute":"52.154922","longitute":"-1.967290","amountDemanded":"1","pricePrefered":"16","distancePrefered":"10","energyTypePrefered":"4"},{"index":86,"seed":"NEC9KDCDCLMGSSUIANTIDQVNHLNIOBWBMIGMDOEGNGYAEOUUQDGSCICJHLCQQAJSNRRBPEULPREKAQH9S","address":"FLYGUGMZGGOYXJKHDYGNPCVOMKDRFPFQDVKGZWNT9MOPXIU9AHNJSNBXWNMZOFTCBZGVXLTVYBUKAPG9X","optimalPurchaseTarget":-100,"optimalPurchaseTargetScore":-100,"availablePurchaseTargetList":[],"optimalSaleTarget":-100,"optimalSaleTargetScore":-100,"latitute":"51.309125","longitute":"0.029653","amountDemanded":"3","pricePrefered":"15","distancePrefered":"10","energyTypePrefered":"3"},{"index":87,"seed":"XELGNXVYGTCPENUOYDEEKBSKTJNPSIKJJOWWULFVGJUNYRTVFILUSUTLCDBGBRCCKTYNIASPYWMICYUNN","address":"OSKEXRFVFPFWBVPBIXTSMUQGKUJOZZTTYWLQPPN9EAYYFZYCGZINBMLYXHYZMHKFOEBMYBNWFEWPYPXWX","optimalPurchaseTarget":-100,"optimalPurchaseTargetScore":-100,"availablePurchaseTargetList":[],"optimalSaleTarget":-100,"optimalSaleTargetScore":-100,"latitute":"51.857149","longitute":"-2.061098","amountDemanded":"5","pricePrefered":"15","distancePrefered":"15","energyTypePrefered":"1"},{"index":88,"seed":"TQBQXLGDNVYTAJBNURAL9UQGHYYSRAFARDNGBXDNJLVNFGOSJXCBGYJAXIIHUKMUOCACFKLCLCXVCTEQS","address":"JVFVJTIHLHHYXXUSBUFHOBSVFJMCQGEOFMOOLWRADAUPWALJWEPMCYJ9TTRTDUIZBXSIFARCLFPRAKSUB","optimalPurchaseTarget":-100,"optimalPurchaseTargetScore":-100,"availablePurchaseTargetList":[],"optimalSaleTarget":-100,"optimalSaleTargetScore":-100,"latitute":"51.777972","longitute":"-1.486642","amountDemanded":"2","pricePrefered":"14","distancePrefered":"12","energyTypePrefered":"1"},{"index":89,"seed":"FNUTKOJBTGKUHEAFRXCKYYOUYQRYG9AMUKTRADIGQ9QPMFQRTCAGLIFS9FYDHPGYMBA9DXXWL9QNAIVKL","address":"A9THILIPTQYUHEWSULUDDBXNVFGQTBXMDFWBHU9WWZZ9WOFZFHNVCVJVNWFBANPRZJKJCYUAPIIYLZBIX","optimalPurchaseTarget":-100,"optimalPurchaseTargetScore":-100,"availablePurchaseTargetList":[],"optimalSaleTarget":-100,"optimalSaleTargetScore":-100,"latitute":"51.392934","longitute":"-1.069071","amountDemanded":"2","pricePrefered":"14","distancePrefered":"12","energyTypePrefered":"2"},{"index":90,"seed":"PAUQBJSHHEY9BKIVFYJCTYFGVRBSAP99KWESHWMXE9YW9WRNKVFGKWQDFJSAVEEWSLOGWDQKSSMWVGRAN","address":"ETZFHRTQRRMMBHFOSSFXB9POJHMTSUBMAETNCAKLXJLBXM99OCGBVMBZOHDNQQNYJEYV9HELACCIVCKSY","optimalPurchaseTarget":-100,"optimalPurchaseTargetScore":-100,"availablePurchaseTargetList":[],"optimalSaleTarget":-100,"optimalSaleTargetScore":-100,"latitute":"51.728721","longitute":"0.240137","amountDemanded":"2","pricePrefered":"15","distancePrefered":"14","energyTypePrefered":"4"},{"index":91,"seed":"UOFHQHFMUOPNBAW9WTEAWROENRB9TXPPK9TQKVYAWRUHGMUTNDKRKHXUSNGUVCDKBHKIMFBYHTGPPFBTO","address":"XNKPPDHXZFMMHSXAMQXTV9ZFCZMWSJGJGXEES9ETSQYYUQUCOVGYCZHYHZZJIAGDOM9DBIAALLLEJREJW","optimalPurchaseTarget":-100,"optimalPurchaseTargetScore":-100,"availablePurchaseTargetList":[],"optimalSaleTarget":-100,"optimalSaleTargetScore":-100,"latitute":"52.085183","longitute":"-2.359118","amountDemanded":"6","pricePrefered":"16","distancePrefered":"14","energyTypePrefered":"3"},{"index":92,"seed":"JUWGVONPXLTHGFSNV9XFWQKVFPDEQJICBIBIUYCFFGLHMBYHDFDMMFCTWJ9CWSAYIQDLXCFDFNKYVWJTI","address":"HGQPLBK9IQHOEQNYFIZ9OE9QIHWFPQUTEDYZOGIQSZCOZWZTMWEBDIMQXMWSYBGHGDOTRDQHOIPGGGTUB","optimalPurchaseTarget":-100,"optimalPurchaseTargetScore":-100,"availablePurchaseTargetList":[],"optimalSaleTarget":-100,"optimalSaleTargetScore":-100,"latitute":"51.427838","longitute":"-0.509690","amountDemanded":"3","pricePrefered":"14","distancePrefered":"10","energyTypePrefered":"0"},{"index":93,"seed":"DJMWAPQFNKUNEWLQPBARDA9BUEODHWVTWQSI9QAVUGWFSQXYIKD9VTQSNNLVADANOQTFCCUYHQHNDSLAW","address":"TFACESQCHFJUNUJEXCLSCXVXWWBWTLGCQFDMVIUCJSVUOPQLXJO9RLRO9JUASVWSYMAMTPKBSCFD9OUZB","optimalPurchaseTarget":-100,"optimalPurchaseTargetScore":-100,"availablePurchaseTargetList":[],"optimalSaleTarget":-100,"optimalSaleTargetScore":-100,"latitute":"52.317382","longitute":"-0.945924","amountDemanded":"2","pricePrefered":"14","distancePrefered":"15","energyTypePrefered":"1"},{"index":94,"seed":"GLEDUS9KGS9HGRWIXPXCNQOIUIRVXOBGDKOMUEQCUHXWJBK9L9CLQOURWSHFJXPDVNBWDRWLMHCEBWIXS","address":"WCOF9U9AUCOTRWNZWQRTWQYYQHZBNOJXKCCYUCMMKRUGJJZPEXYAUEZMEBYFEGUWJROFOZATDNLWNQVPD","optimalPurchaseTarget":-100,"optimalPurchaseTargetScore":-100,"availablePurchaseTargetList":[],"optimalSaleTarget":-100,"optimalSaleTargetScore":-100,"latitute":"52.355791","longitute":"-2.295261","amountDemanded":"5","pricePrefered":"15","distancePrefered":"15","energyTypePrefered":"4"},{"index":95,"seed":"VWBFFOFEYHSTTLFCFLQMNPJKPXWXNCWVIFFWLVAIQLMYVEVMOFECVWHHJAGOWXJPNKVALWNLOKOUKRFPN","address":"WXBNTYRMTLVDANBWIMWOGTP9AULLMXONCTGMTISHKTKWEXEOKK9IIIHTHZLPYHBBDYJNOXIGSERGDBMZC","optimalPurchaseTarget":-100,"optimalPurchaseTargetScore":-100,"availablePurchaseTargetList":[],"optimalSaleTarget":-100,"optimalSaleTargetScore":-100,"latitute":"51.585037","longitute":"-0.123094","amountDemanded":"5","pricePrefered":"14","distancePrefered":"11","energyTypePrefered":"1"},{"index":96,"seed":"EBDKTONCBBOYMLUPJX9SJWHWKUQNDUFQUDLRYBNDXWCNUW9SELJVMYFGHI9FWMOKSNTSTRLXWVIENIMRE","address":"GJJJQPBEUIMVYUFHOWQPVUMXWPZZAB9PVGPDZDTDVKOZVSWXWOQSYGMAPOZWOSBENKPGMWJLFOXBUHPPX","optimalPurchaseTarget":-100,"optimalPurchaseTargetScore":-100,"availablePurchaseTargetList":[],"optimalSaleTarget":-100,"optimalSaleTargetScore":-100,"latitute":"52.131650","longitute":"-2.085120","amountDemanded":"6","pricePrefered":"15","distancePrefered":"12","energyTypePrefered":"3"},{"index":97,"seed":"OSDTRGITUYMLFGCVQSRNJALC99EDDOLKIXYCL9STKLCOHJVSKHSOGLPXDYILXOIVKMTSJSET9FQTLPXFS","address":"XLON9VUKMZ9EVCJLJRXHJCNJKUJ9HATBJPAAKINVJOGAMGQSAUMCSGQWHTNRFE9ZXUDFXPLVAVFKUUJWX","optimalPurchaseTarget":-100,"optimalPurchaseTargetScore":-100,"availablePurchaseTargetList":[],"optimalSaleTarget":-100,"optimalSaleTargetScore":-100,"latitute":"51.037196","longitute":"-1.547484","amountDemanded":"2","pricePrefered":"14","distancePrefered":"10","energyTypePrefered":"3"},{"index":98,"seed":"RDRVOSJINHXTBGLJXPEGSPVWEWGVR9EHBBDINXVEGCYUUPJKNN99U9P9EANCGXMCMNALTHHMWROXUMIWJ","address":"ADPSW9SZBUHRRTVWKZKKACZQUIGHLGPPOCRTDXMVKQTLN9UUBNBBABMGPVWKKLEVNQTBUOHDFGYYLJAWY","optimalPurchaseTarget":-100,"optimalPurchaseTargetScore":-100,"availablePurchaseTargetList":[],"optimalSaleTarget":-100,"optimalSaleTargetScore":-100,"latitute":"51.297436","longitute":"-1.224987","amountDemanded":"4","pricePrefered":"14","distancePrefered":"14","energyTypePrefered":"0"},{"index":99,"seed":"QUGNOGQTUWWJFFKPNEPA9LHWJPJOP9HEIAXTVNOQNBMBUTTAHNKW9WXQUFIAVF9PSIEHMPWNB9LSPXDLQ","address":"LBRHCZOAVEDEHYEIYNQFKRBVDWZXWZSD9Z9TYGVWK9AR9WFUYMUKXDWUWSJLECQNATCPSXNTMPYGKWGNX","optimalPurchaseTarget":-100,"optimalPurchaseTargetScore":-100,"availablePurchaseTargetList":[],"optimalSaleTarget":-100,"optimalSaleTargetScore":-100,"latitute":"52.270578","longitute":"-1.028201","amountDemanded":"3","pricePrefered":"15","distancePrefered":"13","energyTypePrefered":"3"},{"index":100,"seed":"DGY99HDQVXRFIXLAGLHDHCHOU9BUEHNLAVTXHVXHTBYXPKVJTVFPQEYMELREHBBYQVA9DBPLQFLSET9FN","address":"HZKGNQRVXMNGYMHCJDLZEPUTTODCRARRWVVT9KOBAEADB9YJVHAEIQJLKEOQWWKQOEJXXTLCWXQQKIKLW","optimalPurchaseTarget":-100,"optimalPurchaseTargetScore":-100,"availablePurchaseTargetList":[],"optimalSaleTarget":-100,"optimalSaleTargetScore":-100,"latitute":"51.570521","longitute":"-0.897973","amountDemanded":"3","pricePrefered":"15","distancePrefered":"11","energyTypePrefered":"0"},{"index":101,"seed":"BIOIHMBOXEYUXPQQXYTTNGWUBVCGREIVOOVPNYHNTFUWRHYUSHAYQEAXI9XU9AUGIWYCO9OIRDCDAUJGF","address":"ENCQCZVBRUPEYFLSQNYOGLGLNNEMLENUULEYRMNPHLBOCSDSCXDYYTQCYMMCILXUPOWYOPEXB9VDYKQMX","optimalPurchaseTarget":-100,"optimalPurchaseTargetScore":-100,"availablePurchaseTargetList":[],"optimalSaleTarget":-100,"optimalSaleTargetScore":-100,"latitute":"51.209300","longitute":"-2.040450","amountDemanded":"3","pricePrefered":"14","distancePrefered":"12","energyTypePrefered":"2"},{"index":102,"seed":"MQFRJRWVXRLMCI9WPXQMAAEAUH9RD9ADILRUUGXJMRBODDXHRMAWVYV9QYPJWVVWUAMXTQYONDNNCSYMR","address":"WYOCDGHZAYFWDSFUGXEMVMBSXTBZPFKJDNAPRVPNQSQBTL9VMFJLMTWXVATOCBBGIQXCGTEVECUSK9BYA","optimalPurchaseTarget":-100,"optimalPurchaseTargetScore":-100,"availablePurchaseTargetList":[],"optimalSaleTarget":-100,"optimalSaleTargetScore":-100,"latitute":"51.759437","longitute":"-0.926869","amountDemanded":"1","pricePrefered":"15","distancePrefered":"11","energyTypePrefered":"2"},{"index":103,"seed":"TLGCEILIOOLQXOPMHLQXXXLHFJGBYBCLNDBBRDDYPJKIULLOHJDCUDXANWNTNDVABNEAMB9POKTEVYRJ9","address":"MAVGVQYSHESNRDEXUKRNLCFGVWIWTTPZX9JK9VHBRRDRSUUMWZWZVDGDAATROJJ9UDJGHNTMBNOSFSJKC","optimalPurchaseTarget":-100,"optimalPurchaseTargetScore":-100,"availablePurchaseTargetList":[],"optimalSaleTarget":-100,"optimalSaleTargetScore":-100,"latitute":"52.417044","longitute":"-0.290308","amountDemanded":"5","pricePrefered":"15","distancePrefered":"14","energyTypePrefered":"2"},{"index":104,"seed":"LUPNUFMLOPSUPTAPBEPQVEW9OBOLBPYGKFM9DQJLYNYIDXMMNDPFTAJRHGOVBJJMRPNBXKDMQKNWRNYJJ","address":"YSCMMWRBBLAHHDAPJDGKHEPWNAKFFWQGGBL9XMWHLAQSHNPNHUAEQGS9MCOHYJSVOZHPTDXYWOAYGRAJA","optimalPurchaseTarget":-100,"optimalPurchaseTargetScore":-100,"availablePurchaseTargetList":[],"optimalSaleTarget":-100,"optimalSaleTargetScore":-100,"latitute":"52.145977","longitute":"0.092903","amountDemanded":"2","pricePrefered":"15","distancePrefered":"10","energyTypePrefered":"1"},{"index":105,"seed":"NHWEWJSNSGXUKCRXBBYCASTVGGHRXNOXDFFFGAOYCAAAGHOYERRKFETSMGXEMKJTADASRECVLWLJJUQPH","address":"CEWYPHSKKAJQDEMI9PEDCZUNCGFBVHCIUVUQAQJFQ9XASALGAKPDCTULFMZDGHYOQJGEPGVKXDZTPMUAY","optimalPurchaseTarget":-100,"optimalPurchaseTargetScore":-100,"availablePurchaseTargetList":[],"optimalSaleTarget":-100,"optimalSaleTargetScore":-100,"latitute":"51.243687","longitute":"-0.869351","amountDemanded":"6","pricePrefered":"16","distancePrefered":"14","energyTypePrefered":"0"},{"index":106,"seed":"TFNYLKSULFUEAY9M9KQXBQMYWVJKVBDYAYLJAOFUBORVRHEUSHCYAHRPFTHMSR9XHCSVOOXBWYDDAE9BA","address":"TIMT9WQFZNAIUMRXKNXBOJJYRMDAABBVKTGGRRLIZHURMHGJZWJILZSZMWILEPKBISMEICNSOV9ZSYOSB","optimalPurchaseTarget":-100,"optimalPurchaseTargetScore":-100,"availablePurchaseTargetList":[],"optimalSaleTarget":-100,"optimalSaleTargetScore":-100,"latitute":"52.319324","longitute":"-0.040979","amountDemanded":"6","pricePrefered":"15","distancePrefered":"14","energyTypePrefered":"1"},{"index":107,"seed":"GRLXKMYQYCAHPHWOFQJWBTY9JQVFTWEQFKMAYMX9XQSXMQCG9DYIQXKGSX9QVLAY9KFBVHHBPRQFESGAS","address":"QZFGDMMXMAJJSCFJWFHKXEV9DDTTDQTJZ9DEUXNUZHFSOYFHDM9IARRXUIKGR9G9QQKVVVYCTTZIFVNLA","optimalPurchaseTarget":-100,"optimalPurchaseTargetScore":-100,"availablePurchaseTargetList":[],"optimalSaleTarget":-100,"optimalSaleTargetScore":-100,"latitute":"52.263062","longitute":"-1.552427","amountDemanded":"3","pricePrefered":"15","distancePrefered":"13","energyTypePrefered":"0"},{"index":108,"seed":"VXRGRVYDCBUNGC9AJYHNGSNYVQKDSITHQTYITVUUSHGCIBJHWXGTTRYYBWFUETFNTIRT9QJVPNJIA9ABH","address":"G9LFBCMTPITDRGZIZBWXGFJEVPYTSFECFZJXUCKNJJ9FLWHFINRXYBSWFBQRFVQUYEQSNJOODYNVKJKT9","optimalPurchaseTarget":-100,"optimalPurchaseTargetScore":-100,"availablePurchaseTargetList":[],"optimalSaleTarget":-100,"optimalSaleTargetScore":-100,"latitute":"52.208692","longitute":"-1.734135","amountDemanded":"5","pricePrefered":"15","distancePrefered":"12","energyTypePrefered":"2"},{"index":109,"seed":"LHPSNJAWHBPKIEOKJBNQQXLPOQVKUDVY9NXJAPICFFFAPJVBHUIYQKOJETIYMEUIBIITASGPWBGIC9VUT","address":"KQZG9LNFXJLDSVAULCRL9IPQ9JPFRKGVCEGERFVLZIVRTZHOTTNTAENCBNQVQTIOIJUBXRSDURVDQRUDC","optimalPurchaseTarget":-100,"optimalPurchaseTargetScore":-100,"availablePurchaseTargetList":[],"optimalSaleTarget":-100,"optimalSaleTargetScore":-100,"latitute":"51.209251","longitute":"-1.088938","amountDemanded":"5","pricePrefered":"14","distancePrefered":"12","energyTypePrefered":"2"},{"index":110,"seed":"TLKNAXXHA9IIOPNELSYDSNDLQLVPXLNOLOGQRUAWUDLJLDDMCNL9PEODBQKJ9WWDLFREJGVQSHIKFKIXF","address":"ZZVLK99UCZXPMH9NKMVNHNXYQMHYRP9SKZODNMZIGELARUNZFPTSZMWRFRJOSEDJAXQXNHR9EFDSFKFCC","optimalPurchaseTarget":-100,"optimalPurchaseTargetScore":-100,"availablePurchaseTargetList":[],"optimalSaleTarget":-100,"optimalSaleTargetScore":-100,"latitute":"51.292918","longitute":"-0.237224","amountDemanded":"3","pricePrefered":"16","distancePrefered":"11","energyTypePrefered":"1"},{"index":111,"seed":"PIAGVDKAYVUDSETOYGNIWQQEWIAMTUNLTSWQOHVLVCWXKYDUJCKYGNSIESPC9FTHPLTDPJQHAN9D9VGYC","address":"BCNYPE9LYXVJQUJSIRZWVGIKRIYFYJSIGRLOVCOKGPJGFLWZNJUNMQUUTVH9GWAHEKOJEI9JNQXQOQEMB","optimalPurchaseTarget":-100,"optimalPurchaseTargetScore":-100,"availablePurchaseTargetList":[],"optimalSaleTarget":-100,"optimalSaleTargetScore":-100,"latitute":"51.329118","longitute":"-0.798084","amountDemanded":"2","pricePrefered":"15","distancePrefered":"14","energyTypePrefered":"2"},{"index":112,"seed":"9GCSSEU9IACPPKKITKCCDOWEOHWJACXWBKC9XBVFCV9XHMHC9MP9ASIJVKTRCETIYTXFJXJWHHMSOPVLU","address":"IIQPEKQITCKUNGZHYOTKPLVNIN9N9VLCKYMHLVL9NVLRKHXUAKISBQRCHXCCGYZAYBRFCZRTTZRHNSJID","optimalPurchaseTarget":-100,"optimalPurchaseTargetScore":-100,"availablePurchaseTargetList":[],"optimalSaleTarget":-100,"optimalSaleTargetScore":-100,"latitute":"51.729436","longitute":"0.088295","amountDemanded":"1","pricePrefered":"15","distancePrefered":"13","energyTypePrefered":"3"},{"index":113,"seed":"UQVYKDMVI9NPEMSBVVLJWQBTMSRGPRUMWDVTSEEI99SBKDMHYLOBJGL9JIHTQPPCCPQDYIJOQDGNXESXU","address":"KUNJBGJBZCFKSAOBGMOAZSFREWBFJDPTSIBLDEZXC9D9YSLOECAPCYWFPHUHFZVLZTDPPGCMYSDKAUVCD","optimalPurchaseTarget":-100,"optimalPurchaseTargetScore":-100,"availablePurchaseTargetList":[],"optimalSaleTarget":-100,"optimalSaleTargetScore":-100,"latitute":"52.297727","longitute":"-0.119937","amountDemanded":"3","pricePrefered":"14","distancePrefered":"14","energyTypePrefered":"3"},{"index":114,"seed":"EXF9WPRXQ9OOWA9PP9PUWTIVVP9XGXDDOFRLEKYSDAJYDHDYTEDPEPXH9CYWLENIUDCSWNAKKL9CHDMGK","address":"QQYVWHWRKTDJJQSHDLDVDOSKOT9AZYRLHIHSGISKKUWKKMFLCRYTDWQIYXVP9UJLFKSRNRVADQTTKPJNX","optimalPurchaseTarget":-100,"optimalPurchaseTargetScore":-100,"availablePurchaseTargetList":[],"optimalSaleTarget":-100,"optimalSaleTargetScore":-100,"latitute":"51.315307","longitute":"-1.611769","amountDemanded":"4","pricePrefered":"15","distancePrefered":"13","energyTypePrefered":"3"},{"index":115,"seed":"OOTCBOQSTKUCFBHXDBUNBPTOECSGWWIVSHVJPUHHDIPDXMWBOKAIHMHPCR9QPPBXXLXWXBAUJMQMHVIOW","address":"QALCLTOGCNMTZWXGCCCJOOLEIQFWGXACFLVIPUNZELWJNULGADUMGMVSAWQHFMFZNTGRQCPK9JUSAPMFC","optimalPurchaseTarget":-100,"optimalPurchaseTargetScore":-100,"availablePurchaseTargetList":[],"optimalSaleTarget":-100,"optimalSaleTargetScore":-100,"latitute":"52.131625","longitute":"-0.126004","amountDemanded":"3","pricePrefered":"15","distancePrefered":"12","energyTypePrefered":"4"},{"index":116,"seed":"RUGOTATNETFC9CAYSMVMGSJYKYCEBSJJJCJNDHTJMLGKPYEVRGSSXJKOWKYLPNQRAPTJQGLCKRMIFAWBG","address":"YIBTWT9PRQTUTFBNBYU9HMLBTGGTQNN9OYRRASSPLLZMJTDTUMWHCCKHUFTBYLWO9OJZGAQCLFVZPUYHB","optimalPurchaseTarget":-100,"optimalPurchaseTargetScore":-100,"availablePurchaseTargetList":[],"optimalSaleTarget":-100,"optimalSaleTargetScore":-100,"latitute":"52.055528","longitute":"-1.595691","amountDemanded":"5","pricePrefered":"15","distancePrefered":"10","energyTypePrefered":"2"},{"index":117,"seed":"TCLOK9GQR9GVSUYHGACVQGJPCTQCUDUDFVTEFJLQNJTQQFCSCEXGAIULFQFQDLVGOKYJQSTJCWPXJOHMN","address":"CTCVYZKIAQXSGMCHRVTALGNYNHJYMWTYDKLUQQYLOGPFMRBHCSIZRWUAKACR9AGPNYYBFFFMCMJJG9FWD","optimalPurchaseTarget":-100,"optimalPurchaseTargetScore":-100,"availablePurchaseTargetList":[],"optimalSaleTarget":-100,"optimalSaleTargetScore":-100,"latitute":"51.110410","longitute":"-0.997037","amountDemanded":"5","pricePrefered":"15","distancePrefered":"10","energyTypePrefered":"2"},{"index":118,"seed":"RJPXRSLNPVQSHMSGWXBGBKDLKGHGWQAP9EWKLXKVXALNQWYEUADKGYXNYUCO9HXPSYPITJTBVLMEUUUGN","address":"DZUYYENLGCYDLLDUBF9YENLFJAQYKYTLDXIZT9OEIIZNZN9DFMBEHFSBCVUVIGJGHDKGRX9BHDPXKMBZ9","optimalPurchaseTarget":-100,"optimalPurchaseTargetScore":-100,"availablePurchaseTargetList":[],"optimalSaleTarget":-100,"optimalSaleTargetScore":-100,"latitute":"51.542325","longitute":"-0.827141","amountDemanded":"3","pricePrefered":"14","distancePrefered":"14","energyTypePrefered":"0"},{"index":119,"seed":"VNIYJMXYTDPRHOPNNVNYOOJEGMBCAQDACXUWKDKNIXEGJHQFDEFNLFUNDCUDCLAXUENPROQLNNMWIQGAW","address":"ZNDIKQQZEXHHKVQWPABBJVWEAIGVXNOIVAENNMPFRNPAXOOLXSWMABAKOUVEYCNIOD9AMCWQUNTSHUOUW","optimalPurchaseTarget":-100,"optimalPurchaseTargetScore":-100,"availablePurchaseTargetList":[],"optimalSaleTarget":-100,"optimalSaleTargetScore":-100,"latitute":"52.367963","longitute":"-0.255850","amountDemanded":"2","pricePrefered":"15","distancePrefered":"12","energyTypePrefered":"2"},{"index":120,"seed":"NHUGLN9UDBQYUIGBQAUUELJDUVKFF9EANSBTPQTNDMMHC9SNCMEPHUUTKRXPVAXBTRTRJEMHRCUHCUTLY","address":"EKMXUYSDHQVWSQHQQLWRGYTMZXMUM9JOQLRXPAWYCTOPYAJWNXQSOVPOZJAPCQVLMJCUOTOTDGWICP9IB","optimalPurchaseTarget":-100,"optimalPurchaseTargetScore":-100,"availablePurchaseTargetList":[],"optimalSaleTarget":-100,"optimalSaleTargetScore":-100,"latitute":"51.967854","longitute":"-0.510479","amountDemanded":"2","pricePrefered":"14","distancePrefered":"13","energyTypePrefered":"0"},{"index":121,"seed":"NJPVFEOSVOPTSMWKUGVOUXECNFLDSNOPBICTMCKAOUDUNAIHCVXACKEYQMHLXJHKPF9DOJUXGB9HNCFQV","address":"FOVCLRVEUSOPSLXYUVVEIZVOEFLOCVJERECXCXCTPZINAXOWFNZFAUPRLRXVKITNQQOOMILGRWZJGEPZC","optimalPurchaseTarget":-100,"optimalPurchaseTargetScore":-100,"availablePurchaseTargetList":[],"optimalSaleTarget":-100,"optimalSaleTargetScore":-100,"latitute":"52.390371","longitute":"-0.455808","amountDemanded":"3","pricePrefered":"15","distancePrefered":"10","energyTypePrefered":"0"},{"index":122,"seed":"9GFVIPMJGBJJKNJWPLTYVSRTFORUIKHGLCPWMRFUKUYUIHBMMKIVNSAE9OCECYJWJSQIWWQX9URQGADEP","address":"WTURTFPUWTMYHROLPSUSKW9NXADPDKOKPIZFCZXSFRFUZVXVILYJACTOS9CJGBHOIWESGFYGZOCRJGBEW","optimalPurchaseTarget":-100,"optimalPurchaseTargetScore":-100,"availablePurchaseTargetList":[],"optimalSaleTarget":-100,"optimalSaleTargetScore":-100,"latitute":"52.270639","longitute":"-1.036833","amountDemanded":"6","pricePrefered":"14","distancePrefered":"11","energyTypePrefered":"3"},{"index":123,"seed":"QRIQUYLLCFKKFJASFBCKXLXGHGMLWDDAKNJJPLHG9HWCGG9EFMUJPDYFWFIS9UWLNYDNJNIFHIL9HHJLK","address":"SYSPGAGWZHSH9SGFVYMVQAURUKXYUPHLIUL9RLXMTZR9ARRCRZWUQSOQLVFZVUOGDRHUVZ9AWPKXHGPHD","optimalPurchaseTarget":-100,"optimalPurchaseTargetScore":-100,"availablePurchaseTargetList":[],"optimalSaleTarget":-100,"optimalSaleTargetScore":-100,"latitute":"52.067538","longitute":"-2.029333","amountDemanded":"3","pricePrefered":"15","distancePrefered":"14","energyTypePrefered":"2"},{"index":124,"seed":"DBEJNFUINVHVNYSCD9UPTUVFMKJLRPILPDBSPUFXHGIPIRMAUF9XQCCULAETIQSJXNFHBBKKJ9EGHKUDU","address":"NJGWJJCBBYXTUY9EGNPRET9CQYZCHFWZRWECYQYHHSJCPRCKYREOEYNEBNNG9MJGQNE9GPQCAYDPXZHZA","optimalPurchaseTarget":-100,"optimalPurchaseTargetScore":-100,"availablePurchaseTargetList":[],"optimalSaleTarget":-100,"optimalSaleTargetScore":-100,"latitute":"51.553039","longitute":"-0.058867","amountDemanded":"3","pricePrefered":"14","distancePrefered":"15","energyTypePrefered":"4"},{"index":125,"seed":"DNBBDOITCDATR9TNIRBOMKGERKTJAIQPPDXYSHLDCXXPNYRAEHBELK9ITIBTGJGFOVKGNWOFFIMSKTLYQ","address":"ZOHAYTECZTUQIZOTKEWTWLM9NEDCMDZHROHXNFCAZLNA9WIFHXFSYMDNLQLKUPLKRSGTEZXMKYKCCRTID","optimalPurchaseTarget":-100,"optimalPurchaseTargetScore":-100,"availablePurchaseTargetList":[],"optimalSaleTarget":-100,"optimalSaleTargetScore":-100,"latitute":"52.087530","longitute":"-0.972506","amountDemanded":"5","pricePrefered":"15","distancePrefered":"15","energyTypePrefered":"0"},{"index":126,"seed":"YTH9CHUEMQKRWVXEPCRTFM9EBJXFHJVFOMDDEXKBGJN9DPUAGADSLCONLRVAIRCBXQXDWTKWYITIJCVFN","address":"ZOQWEXAHDLPRYWWESMQWR9G9AKOTERKVVDHGQCQVUTBEEDMXJQSWDUGDNVISANSSLLHTDTWLFYUGWRIEX","optimalPurchaseTarget":-100,"optimalPurchaseTargetScore":-100,"availablePurchaseTargetList":[],"optimalSaleTarget":-100,"optimalSaleTargetScore":-100,"latitute":"51.025162","longitute":"0.085057","amountDemanded":"4","pricePrefered":"14","distancePrefered":"12","energyTypePrefered":"1"},{"index":127,"seed":"LHCABMYPLMU9PXQKHTPUVWEBUVJYLVQLCGVGGF9YCQIGEJXWFMDA9INMDQS9HWSA9ICQ9LSC9KCBIDNWK","address":"QSJX9VKYLUXNHBFW9NYNMZBLUTUAARJQXKTJPERVJRRDCGUSCHKOZSELQKDFOHXESNCFHSDCCL9I9QYLB","optimalPurchaseTarget":-100,"optimalPurchaseTargetScore":-100,"availablePurchaseTargetList":[],"optimalSaleTarget":-100,"optimalSaleTargetScore":-100,"latitute":"51.597048","longitute":"-1.032778","amountDemanded":"4","pricePrefered":"16","distancePrefered":"15","energyTypePrefered":"0"},{"index":128,"seed":"RT9LRRLCLIQUVDAPXLYCAGYMQXNOMQPDJXAOEUSI9YRQ9XUCNLWAYDCSQEFUHPKFD9NEDJDQI9YPSFMQJ","address":"SMZACRBKCPJTGYMNKBIYCVCDAGWHCZMGTDY9NORKXJNYXOSCUJRSHWKQCNV9YKSIUKZ9SFNDZX9JDXGQW","optimalPurchaseTarget":-100,"optimalPurchaseTargetScore":-100,"availablePurchaseTargetList":[],"optimalSaleTarget":-100,"optimalSaleTargetScore":-100,"latitute":"52.093572","longitute":"-1.719826","amountDemanded":"2","pricePrefered":"16","distancePrefered":"12","energyTypePrefered":"2"},{"index":129,"seed":"OTAUDVJRNMQOCRKDMVMRWHVKNOKBHIFSVPQLXIHWJKVYMKIY9YLTILAHPULICDBGVBROPKDXLXOLHN9QF","address":"GXADCFJVIKJUVXAFGEBRSAFC9DEJBU9RVFMGBXHPNPOSOMVKYLTUNVEBHZI9EKVEHO9EEHYGUDXVSFAYD","optimalPurchaseTarget":-100,"optimalPurchaseTargetScore":-100,"availablePurchaseTargetList":[],"optimalSaleTarget":-100,"optimalSaleTargetScore":-100,"latitute":"52.259128","longitute":"-2.370153","amountDemanded":"1","pricePrefered":"16","distancePrefered":"14","energyTypePrefered":"3"},{"index":130,"seed":"CWLNJULOUV9PMBWMRRMRTTMVLXLLXSDFQMGEMFCWJXNWNSDGWLPLBMVBROSIMSAPCQJXFKHGPPKIVGBOT","address":"MGBPRJBJTQCFXERGVHJXPQKFNSAUEKYEIPRQGDQOPLANOSOFFUNYNOPDPFNCA9TCYZGOPA9BRICRLRGOY","optimalPurchaseTarget":-100,"optimalPurchaseTargetScore":-100,"availablePurchaseTargetList":[],"optimalSaleTarget":-100,"optimalSaleTargetScore":-100,"latitute":"51.452685","longitute":"-1.203840","amountDemanded":"5","pricePrefered":"15","distancePrefered":"13","energyTypePrefered":"3"},{"index":131,"seed":"HBHYPIBCRKTX9LIMIUHACMGBHGNEG9NPWG9XGKCNBNMYWVJQEKWQOCHCCFAGBDW9UKRNWMBQNI9JNIWFI","address":"KZHJXGWLTTGKCPCPD99QXMQSPI9DLURXZZFYIYKMXT9ICLJSOYHTLRCSEVYRHLEVHVAIKJLPJWFFNQYAB","optimalPurchaseTarget":-100,"optimalPurchaseTargetScore":-100,"availablePurchaseTargetList":[],"optimalSaleTarget":-100,"optimalSaleTargetScore":-100,"latitute":"51.134735","longitute":"-0.452234","amountDemanded":"2","pricePrefered":"15","distancePrefered":"13","energyTypePrefered":"3"},{"index":132,"seed":"GUYREQKECWOWNXYJWMATJATCQLFXKCLJPJTAVDWLGQOYPCJOAIBROVTRDGTYYNKC9PLGNEOKLEDAWLIXK","address":"AZJVYERGTCGVJQQAJHMQUSDWR9OYAVTXVGPUQBAILV99JNFD9MDOXOGETRLYRUDCIMIJZRFUBZWWEKEQC","optimalPurchaseTarget":-100,"optimalPurchaseTargetScore":-100,"availablePurchaseTargetList":[],"optimalSaleTarget":-100,"optimalSaleTargetScore":-100,"latitute":"52.152276","longitute":"-1.911333","amountDemanded":"1","pricePrefered":"15","distancePrefered":"11","energyTypePrefered":"3"},{"index":133,"seed":"WLXRKHNSMLUQKICSCSWQBHUOHEWPUKOTHCPMXOFFVTOEQQREO9REJJWTMLREDYFPXPBJAJXONATMNYGPK","address":"RDFOS9IZEXTXYOCINLCKBMLFFEPFBNKJE9PXDJMGNORRHMKGXFCEZFGKMIVIAXSMSBNJWLVWHWURMBTVD","optimalPurchaseTarget":-100,"optimalPurchaseTargetScore":-100,"availablePurchaseTargetList":[],"optimalSaleTarget":-100,"optimalSaleTargetScore":-100,"latitute":"51.658246","longitute":"0.033293","amountDemanded":"5","pricePrefered":"15","distancePrefered":"12","energyTypePrefered":"2"},{"index":134,"seed":"EEWSEJLTVTDOEMFODYDQOGUIWMPP9GCIBNCITLUSKISETJAQPXQDTSSKDTDYOCTNUESTANLGMBGGWJDFK","address":"LDCFEJXANNH9QDAMBZGGJDIFLSBQRXPZJKBKAKHDYSWXFXNVEIXCIYC99OERFPLHBNOPHBJSTQCYPFPDW","optimalPurchaseTarget":-100,"optimalPurchaseTargetScore":-100,"availablePurchaseTargetList":[],"optimalSaleTarget":-100,"optimalSaleTargetScore":-100,"latitute":"51.629670","longitute":"-0.488403","amountDemanded":"5","pricePrefered":"14","distancePrefered":"12","energyTypePrefered":"3"},{"index":135,"seed":"DYPC9CDANMVQVXITVTUWOLYRIUJCRUNUT9NMPX9IVRQJTHPDYKYGDGKX9PFOACWNNRXYBTVNVNPQVDHXD","address":"MDBUDIKMNJZBWNZFPAFTBXGYJ9YIKXBTD9XHZANU9TCON9HOWPDJI9OGILVVPAVUZQFLNPQTOERDPUQRB","optimalPurchaseTarget":-100,"optimalPurchaseTargetScore":-100,"availablePurchaseTargetList":[],"optimalSaleTarget":-100,"optimalSaleTargetScore":-100,"latitute":"51.525928","longitute":"-0.974047","amountDemanded":"1","pricePrefered":"16","distancePrefered":"12","energyTypePrefered":"0"},{"index":136,"seed":"OIHIWHCALTVJEEIUOAANHEIOEXQRYVOGHQ9TJLVHSWJOLIYIVWDDRKMYOVFNJRSXQCYCXSNHVREHKLICB","address":"HHYILWLJM9CRAZKTC9AEJ9NEMGUYLISCYIDAETUJDQHDIAOMHHWPSAB9WYEFCKPX9SKKWKSEPTYAWPQZD","optimalPurchaseTarget":-100,"optimalPurchaseTargetScore":-100,"availablePurchaseTargetList":[],"optimalSaleTarget":-100,"optimalSaleTargetScore":-100,"latitute":"51.155124","longitute":"-1.726219","amountDemanded":"3","pricePrefered":"16","distancePrefered":"15","energyTypePrefered":"3"},{"index":137,"seed":"TDYGCUGLSXG9F9EOLMGFJTLOERVPISEGCOGPSHPLHRKCFHGGHIWXE9KWPTAAKPIJWWOACXSINCJNIGIXV","address":"KULRNSDUL9ZUAKUUWY9LHNQYDTMJQVXSLGBQK9XCCTOEPMCHZXWIGLYTKQPYGOFSNW9IGZCULRC9XAOHW","optimalPurchaseTarget":-100,"optimalPurchaseTargetScore":-100,"availablePurchaseTargetList":[],"optimalSaleTarget":-100,"optimalSaleTargetScore":-100,"latitute":"51.550805","longitute":"-1.271871","amountDemanded":"2","pricePrefered":"15","distancePrefered":"14","energyTypePrefered":"3"},{"index":138,"seed":"GYAGWEBWOXKHQRVRDIUDRCJCLFLBGNGUCIHMOSGSXAUJVSFSEQRXCGVEJKQIOYXNDLPELJVJBUUDYOAEM","address":"UETUFBCKLLRXZUUEXKZWGDYEBIXHZEKPDDMDKOEE9YTMSLMABJJBHQWVZNTILVBY9PDVUTUYV9EZARVMB","optimalPurchaseTarget":-100,"optimalPurchaseTargetScore":-100,"availablePurchaseTargetList":[],"optimalSaleTarget":-100,"optimalSaleTargetScore":-100,"latitute":"52.084800","longitute":"-0.046630","amountDemanded":"5","pricePrefered":"14","distancePrefered":"12","energyTypePrefered":"3"},{"index":139,"seed":"IE9ECSFDTLVHOY9SLKNYTVKSHCWWAAWSVXPCJ9SWOEYVBETTLDEQTHVYMX9PLHUHHNJEF9U9BNUFTBNON","address":"9OKFBINH9ONO9GOKJYQTHKZHROLGVLY9TJLFTYPKLWVJRHYMMLWHUGWVLG9VSNZACZLRCRDVYFQFHZFGB","optimalPurchaseTarget":-100,"optimalPurchaseTargetScore":-100,"availablePurchaseTargetList":[],"optimalSaleTarget":-100,"optimalSaleTargetScore":-100,"latitute":"52.428710","longitute":"-0.590248","amountDemanded":"4","pricePrefered":"16","distancePrefered":"12","energyTypePrefered":"2"},{"index":140,"seed":"HUUAQHJK9ECCHMFQORKXWMFXFFLVXHEEHGS9HKD9PWEENIGYGLSDDWDQM9OKA9OJHAJS9GOYPJYPAGJQT","address":"CIUREHXUQRIINJCXVFAGUQSEGVPKJCQHTPYTOJSFBPKBSWXXNZWOMUDXDQCOHCRGEVKZYDMOCIGMOHRI9","optimalPurchaseTarget":-100,"optimalPurchaseTargetScore":-100,"availablePurchaseTargetList":[],"optimalSaleTarget":-100,"optimalSaleTargetScore":-100,"latitute":"51.085847","longitute":"-1.176642","amountDemanded":"2","pricePrefered":"16","distancePrefered":"15","energyTypePrefered":"4"},{"index":141,"seed":"JPBOY9U9M9QLIUWJPGKHAXWGPWRCUFCHGXNDCVTJQBMEBPIUGSFBGNKGXABHVKKPDCSYFIO9FRGIHVS9B","address":"GYNTKZNQYF9COBUDPZGYLVW9PKYCTMQPQRBHQCCP9JZJQFZAHL9M9ASBCMFYVHZMMHOIDILAPSLWDQXQW","optimalPurchaseTarget":-100,"optimalPurchaseTargetScore":-100,"availablePurchaseTargetList":[],"optimalSaleTarget":-100,"optimalSaleTargetScore":-100,"latitute":"51.747515","longitute":"-0.839119","amountDemanded":"1","pricePrefered":"15","distancePrefered":"11","energyTypePrefered":"1"},{"index":142,"seed":"EYCGDUEFJYIOJECDGREBHUCXPMMHJMGUNWXMYT99ENOJQM9IKGCJGOHENEXBSCDICFXDUM9RDJVQOWHRL","address":"PLJQELDECONMFIOMUOO9TXPVKZWDZWLKQYBNMYLAKKRPGMQGWHCJOV99BKIDY9WDAWIDKCRT9ZNCBGVSX","optimalPurchaseTarget":-100,"optimalPurchaseTargetScore":-100,"availablePurchaseTargetList":[],"optimalSaleTarget":-100,"optimalSaleTargetScore":-100,"latitute":"52.188439","longitute":"-2.111884","amountDemanded":"1","pricePrefered":"14","distancePrefered":"12","energyTypePrefered":"2"},{"index":143,"seed":"YBSULOKCIERJDKPRUMBRTOJNHDLTX9TAJP9FIGPKHTTMSUK9PFJJMLSIBCUERBUANWAOASNX9NVXFVOCT","address":"PHJGKPHTAPDVUCCXAOFQYS9RSKHQELDNMDFJZGHTZ9MHNMOZGAEYHGZVIIGVPDBQVDOYHXFLP9THOOURB","optimalPurchaseTarget":-100,"optimalPurchaseTargetScore":-100,"availablePurchaseTargetList":[],"optimalSaleTarget":-100,"optimalSaleTargetScore":-100,"latitute":"51.304629","longitute":"0.117293","amountDemanded":"3","pricePrefered":"15","distancePrefered":"14","energyTypePrefered":"0"},{"index":144,"seed":"KCJAWHFPHURSWSGAINDXRLGHKDSXNKMBACILPIIUVAWXYISSJXMXRTIWHWQIJROXIDAQWFJBOCMX9TQFH","address":"HZMDLBZN9XXSSPA9X99IZTAVNWDKGULGJIKENQCYXQPSTBGQRGQZZDRAWALMBALIUFWF9AQWINTOLWYQY","optimalPurchaseTarget":-100,"optimalPurchaseTargetScore":-100,"availablePurchaseTargetList":[],"optimalSaleTarget":-100,"optimalSaleTargetScore":-100,"latitute":"52.334514","longitute":"-0.148866","amountDemanded":"5","pricePrefered":"14","distancePrefered":"13","energyTypePrefered":"1"},{"index":145,"seed":"UKLSXIUADPAUMMARUTHSMFOBDSKJVRRFSYBBWHQJEHDKATNVSSCMJKXKBAIUBYIKI9TKSKHOWUJSCCWDH","address":"WEQKOTADJAGCFWUTIQNTIRZDG9OCEGCBYTUTNPRIJXLGHRRGKDIICQAZGXAIMYGXPACELFOINFHTDQCZB","optimalPurchaseTarget":-100,"optimalPurchaseTargetScore":-100,"availablePurchaseTargetList":[],"optimalSaleTarget":-100,"optimalSaleTargetScore":-100,"latitute":"51.795407","longitute":"-0.241037","amountDemanded":"3","pricePrefered":"16","distancePrefered":"14","energyTypePrefered":"1"},{"index":146,"seed":"RQFOLCOGNNIWDSTUMKPNFOUJTFVDENTKAHSOJDVDUVJY9AJQKFD9MLIFJPGWIYJPWUWTJRKUDJJFNIQPY","address":"YBRXASW9SRXHXVMPQOGKMQDE9UMHRWT9ERREIFHSKYMNDYRJBYAZPEOOFCNQKGOUGHFHFL9FIQJWKZPXZ","optimalPurchaseTarget":-100,"optimalPurchaseTargetScore":-100,"availablePurchaseTargetList":[],"optimalSaleTarget":-100,"optimalSaleTargetScore":-100,"latitute":"51.565875","longitute":"-0.843618","amountDemanded":"2","pricePrefered":"15","distancePrefered":"14","energyTypePrefered":"1"},{"index":147,"seed":"MYBBGYTTXVKSQFPTNNXXKXRYRQNPVV9K9NHSRS9FJSYALJMOOFSBMOUQXUJIYTHKNIMCR9SNNOLVUXJSP","address":"GJMOTNYGBDZML9PVWNNIXQDRYASYASLNALYJEBRE9GRJDEEVDGIDJGFJDZWIXRGNEQQL9EENSNPI9P9RX","optimalPurchaseTarget":-100,"optimalPurchaseTargetScore":-100,"availablePurchaseTargetList":[],"optimalSaleTarget":-100,"optimalSaleTargetScore":-100,"latitute":"51.024524","longitute":"-2.025057","amountDemanded":"2","pricePrefered":"15","distancePrefered":"10","energyTypePrefered":"1"},{"index":148,"seed":"TR9W9YGCDSOLYOLOQRILWSLLDABQTTPOOTKPAFMHBBBE9SUJMDR9GCNGFMFTYVFVCYQLIAXE9BECIBORI","address":"XRN9UBQOJKOWYCFGKWULEHAXLXQKOXBZCGCMCYTYWTFSQVAEPNVTCT9NZEWTOLXUQDHTCFSI9GSEXBGZZ","optimalPurchaseTarget":-100,"optimalPurchaseTargetScore":-100,"availablePurchaseTargetList":[],"optimalSaleTarget":-100,"optimalSaleTargetScore":-100,"latitute":"52.014609","longitute":"-2.151679","amountDemanded":"4","pricePrefered":"15","distancePrefered":"14","energyTypePrefered":"3"},{"index":149,"seed":"KCQDUPXTKOPFMXTXATDOHP9HGAGSIISSOQGSWVOBLSMFQEA9OMLTMQRIGEAQOBBAVCBGXFSJQNOVPMLVR","address":"J9NUSAYSRRIEUWNUQRIQGQVGHX9HTAQKCVHBGAIHHYHKQGGCUFSZGYOLA9LOYABYGZYUNCYLLHILWEQXX","optimalPurchaseTarget":-100,"optimalPurchaseTargetScore":-100,"availablePurchaseTargetList":[],"optimalSaleTarget":-100,"optimalSaleTargetScore":-100,"latitute":"51.076080","longitute":"-1.793759","amountDemanded":"6","pricePrefered":"15","distancePrefered":"12","energyTypePrefered":"1"},{"index":150,"seed":"9FXKR9KAFVRUIIUCAOOFWWLKCBQYDVGXPFFWWLTAUHOUPPYABUWSGHHFKSQPQADBDRBQKBXBM999OFPGB","address":"XHNTIOENDSGLHFZHKIHUDAJNKNPZDLUJWNFOZIJMOBOS9HEMLYBMEKVQBU9ABLC9ZSNCHPERA9KQPOKPZ","optimalPurchaseTarget":-100,"optimalPurchaseTargetScore":-100,"availablePurchaseTargetList":[],"optimalSaleTarget":-100,"optimalSaleTargetScore":-100,"latitute":"51.070499","longitute":"-0.726781","amountDemanded":"3","pricePrefered":"15","distancePrefered":"13","energyTypePrefered":"1"},{"index":151,"seed":"DMSRTTBJKOJADLH9TBESYCKA9JAUVM9IAYURDCJDVDVQNCQXKFRJPOKXEFBKXLWGF9JOOKYDKRLMJTLIE","address":"RZDWUPWJSFSASYPTGAQHTMTZISUYFVRTLAEMPWBKZYPQVQTSJDQUCXCLYMKLNDECJHDCUEIKRINLHJEBX","optimalPurchaseTarget":-100,"optimalPurchaseTargetScore":-100,"availablePurchaseTargetList":[],"optimalSaleTarget":-100,"optimalSaleTargetScore":-100,"latitute":"52.422439","longitute":"-2.224827","amountDemanded":"4","pricePrefered":"16","distancePrefered":"15","energyTypePrefered":"3"},{"index":152,"seed":"BPPMXOQUXRIHOQYRDWNOSTBDNVXPCAEACRNSLWKGNORLPUXA9UABAMAXNIOVBURKPMTFF99MRIEINYQNT","address":"NHMTRQTS9EOSWRVDFH9ZVSNT9SKQXHNHZOHTLJZYSYRJSKTBZFCNPDTEJJVZDSYEYSXF9DGJGLUYHWAVA","optimalPurchaseTarget":-100,"optimalPurchaseTargetScore":-100,"availablePurchaseTargetList":[],"optimalSaleTarget":-100,"optimalSaleTargetScore":-100,"latitute":"51.374311","longitute":"-1.969210","amountDemanded":"5","pricePrefered":"15","distancePrefered":"12","energyTypePrefered":"2"},{"index":153,"seed":"YAT9AYILRXHLIWDLEJSPMEAF9NDWHQFSQUGRKYFT9JQHUOYWEPSLQNNUOPCWRGVATCDTKSXRFPD9LQWRC","address":"VBUHWSPOF9TQAVSPRIDHZYILITQZUQX9MLLJOH9YWJZIHJYFUZDKLPLRUYXQESKZPSDVD9XUVUKGHHBYA","optimalPurchaseTarget":-100,"optimalPurchaseTargetScore":-100,"availablePurchaseTargetList":[],"optimalSaleTarget":-100,"optimalSaleTargetScore":-100,"latitute":"51.665563","longitute":"-0.155387","amountDemanded":"1","pricePrefered":"14","distancePrefered":"12","energyTypePrefered":"0"},{"index":154,"seed":"QPVFWJPBB9MFLJTLHONEYHOCJOTOAYIUOVMCOWFQIX9EKTNVQGUSTBMBRGJRHF9MQYDEGUONJOSOIWBRM","address":"WLCASGXBDPFFTYQJKLWJR9HKRGSDSP9LHPQQDWVAJIDKVBZLDMSXNARC9ALUQJKQYCJMYL9LIBOAXXXWC","optimalPurchaseTarget":-100,"optimalPurchaseTargetScore":-100,"availablePurchaseTargetList":[],"optimalSaleTarget":-100,"optimalSaleTargetScore":-100,"latitute":"51.151677","longitute":"-0.114693","amountDemanded":"2","pricePrefered":"16","distancePrefered":"13","energyTypePrefered":"3"},{"index":155,"seed":"UDEBKKKTOKX9PMMCLRGNWYQRIXAEXOEGODNOHTHQGXIERXDL9OXU9SOLUOYYTMKNRGPMMYEBGWT9OEY9F","address":"YJFWKTVTU9DGGFLIRVWACOHGRGYWVTGRTTH9QSHYBVPOYIERBIGWVUOAQEV9CKKWZFESXLJMVJWZERHDZ","optimalPurchaseTarget":-100,"optimalPurchaseTargetScore":-100,"availablePurchaseTargetList":[],"optimalSaleTarget":-100,"optimalSaleTargetScore":-100,"latitute":"52.181966","longitute":"-1.409703","amountDemanded":"4","pricePrefered":"15","distancePrefered":"14","energyTypePrefered":"3"},{"index":156,"seed":"NLIQ9GJGJDBYRQSUTTDYUTDYRIQIGDIAR9QUSTPFMQNXAOLWHMBXXCLFEXPQHKQW9BHQWAJSEBCCFTKQJ","address":"AKSELU9EGTYQOJLTJJCYLNSERGLCFWEINROV9KPJFQQHYAICZRKMDXMO9OKEUKKHFIXVOMSWPXMXSCAXW","optimalPurchaseTarget":-100,"optimalPurchaseTargetScore":-100,"availablePurchaseTargetList":[],"optimalSaleTarget":-100,"optimalSaleTargetScore":-100,"latitute":"52.009388","longitute":"-1.112483","amountDemanded":"5","pricePrefered":"16","distancePrefered":"13","energyTypePrefered":"1"},{"index":157,"seed":"WDQESMMOAMFBHNSQRKANFY9OWUQAFICQFGPJNW9GOWYG9HQCIHKSSYTCWSKSJDBNRNXTNRIPITMHBTPVU","address":"OQXIJS9FHINIQPGKMRSZPSKLSGVRCWAYTWMOHSFQBJCESWN9ABCUMYOLRZVB9VU9MCMR9OEGVOJTYLKRB","optimalPurchaseTarget":-100,"optimalPurchaseTargetScore":-100,"availablePurchaseTargetList":[],"optimalSaleTarget":-100,"optimalSaleTargetScore":-100,"latitute":"51.083649","longitute":"-1.167327","amountDemanded":"5","pricePrefered":"16","distancePrefered":"11","energyTypePrefered":"4"},{"index":158,"seed":"MBMWLEDKAXN9MLXAEBSELP9QRAYMJKXRP9KRIFCOGECCPUHRGNSDJXKPIXAAYAHAXCJPYATHUDDKQUADC","address":"NPMXINFQSXAVQZDIMACMDUOHTLWRMDDGLGKUJWNOZBBTEKHDRJVOASIVZT9L9TEKMFMKSNOH9WMBZLU99","optimalPurchaseTarget":-100,"optimalPurchaseTargetScore":-100,"availablePurchaseTargetList":[],"optimalSaleTarget":-100,"optimalSaleTargetScore":-100,"latitute":"52.090446","longitute":"-0.264184","amountDemanded":"4","pricePrefered":"14","distancePrefered":"12","energyTypePrefered":"1"},{"index":159,"seed":"TFTUCAQYMLXHPOVVBNEYJAULDUHQWCKVPHDIICGKKWNGDNKXLHPFMS9SIQUSMOV9AOCOMPMFCMPGWFELW","address":"TLRXRCOAOBQQLMHSWIWKRA9QBGBNEALXIVDRT9TOJZYPJIXSFOBJWUMRKPZMXHXATSABDPXELLVPTH9TD","optimalPurchaseTarget":-100,"optimalPurchaseTargetScore":-100,"availablePurchaseTargetList":[],"optimalSaleTarget":-100,"optimalSaleTargetScore":-100,"latitute":"52.328047","longitute":"-1.004014","amountDemanded":"4","pricePrefered":"15","distancePrefered":"10","energyTypePrefered":"1"},{"index":160,"seed":"QMYPDXPPNMAQ9HBAILSXLXUECT9BFDFFYHTU9QWBJSSLDTYULDSXIHKSAVU9Y9XFHAOEKYBJL9YRWGSRN","address":"IHRDDOSBZFHTPLNSYHUSTTXNOJIOZTBRPZCSKZYUTJRCWSETWUYHTPFVHQLH9PQINJMQNDPXEJJAYDDP9","optimalPurchaseTarget":-100,"optimalPurchaseTargetScore":-100,"availablePurchaseTargetList":[],"optimalSaleTarget":-100,"optimalSaleTargetScore":-100,"latitute":"51.903099","longitute":"-0.347955","amountDemanded":"3","pricePrefered":"16","distancePrefered":"13","energyTypePrefered":"1"},{"index":161,"seed":"QJQTWOBUIXFXE9FOWPPENBWFGEXPXNKJMQIOMMXPTF9XUFIUMUUASLXW99IISPR9APSXEXOME9SLBEXPV","address":"JZKJU9HZ9GJMLNLQFFDJZFKMLFM9VLEK9CABWDWCMC9KMHVUAQOUJMJXQVSBFOT9SRA9CDTJGZDLLSIOX","optimalPurchaseTarget":-100,"optimalPurchaseTargetScore":-100,"availablePurchaseTargetList":[],"optimalSaleTarget":-100,"optimalSaleTargetScore":-100,"latitute":"51.882544","longitute":"-1.063648","amountDemanded":"3","pricePrefered":"14","distancePrefered":"10","energyTypePrefered":"3"},{"index":162,"seed":"SRUIWPUWVIFQIT99VFVYJVNAHQSJEQUB9IYQGHORODX9MNECCSBVJNEWFFUCNSEOCSNCMHFGKGGJFMFEF","address":"OCIDZWITBVTTWOE9PVEALXFRYA9DB9PHKXAOLXGFRQCUWUUQTURSMZGN9CFQDTUVPBA9GURYXNLXZJDKW","optimalPurchaseTarget":-100,"optimalPurchaseTargetScore":-100,"availablePurchaseTargetList":[],"optimalSaleTarget":-100,"optimalSaleTargetScore":-100,"latitute":"51.334821","longitute":"-1.341023","amountDemanded":"4","pricePrefered":"14","distancePrefered":"11","energyTypePrefered":"1"},{"index":163,"seed":"RCCNIEQLEEJFGF9FYAW9QORXTUBBMC9UAFAAVWFANGNBHQXPQFWXETPIESWHKWSONXBETS9CWMFGMFEBT","address":"BXFPHMUYQLYNMYZXMSREAGYDKRIB9HNGBTJVZZERARDPVHFQEZKAMUZJZIFSOF9IWJJ9KXLSLXJYZQZOA","optimalPurchaseTarget":-100,"optimalPurchaseTargetScore":-100,"availablePurchaseTargetList":[],"optimalSaleTarget":-100,"optimalSaleTargetScore":-100,"latitute":"52.267711","longitute":"-1.171004","amountDemanded":"5","pricePrefered":"16","distancePrefered":"12","energyTypePrefered":"1"},{"index":164,"seed":"ODMRFRABYYDCDLILOQFPBCJUHPRKVVODESNGLITAVJQBXSKHXNOELDIEGJD9MQRHWI9EEVUXVKVGVMUFC","address":"KPFZ9TQOQGSCQ9NLAZKABTJXYAUYTRMWVQBFEDLREMGEAYEHQVNTZFHRNAKWQFXXVSXSMYBAGRWPSPVJA","optimalPurchaseTarget":-100,"optimalPurchaseTargetScore":-100,"availablePurchaseTargetList":[],"optimalSaleTarget":-100,"optimalSaleTargetScore":-100,"latitute":"50.999360","longitute":"-0.562103","amountDemanded":"2","pricePrefered":"14","distancePrefered":"13","energyTypePrefered":"0"},{"index":165,"seed":"MPTSPPOYI9SQXEVOGGLYTBOQTYTOMVTKYYTNSYHOMOUANHIDDNU9ILORPXBCCDSNKDGOXK9Q9SEVQUEYU","address":"ZAAJKOYVBHOWUIBLZVXGCGPRBTKIVJTDQWHNUWFFIMBVRFRZVHVSWGYEAMBMVXLMUEQMUXGNNLQKYPXPW","optimalPurchaseTarget":-100,"optimalPurchaseTargetScore":-100,"availablePurchaseTargetList":[],"optimalSaleTarget":-100,"optimalSaleTargetScore":-100,"latitute":"51.399554","longitute":"-1.785328","amountDemanded":"2","pricePrefered":"16","distancePrefered":"13","energyTypePrefered":"0"},{"index":166,"seed":"TROTUWSRVMXMUNJHQ9V9QBGIENASHJC9CUUWUPUSPAAYIILYJOREFSPQJFUUEKYHGTVBVDPYAFIYYUJBM","address":"IXYCUPQBRQVAXUXTNZWBJOEKQYFSFUNUEZBZW9EGCGA9OHKHXFEVVVVHU9QSNWESFMA9ZQXAQMX9BHNLB","optimalPurchaseTarget":-100,"optimalPurchaseTargetScore":-100,"availablePurchaseTargetList":[],"optimalSaleTarget":-100,"optimalSaleTargetScore":-100,"latitute":"50.960533","longitute":"-1.198239","amountDemanded":"5","pricePrefered":"14","distancePrefered":"13","energyTypePrefered":"2"},{"index":167,"seed":"GKBPNXXHHUGY9QWHY99SVXLVVNHKPVJVNAVURWJVMKQEVW9OISQNLBHFRAOMYQMQRAYFACWWLJAUKLLCN","address":"ACUMK9WGXJKEGDYWWPJHZQFZGWOPSYPBRZRHNQQMHBZULDNANXTDOUEZKCECYWEGZPOUZ9FNGUQJEEMCB","optimalPurchaseTarget":-100,"optimalPurchaseTargetScore":-100,"availablePurchaseTargetList":[],"optimalSaleTarget":-100,"optimalSaleTargetScore":-100,"latitute":"51.594268","longitute":"-1.972050","amountDemanded":"3","pricePrefered":"15","distancePrefered":"13","energyTypePrefered":"3"},{"index":168,"seed":"LNMJP9WFLATAAEKYGOYUINNIIQQIVJJBVJTXMOUEFNEXWLEWGTHKOHSSCHYXEGXMRVKMSON9PROGMYEO9","address":"9GWYDNSSZZYXOHYGYKGKZHSYKDXPCAOMTNL9PODKNBOVRSUJNRDGWLPOGVGTPSC9ROSVEPWBRVMBAJAVY","optimalPurchaseTarget":-100,"optimalPurchaseTargetScore":-100,"availablePurchaseTargetList":[],"optimalSaleTarget":-100,"optimalSaleTargetScore":-100,"latitute":"51.363983","longitute":"-0.804926","amountDemanded":"6","pricePrefered":"15","distancePrefered":"15","energyTypePrefered":"2"},{"index":169,"seed":"IVMO9GK9TYAIBFAWCWQ9VGHQDQVYONBWRTGPMGVWRFQLEARJPXPBOYXRAPUJJUPVYXODGTHHLBMKSYNCO","address":"U9CZAJIGW9KDINUX9IMRVSFFIKNIQAWFG9PUGWCNEWEKRRWHWLNSDLZPN9MHPZNRPSEAKXIVSVGBLJHR9","optimalPurchaseTarget":-100,"optimalPurchaseTargetScore":-100,"availablePurchaseTargetList":[],"optimalSaleTarget":-100,"optimalSaleTargetScore":-100,"latitute":"51.524036","longitute":"-2.268847","amountDemanded":"2","pricePrefered":"15","distancePrefered":"12","energyTypePrefered":"4"},{"index":170,"seed":"WUKIUW9VNEJVWGQYOTMH9BPCOQDGVTXOTGWXUHLNVNAYVKEXYPJHTBUEFSAPWJANKDISBAXBINXFUPPEP","address":"TXAFBZT99I9NJLPMPEXBKL9MDLKHXQKWJSDZGOLEOVBZDPNZQMLAYOLXIQTGORJEYUAKTJFHKYPZWYXOA","optimalPurchaseTarget":-100,"optimalPurchaseTargetScore":-100,"availablePurchaseTargetList":[],"optimalSaleTarget":-100,"optimalSaleTargetScore":-100,"latitute":"51.842623","longitute":"-0.816838","amountDemanded":"3","pricePrefered":"14","distancePrefered":"15","energyTypePrefered":"1"},{"index":171,"seed":"9PWR9TLCPBOXHSQKCGXJNAAKMNFNNXWCQHKRVYWYWFVALNUEXY99GQYEWEGXLMGJVCRPTOLRRJEIWOOX9","address":"SVAKJU9EIGCHUKHQVMITZAXJTFHNQAVTWPSZJLXRUTUI9KBAEIAFIMPFZODOSBRHUTJQVSIHCMXAVEUWX","optimalPurchaseTarget":-100,"optimalPurchaseTargetScore":-100,"availablePurchaseTargetList":[],"optimalSaleTarget":-100,"optimalSaleTargetScore":-100,"latitute":"51.317116","longitute":"-2.168372","amountDemanded":"2","pricePrefered":"16","distancePrefered":"12","energyTypePrefered":"0"},{"index":172,"seed":"WWWSH9XFXQPRASWNRODGMKSDRFARWVWXMNANFMUKGNTLBYTRUUBKTKCFVF9YXEDXVRXKNDKPYRKN9MFSL","address":"FMCLTYWSCTTE9ZODMIYDSSAFDBUANPAJNVN9JLKQUCSXCIOQGESTLT9OKBH9VSWLFDNRARFVQOFGENOZ9","optimalPurchaseTarget":-100,"optimalPurchaseTargetScore":-100,"availablePurchaseTargetList":[],"optimalSaleTarget":-100,"optimalSaleTargetScore":-100,"latitute":"52.414734","longitute":"-2.367353","amountDemanded":"2","pricePrefered":"15","distancePrefered":"11","energyTypePrefered":"2"},{"index":173,"seed":"ERTPOCWQUPVGVRGCDEIPIDNJOVJSN9AXEEIBOPIFNCBDWKLSMGLIFB9AMJCEEFAYRCGAJNCYLXKDBNGWT","address":"XJKFOVY9ETHHEGJMYIOFUOCEPLLSLIBWHLKKN9CMU9JHAQRCYVNOQXDMEQBTLIDTQEEQHBUXHMUPNZQDZ","optimalPurchaseTarget":-100,"optimalPurchaseTargetScore":-100,"availablePurchaseTargetList":[],"optimalSaleTarget":-100,"optimalSaleTargetScore":-100,"latitute":"52.245204","longitute":"-0.942407","amountDemanded":"2","pricePrefered":"14","distancePrefered":"11","energyTypePrefered":"1"},{"index":174,"seed":"CSLQWYAYEFNMBTPLVPCKMR9UGCCMEERB99FUNAHGCPOUTFUOMDGSJXOOPDDMP9XTBCDVMGCF9NFXNQHFL","address":"DMFFDONRHCVASVYAOIRQCESMXEFQRJHMGLA9DLSZNIRFGBHGQDZHZDQTAGSYHECIEQUBSKHTBBOGKSZKA","optimalPurchaseTarget":-100,"optimalPurchaseTargetScore":-100,"availablePurchaseTargetList":[],"optimalSaleTarget":-100,"optimalSaleTargetScore":-100,"latitute":"51.254552","longitute":"-0.558813","amountDemanded":"4","pricePrefered":"16","distancePrefered":"12","energyTypePrefered":"2"},{"index":175,"seed":"VQSIPDCBGFGVOMTRDQGBEWONY9MJSOJBQIED9IJKPUHNPXPMOFOOOOWOHMBPHSUMFIQGHIORRW9NP9YXQ","address":"BOZQFW9KVUFKHETZYBDDJLTWBRRRJ9PNCITQUNURHEEMKJPLSKYNCP9GHDYRRG99YH9DYOZNHORUNCW9C","optimalPurchaseTarget":-100,"optimalPurchaseTargetScore":-100,"availablePurchaseTargetList":[],"optimalSaleTarget":-100,"optimalSaleTargetScore":-100,"latitute":"51.818997","longitute":"-0.392565","amountDemanded":"4","pricePrefered":"14","distancePrefered":"12","energyTypePrefered":"3"},{"index":176,"seed":"COAFAFXAOUUNRVY9GBPKUUGJOFV9USXDJQFJ9JGOYGTNRNPHNAFLIHIINKE9DBWAKGTQYQOLHLTFALYTC","address":"ABGUQAHFPYAWVWHQ9NLJPIQWSOWZXPTKRACFZWZZZFHTBVMUZFFNBYHUOSEDSKBVPASVTBP9FSNKAZVV9","optimalPurchaseTarget":-100,"optimalPurchaseTargetScore":-100,"availablePurchaseTargetList":[],"optimalSaleTarget":-100,"optimalSaleTargetScore":-100,"latitute":"51.456898","longitute":"-0.408977","amountDemanded":"3","pricePrefered":"14","distancePrefered":"13","energyTypePrefered":"0"},{"index":177,"seed":"CNCW9ITFEWIPTEJILLYWJFPFHAMDOIRVCIJGEGIPBASXWCTEERSPNIDYVOGES9BRKJTKMQOIWYJBPBYSA","address":"UXXWWFQULEIWJQKLUVCUWUYRAXTJRDCKMZIETBBDPGYGUDFYHWHL9NLNRUNGCNKDXMXSIVXNPOASNT9I9","optimalPurchaseTarget":-100,"optimalPurchaseTargetScore":-100,"availablePurchaseTargetList":[],"optimalSaleTarget":-100,"optimalSaleTargetScore":-100,"latitute":"52.099774","longitute":"-2.196036","amountDemanded":"6","pricePrefered":"14","distancePrefered":"12","energyTypePrefered":"2"},{"index":178,"seed":"CPSLAYHFTQFOKVAADKQQJBILHAFCSUBQTCPQI9XBVVPVCRFXRGSCHVBVOUVSBTBSLORLPGXYLPSSCTFHF","address":"BCVABSEICRCFDKTDYFJAJLJVJUDEZJNWXGQOJQBMAZTPHVSNFNKBZQZLMWHGUANHQNWMGCPDIVAANTTBC","optimalPurchaseTarget":-100,"optimalPurchaseTargetScore":-100,"availablePurchaseTargetList":[],"optimalSaleTarget":-100,"optimalSaleTargetScore":-100,"latitute":"52.027132","longitute":"-1.397024","amountDemanded":"5","pricePrefered":"14","distancePrefered":"13","energyTypePrefered":"0"},{"index":179,"seed":"COSNFCXTFU9WNEAOMSEHCBACVNRUWCXFQWAWBIMBULVSEHAVFMNAO9FRACYVQB9NKIJYRGDDIDLGDESVP","address":"DUJLQD9YQCIDYLMNFHUKMPSSRZKWKYFANUMNEJF9LUNZFKPTWNPHFHAALFVGYJFZQOUYHVWYMRINURGYD","optimalPurchaseTarget":-100,"optimalPurchaseTargetScore":-100,"availablePurchaseTargetList":[],"optimalSaleTarget":-100,"optimalSaleTargetScore":-100,"latitute":"51.889060","longitute":"0.044814","amountDemanded":"6","pricePrefered":"14","distancePrefered":"12","energyTypePrefered":"0"},{"index":180,"seed":"LMUXPPVKHLWVFQEOLOGIKMUKCKGD9OIRVIRA9DSX9TTE9XRLSABFSUSIX9UCIRAGTOPESLUVGXOXNL9ND","address":"DSIJTCQERLXRPEFYXROEYCEGYHTHHJWOXLKKMJXNHCLMBAVA9OV9WYVLFLSTSTUAINVFYKPZGKYBLHCNW","optimalPurchaseTarget":-100,"optimalPurchaseTargetScore":-100,"availablePurchaseTargetList":[],"optimalSaleTarget":-100,"optimalSaleTargetScore":-100,"latitute":"51.522078","longitute":"-0.679921","amountDemanded":"5","pricePrefered":"15","distancePrefered":"13","energyTypePrefered":"3"},{"index":181,"seed":"NQDHAAOXRSWHDEA9FNDEEKQTDLRXKEDRPYGNQKTUIVBHRA9VXBWKPHXADT9LTRHUFHJNPSY9JM9XIFIIB","address":"XFSJMLQGRHBERFIAOUCHPODYSAC9BQXWBIXBWGJEEEUXOQKAP99KVYBTWHBYEVWRHBMGOVAMABPVTIBUZ","optimalPurchaseTarget":-100,"optimalPurchaseTargetScore":-100,"availablePurchaseTargetList":[],"optimalSaleTarget":-100,"optimalSaleTargetScore":-100,"latitute":"52.230737","longitute":"-1.902878","amountDemanded":"3","pricePrefered":"15","distancePrefered":"12","energyTypePrefered":"2"},{"index":182,"seed":"URCKTCYDCYJGDMQNHHOYKUMICDQL9VR9TIWDRUBFPEIPGQNWOLTUIOPSHXOTMMAINBGTTGHGVP9CUUACQ","address":"FYDSMWVDHXVEOXWHCQGNGJRSBEGIPAWNGNCXGYMINKS9JPNRGROGEULHQGPZRQXWDIHWOWOYACJNTBUGC","optimalPurchaseTarget":-100,"optimalPurchaseTargetScore":-100,"availablePurchaseTargetList":[],"optimalSaleTarget":-100,"optimalSaleTargetScore":-100,"latitute":"51.353009","longitute":"-1.949797","amountDemanded":"2","pricePrefered":"16","distancePrefered":"15","energyTypePrefered":"0"},{"index":183,"seed":"FCJMVSEWLQRHR9AMTBALMHG9YW9YWKJBPYYBKWKUHBVYVAUXBVBGJ9PEMHQMATURROLPFD9OCGKMYRXQR","address":"CVVLIFENPGFULWMUCAMTDTKAB9MQZPGPFPZRN9PJCCNNIKON9ZQGSWMUG9GTGGSGEGRHKQIAMWYRNUSAD","optimalPurchaseTarget":-100,"optimalPurchaseTargetScore":-100,"availablePurchaseTargetList":[],"optimalSaleTarget":-100,"optimalSaleTargetScore":-100,"latitute":"51.218078","longitute":"-1.759737","amountDemanded":"1","pricePrefered":"15","distancePrefered":"14","energyTypePrefered":"3"},{"index":184,"seed":"PHQYYPHBVUQPKSEEFIXEQCINSAKWMLYVCAVPQFLPOPXLIXEIOLFFIXUFJWNYMORLRI9X9IJRECHIEDLSF","address":"JKKJCJFZBFQBFIOVEWSCNJX9SXIAFLHBUVGRFDDFPTMXWSRCDGXOKYUXXLWNBFQVEUXZEH9MY9SZGMUUW","optimalPurchaseTarget":-100,"optimalPurchaseTargetScore":-100,"availablePurchaseTargetList":[],"optimalSaleTarget":-100,"optimalSaleTargetScore":-100,"latitute":"51.561588","longitute":"-0.734286","amountDemanded":"2","pricePrefered":"14","distancePrefered":"11","energyTypePrefered":"0"},{"index":185,"seed":"Y9LRLINDTEEQRBUDSQK9WCQIDNPMCLXCFNF9IQQRRXVXBGES9Y9XMJJXOFEBO9EBUYRUQWMDWCYEDMLHR","address":"FUXFUGFPAFZDPNVZJULPGUAIQKGQOPEPHZWUDNBLDCYR9YLIRHVRHQONQWBNOJAPRBEQAZGG9OKUVIRT9","optimalPurchaseTarget":-100,"optimalPurchaseTargetScore":-100,"availablePurchaseTargetList":[],"optimalSaleTarget":-100,"optimalSaleTargetScore":-100,"latitute":"50.962006","longitute":"-0.055177","amountDemanded":"5","pricePrefered":"15","distancePrefered":"13","energyTypePrefered":"1"},{"index":186,"seed":"YONULUJRHGSYHAATH9HLIPTVPDTTIPSFQBADFWJHSNJ9CBUEKU9EXFWVH9UMOXDPDUAQU9NRSLGEHNVKF","address":"WSEZ9KOPML9PZNVRWBSGSJLPLYXYQP9SLXYDPVAMMXUVACFSMDGCLTZUCNNNOKTQNWDWKLWVCBMOUBRLD","optimalPurchaseTarget":-100,"optimalPurchaseTargetScore":-100,"availablePurchaseTargetList":[],"optimalSaleTarget":-100,"optimalSaleTargetScore":-100,"latitute":"51.401243","longitute":"-1.577427","amountDemanded":"4","pricePrefered":"15","distancePrefered":"13","energyTypePrefered":"1"},{"index":187,"seed":"QPDQTCTHIQJALTSKLYXQDIQPXWMJMRLTVHPWVVVDTYBSHPOHUWCBXTDL9ILTDVKDWTOVYSEFXFIKQTWFY","address":"KZZQAMDVDUFUUVPFVMHGTQXKGYDJDNOL99IRYVPGSSKFSL9QPMXCBYEAPMKOOUANBHQPJSYFBIKSJZXUD","optimalPurchaseTarget":-100,"optimalPurchaseTargetScore":-100,"availablePurchaseTargetList":[],"optimalSaleTarget":-100,"optimalSaleTargetScore":-100,"latitute":"51.130321","longitute":"-1.805794","amountDemanded":"3","pricePrefered":"14","distancePrefered":"13","energyTypePrefered":"1"},{"index":188,"seed":"9LQWMHNJUPDDTMXEQBVPMVAQKYOSSHNIYXYANDLAFSMCVDPOEUUHLKLATBFHKAIVMYAYA9EJKXLJAGOPB","address":"LKSUAINKRRHQBVQFTACAKHKMRWDKFFYQXGANU9WHWJCLVQMFCRVXLYBBYHEIHBODJSTTIVCEQZIFOT9MD","optimalPurchaseTarget":-100,"optimalPurchaseTargetScore":-100,"availablePurchaseTargetList":[],"optimalSaleTarget":-100,"optimalSaleTargetScore":-100,"latitute":"51.261834","longitute":"-2.283546","amountDemanded":"5","pricePrefered":"16","distancePrefered":"13","energyTypePrefered":"3"},{"index":189,"seed":"QITSOQYTSGKRRP9ACOYHMQDVFBJDNEYDIYHMCMWBIMNNPGH9CTFTHIJPARENNVFPRHSGSWMNLINHTWWJR","address":"KAVGOFHPQMVQCOCFKUHNIEHCIYAZPYJCTXHYJCOFQNJLEXNLLGDALYCB99QUYKRDZSSBHOBFNSDUGFYCC","optimalPurchaseTarget":-100,"optimalPurchaseTargetScore":-100,"availablePurchaseTargetList":[],"optimalSaleTarget":-100,"optimalSaleTargetScore":-100,"latitute":"52.355215","longitute":"0.193056","amountDemanded":"1","pricePrefered":"16","distancePrefered":"11","energyTypePrefered":"4"},{"index":190,"seed":"EBIQ9QGCOEKNUCMBGOGMJYONOB9ICBHXRYYRDHNP9AVLBAHEASROGXWVJOKGJCGTHUAPGVWQLBWBDYRDH","address":"VIHERYLDBWZTNGDAIDTHBG9UTKXIDQFNCDJVANUALGXKLDKABVSICGDMGPIVRBVSSOQTOVZXUKLE9YRXD","optimalPurchaseTarget":-100,"optimalPurchaseTargetScore":-100,"availablePurchaseTargetList":[],"optimalSaleTarget":-100,"optimalSaleTargetScore":-100,"latitute":"51.130703","longitute":"-2.058304","amountDemanded":"4","pricePrefered":"16","distancePrefered":"11","energyTypePrefered":"4"},{"index":191,"seed":"YIVGLLNYL9NOJWIUIPQWGELNNKXJJIECSKHWOKWDTFRTJJRJLVRDI9HLOXUITLDWYMQBS9KARONBBBCGP","address":"SBAFIJEASBXJ9EEGNBZTVKIHVBYHFGK9NBFLOSHMMOD9MUPGJQNTQGUQCQRNOYIXLMWFXFK9IQVRAOZSD","optimalPurchaseTarget":-100,"optimalPurchaseTargetScore":-100,"availablePurchaseTargetList":[],"optimalSaleTarget":-100,"optimalSaleTargetScore":-100,"latitute":"51.678331","longitute":"-1.717321","amountDemanded":"4","pricePrefered":"15","distancePrefered":"12","energyTypePrefered":"3"},{"index":192,"seed":"REFNHHBNKWSXK9MNXMGQYKYVROAEWNKVKQVNVL9NB9KGJDPCCOXY9HJEMRJTRWSWQVUCPAQFTRSTIDIRQ","address":"UDVZBEMHMXOZHWKYYUSLPYZHQVJITB9MOGPSZSJQFIXWV9MWVGFUUPQIVMPSKTZL9YGMNIACYUKRONACB","optimalPurchaseTarget":-100,"optimalPurchaseTargetScore":-100,"availablePurchaseTargetList":[],"optimalSaleTarget":-100,"optimalSaleTargetScore":-100,"latitute":"51.392353","longitute":"-1.258381","amountDemanded":"6","pricePrefered":"15","distancePrefered":"13","energyTypePrefered":"2"},{"index":193,"seed":"VNQDJNPJN9DWBGRYTSBDFQETGBHEMAIEQNHYOIWSAKGPDBMIMHTSSRXECOVIVMBAILGUOTWCHK9BBWTV9","address":"DXNHGBJUSGZKCKVSQ9USNJQURTIHBHRGVRKAMITVOVLQPWODBJPUMXOZTQTYBRIKAYTCARBGHJNHK9OLC","optimalPurchaseTarget":-100,"optimalPurchaseTargetScore":-100,"availablePurchaseTargetList":[],"optimalSaleTarget":-100,"optimalSaleTargetScore":-100,"latitute":"51.943460","longitute":"-0.287170","amountDemanded":"4","pricePrefered":"16","distancePrefered":"10","energyTypePrefered":"2"},{"index":194,"seed":"GEMFQINDEBKMNOVGKUFXVFBNHTOBWBGKX99EIOL9THQJD9LJPYBSSFBCSVUOGTPTPNVH9YSKOOPKOTSGU","address":"OYTDUWPVPIAIXUSXKNBRMIRKUGLUQANFNHFCNAECHAQDOHMVCVHMWKCSF9DEQDDEVGQYIH9VFV9PIHYDB","optimalPurchaseTarget":-100,"optimalPurchaseTargetScore":-100,"availablePurchaseTargetList":[],"optimalSaleTarget":-100,"optimalSaleTargetScore":-100,"latitute":"52.263074","longitute":"-1.687082","amountDemanded":"4","pricePrefered":"15","distancePrefered":"14","energyTypePrefered":"2"},{"index":195,"seed":"WMQPXYSNMPXLNMBIXTARUTJNHAWVV9UDPWCQANYDB9YMKCQQWIFDORUGKEJVXFONASOXOIHNUTYIKEEFM","address":"MQQVLIYUNABXDQISBXGKOXGSMLHNTJWUVLQMDLWYPYXIWVFNIACZZDIURBEAYNDGLWHRHATSSV9ZNUVCZ","optimalPurchaseTarget":-100,"optimalPurchaseTargetScore":-100,"availablePurchaseTargetList":[],"optimalSaleTarget":-100,"optimalSaleTargetScore":-100,"latitute":"52.064673","longitute":"0.034109","amountDemanded":"2","pricePrefered":"14","distancePrefered":"14","energyTypePrefered":"2"},{"index":196,"seed":"DHHTAHEXTKSGGNCKO9NACHNOKCCUVRF9TIICGAXOISGO9KJNQGLX9WNROYIMQHMYYTHHGTADAGMSAJACY","address":"PCBDJBHGCYLHEMQYVE99YUIUPYKGRNIEMWNHSHWDKOQWU9NVUGOMQCFMKRRFPRRXERD9ZNCKNGMASXCQA","optimalPurchaseTarget":-100,"optimalPurchaseTargetScore":-100,"availablePurchaseTargetList":[],"optimalSaleTarget":-100,"optimalSaleTargetScore":-100,"latitute":"52.073102","longitute":"-0.298627","amountDemanded":"2","pricePrefered":"16","distancePrefered":"12","energyTypePrefered":"1"},{"index":197,"seed":"CVVJCKYNOGVK9DEELJUPRPMYR9IENYMCVOELRLIERJJUDPNCQHUYSIYHKRPVYILYRFBDUNGNFI9BWXJKE","address":"UG9ZOUFRRHKMVWBJFTB9MCRAASZUMNAEZAEQ9BHLOEMTWOONPRBSIXATRJBAHZMIZNNRYTWKAV9IITQMX","optimalPurchaseTarget":-100,"optimalPurchaseTargetScore":-100,"availablePurchaseTargetList":[],"optimalSaleTarget":-100,"optimalSaleTargetScore":-100,"latitute":"52.418733","longitute":"-0.304109","amountDemanded":"4","pricePrefered":"15","distancePrefered":"10","energyTypePrefered":"2"},{"index":198,"seed":"EGQIVNVNJXKSYDGTHT9VJODDGKEJEOHKYGYYUH9LCKLPVOEEHQXVLIQLPR9CVNRTHEGMKB9TXBL9NDRRX","address":"YRLXSIHXFVDOMINPDHVCSKGXTIEBLXZQKQDXEVRK9IZ9VKPDJDDEONS9XDRAT9QVWYEEJGCFSPLHVLWYD","optimalPurchaseTarget":-100,"optimalPurchaseTargetScore":-100,"availablePurchaseTargetList":[],"optimalSaleTarget":-100,"optimalSaleTargetScore":-100,"latitute":"51.581590","longitute":"-0.696479","amountDemanded":"2","pricePrefered":"15","distancePrefered":"15","energyTypePrefered":"1"},{"index":199,"seed":"RFGM9QP9YLYHQNWICJTKYUM9IEEM9MPN9VFQEGHTQPRYATLD9CRCFTBJRQJERLMNVELSWBMMUIHIFDQQI","address":"UXBDZICTNQTSRSMDUCQLONBEUBYWQOALNLYTEMRTACAINSXEMJXOHTHKSSXQTCOHFTFHWPMZHUGGAEMQX","optimalPurchaseTarget":-100,"optimalPurchaseTargetScore":-100,"availablePurchaseTargetList":[],"optimalSaleTarget":-100,"optimalSaleTargetScore":-100,"latitute":"52.049311","longitute":"0.282345","amountDemanded":"4","pricePrefered":"15","distancePrefered":"11","energyTypePrefered":"2"},{"index":200,"seed":"TEIYVPMACJPJGYVYOOQQSYGQLTWKHVLEI9SUYGW9UAMCMD9FVQSONUPYUQJMPDBWCTXPKUHDCAUBOHBFL","address":"LDZDFXL9T9KFLHKVDRNG9RBTZSCKFXPBIWHZMMYFCCMXHYTTPZFIIPUFJRTGIMHALJLMCJJKUWHYZENQD","optimalPurchaseTarget":-100,"optimalPurchaseTargetScore":-100,"availablePurchaseTargetList":[],"optimalSaleTarget":-100,"optimalSaleTargetScore":-100,"latitute":"51.592415","longitute":"-0.577922","amountDemanded":"5","pricePrefered":"16","distancePrefered":"15","energyTypePrefered":"1"},{"index":201,"seed":"MVLCXDMQLCDKAVKDBXHOAQPQJLTFUPEDJHYNRXOYAKBUIVMGWVWWJNMCCOQBWMEPKJOXRIUEMAPGTYGYN","address":"URDQNTO9KYHJXNCBKMQL9GDDSGBABESWNLGEAPX9EAIQGVCGYTUKFTBKK9SVWQUWTPNPVYYVCCSWXLALY","optimalPurchaseTarget":-100,"optimalPurchaseTargetScore":-100,"availablePurchaseTargetList":[],"optimalSaleTarget":-100,"optimalSaleTargetScore":-100,"latitute":"52.296855","longitute":"-2.322410","amountDemanded":"5","pricePrefered":"15","distancePrefered":"12","energyTypePrefered":"2"},{"index":202,"seed":"KBHQXHSMEPHQAKHE9KMVDELTLMPXORDVIWTRBPBYMDPBXGFJEBGV9CNCGMODCIT9CONPDFIFKYHHGRMXX","address":"ZTSQGVBJTAXUEUYDOYSLCHGFV9DJYVEQP9QQIMISZTJTMTAFNRBGFVQMEHKGPLJGN9JDLHSXFIQRPUSX9","optimalPurchaseTarget":-100,"optimalPurchaseTargetScore":-100,"availablePurchaseTargetList":[],"optimalSaleTarget":-100,"optimalSaleTargetScore":-100,"latitute":"51.797471","longitute":"-1.607615","amountDemanded":"3","pricePrefered":"14","distancePrefered":"13","energyTypePrefered":"3"},{"index":203,"seed":"GLMADQQGR9JTQWXGQTGILRYXQVPFFWIEMKBYAWLNIRDJRNMVCRLXKENHEB99IMTMOK9OBSYNRLOJJRC9F","address":"BITTKWCTARMQHIZEMEOJBATFWL9NBGHDRDBLUPNMBBGAUJZYSIQODUHIMNTFFHCJGGARMWNQFBJBCOQAW","optimalPurchaseTarget":-100,"optimalPurchaseTargetScore":-100,"availablePurchaseTargetList":[],"optimalSaleTarget":-100,"optimalSaleTargetScore":-100,"latitute":"52.413589","longitute":"-0.997627","amountDemanded":"2","pricePrefered":"16","distancePrefered":"13","energyTypePrefered":"0"},{"index":204,"seed":"VACTYIJTWWFNOGNRYR9IQACEJEU9XRKFFGOTM9KVCTQRULRCVAYKWRERSAOUJFYAVFEKYKDBTLTIAIREK","address":"FNNTJFPUDUMXDKPVHAGSVSNLUZUDBIXSKGZBRYJFRLJBMZURG9QINKJTEIHTULOCJFNKLETOFLWGXGRZD","optimalPurchaseTarget":-100,"optimalPurchaseTargetScore":-100,"availablePurchaseTargetList":[],"optimalSaleTarget":-100,"optimalSaleTargetScore":-100,"latitute":"52.261121","longitute":"-1.248605","amountDemanded":"2","pricePrefered":"15","distancePrefered":"11","energyTypePrefered":"0"},