[{"index":0,"seed":"GOINPSYPUVMJWXQFFRTFXVJOPVHYAGOKUYCUOQAXBFRVXNVYOJHMVTW9VN9OVFKONGKDIOJDTVEIVFWRR","address":"KRSO9HTUQA9SUZAISWZLFJMMBQNYTQAGIAOFXZQBCGJDDIDPGUGIUJEOKHMBIAIMXNHWPWQJTQLZKXUVA","optimalPurchaseTarget":-100,"optimalPurchaseTargetScore":-100,"availablePurchaseTargetList":[],"optimalSaleTarget":-100,"optimalSaleTargetScore":-100,"latitute":"51.664256","longitute":"-0.714296","amountDemanded":"4","pricePrefered":"16","distancePrefered":"10","energyTypePrefered":"3"},{"index":1,"seed":"FEMAVEALJSSBWOPAKLGOJBYVG9CLQRHYOTCVENLPBDIJBWXWGCHOEDORCNRMUUEHRTNTPGOMSDSBPVJJK","address":"Z9A9UJFREFYDMUJQZAMXSZTPXNBYJO9KXXRHHXDZWTGSBNQNVJDCS9RLIYDCFNZOUUJXOGEMOLKIKLFWD","optimalPurchaseTarget":-100,"optimalPurchaseTargetScore":-100,"availablePurchaseTargetList":[],"optimalSaleTarget":-100,"optimalSaleTargetScore":-100,"latitute":"51.653535","longitute":"-0.843271","amountDemanded":"4","pricePrefered":"15","distancePrefered":"11","energyTypePrefered":"3"},{"index":2,"seed":"SUNTREHWFLHKYXCVFIJFRCXHFSDIOHVPHJBCQJSQCPLEJQHWQAKUNAJDXBT9GNYXELSYRS9JAGDQAIVSO","address":"FBUYBFJWAOSFEVBNKJHICSRDQOEMUKJOJXAKSYPCGQTHXJENSVVWIRCXUZFORLUFMAWBONVQWPCWAJQMD","optimalPurchaseTarget":-100,"optimalPurchaseTargetScore":-100,"availablePurchaseTargetList":[],"optimalSaleTarget":-100,"optimalSaleTargetScore":-100,"latitute":"51.531566","longitute":"-2.204499","amountDemanded":"3","pricePrefered":"15","distancePrefered":"11","energyTypePrefered":"4"},{"index":3,"seed":"PSBGXQJOCQJHSLCBNSLXHHCUENKNFTHFWNRAYFIK9STYTGWQHTPPSKJHILBMWHORO9EKETUWLFJWVOO9M","address":"SJDAULRHPFVVSBVALQKMALUHOJUHO9TFUCOIHCDIADTFLUTLFKTFCK9LAURRDDBBDLUXV9LURCVLXPHOD","optimalPurchaseTarget":-100,"optimalPurchaseTargetScore":-100,"availablePurchaseTargetList":[],"optimalSaleTarget":-100,"optimalSaleTargetScore":-100,"latitute":"52.412801","longitute":"-1.965272","amountDemanded":"2","pricePrefered":"14","distancePrefered":"14","energyTypePrefered":"1"},{"index":4,"seed":"JBLOPAIXGDNDIEUUXRT9QSWPYMKUTGBVQW9EWGVSXWKOOB9HLO9DJEMEGSFNLSS9QDPTCYCVYXGYVNQWS","address":"CNTOKAWULVGPBFNXLXLFTISYLISMJYQYCVKVWWUWDRI9QOQZUHTRESPGGL9XYHQYDYDIQNCTML9VRPHDC","optimalPurchaseTarget":-100,"optimalPurchaseTargetScore":-100,"availablePurchaseTargetList":[],"optimalSaleTarget":-100,"optimalSaleTargetScore":-100,"latitute":"51.162274","longitute":"-0.468313","amountDemanded":"3","pricePrefered":"15","distancePrefered":"12","energyTypePrefered":"4"},{"index":5,"seed":"HRDSBRQPCQ9WBGIWQNFPKBMUQYACBHV9GSUJJGRFEWFUJMKVDNNGR9BQAVKWAVBLBNOCCPST9CRJXUTSC","address":"NDCF9ZXYDGL9P9FPHSUIDHWYQZD9KRWMCRGWJGOQPPDATNPYHNLNMEETBQHTIYYWPUDHLRKTDINHQUSWD","optimalPurchaseTarget":-100,"optimalPurchaseTargetScore":-100,"availablePurchaseTargetList":[],"optimalSaleTarget":-100,"optimalSaleTargetScore":-100,"latitute":"51.057417","longitute":"0.119010","amountDemanded":"2","pricePrefered":"15","distancePrefered":"12","energyTypePrefered":"4"},{"index":6,"seed":"OFHPXYIDPAUMBCWMQHNEWPXAIMCJYSTEDQGLKVXMRCTQNUDTKQSGBR9XDD9PLNGHGUURTYXWNUWDYJAR9","address":"BENNOFVPAFSBJCZHYMWGEXWSLPGFTWFYFRCJWGKZVXJJXXHRYEQQNOZFDUQGPNURMLZTUHTNRYHAHMCYD","optimalPurchaseTarget":-100,"optimalPurchaseTargetScore":-100,"availablePurchaseTargetList":[],"optimalSaleTarget":-100,"optimalSaleTargetScore":-100,"latitute":"52.050438","longitute":"-2.272337","amountDemanded":"4","pricePrefered":"15","distancePrefered":"15","energyTypePrefered":"4"},{"index":7,"seed":"IQUOUHGPWLATPHOFMOYYGH9YOEPSJBKRGW9KMJPUMXKWI9MXWFOWU9UCQTEGWQITDSCADEBSUCGJWFJCB","address":"HNGZBVYBZOJJFTPHJZO9QD9ZTPJNHZITLVEQFPLPILVCY9YXUOKIEUYMZLOQEBEUGI9UZLFWYV9UDMHJB","optimalPurchaseTarget":-100,"optimalPurchaseTargetScore":-100,"availablePurchaseTargetList":[],"optimalSaleTarget":-100,"optimalSaleTargetScore":-100,"latitute":"52.336657","longitute":"-1.917504","amountDemanded":"3","pricePrefered":"16","distancePrefered":"13","energyTypePrefered":"1"},{"index":8,"seed":"XWQRTHPQDEPENYUUBUVBKSLYVKLOQEDKUGJRNUQVMEGYEQNHFYBQHWRWDVPWRYARHCHUYXNAESJPXRCPY","address":"XQITEOHU9CVTMOZFPGKXRIZY9RIMUL9VMRDHMLEBYDYXKAVUGOATIIWOAICBSUEHWHGNNCJYVLAENXSK9","optimalPurchaseTarget":-100,"optimalPurchaseTargetScore":-100,"availablePurchaseTargetList":[],"optimalSaleTarget":-100,"optimalSaleTargetScore":-100,"latitute":"52.100947","longitute":"-1.157214","amountDemanded":"4","pricePrefered":"15","distancePrefered":"13","energyTypePrefered":"3"},{"index":9,"seed":"KTMGTRLTBTODOANGMHPWRLLKKAALHTFTNQXBAMQ9TA9XYVWPSXCIMCINLSAUIU9UHODQBCFVGXYTHQLJW","address":"UKWDVUTURMJ9YZIJEDKIDZQG9OWTYYENGOWWGQYEIQOX99PIRWLKQLOSNZODRSRXALLUDBGNCQRFNISGZ","optimalPurchaseTarget":-100,"optimalPurchaseTargetScore":-100,"availablePurchaseTargetList":[],"optimalSaleTarget":-100,"optimalSaleTargetScore":-100,"latitute":"51.554839","longitute":"-0.265950","amountDemanded":"5","pricePrefered":"14","distancePrefered":"10","energyTypePrefered":"3"},{"index":10,"seed":"VJMCXXBMEUCET9XYXOWOPYVIFJSBHEIGROFPGQHVUFELC9TVPLTLSVSYLO9OTPRYYYBRUDLWDTDNEVFBQ","address":"SLODNQYNLDQHQBVWLQ9YJBZWWTDXJGXJMQGPRM9WMOJGOLSRLGIWCUWRIDYVL9STGXWRKFZJEMNXGHOOX","optimalPurchaseTarget":-100,"optimalPurchaseTargetScore":-100,"availablePurchaseTargetList":[],"optimalSaleTarget":-100,"optimalSaleTargetScore":-100,"latitute":"51.696913","longitute":"-1.802475","amountDemanded":"6","pricePrefered":"14","distancePrefered":"13","energyTypePrefered":"2"},{"index":11,"seed":"FGODPRLEDLVYJNXRLANELIARSTPDKAQUSJOQFEUIKRCIFTODCCUGOJQ9RTBAGSKLVOOYFFSQPRYXSDBAR","address":"CWSORDYTYPNNAZ9CUTUCXHXCVTTAGBCJTLZCWETHLODMVDCBCLNYZVMICLDFOUMOESWSGLZXIRZXXB9RW","optimalPurchaseTarget":-100,"optimalPurchaseTargetScore":-100,"availablePurchaseTargetList":[],"optimalSaleTarget":-100,"optimalSaleTargetScore":-100,"latitute":"51.965409","longitute":"0.118098","amountDemanded":"3","pricePrefered":"15","distancePrefered":"14","energyTypePrefered":"3"},{"index":12,"seed":"YDONXQNWOSDDW9TVNRJPULLISVCPLGGDCVHFDQAIUVRXYFDBXCLYSWYEVXLYPE9AJAEUPARUYWBTUJBB9","address":"RBA9ICZCNQGSKSHQZVSEV9YCFBYOSWCFSJVPPDUWGHYUNQVGVV9ODIQYJTTLWE9KUEFAHICUBQZBABE9X","optimalPurchaseTarget":-100,"optimalPurchaseTargetScore":-100,"availablePurchaseTargetList":[],"optimalSaleTarget":-100,"optimalSaleTargetScore":-100,"latitute":"51.883303","longitute":"-2.171963","amountDemanded":"5","pricePrefered":"15","distancePrefered":"11","energyTypePrefered":"3"},{"index":13,"seed":"QTHYQSADYCWNKSRQNJERQHIAKQQUOFWAIAYHL9KEUYUHX9OTCPBFSPXYSOVRISPQNUPWURYROGUJ9CFWE","address":"JTJRBKGYOZZQNYGOQNNLIESXQZYYXZRXGXWJKCADU9ELXKOKAREA9CNRRJFFMPTGYOHBWOTUAKHXPLBUX","optimalPurchaseTarget":-100,"optimalPurchaseTargetScore":-100,"availablePurchaseTargetList":[],"optimalSaleTarget":-100,"optimalSaleTargetScore":-100,"latitute":"51.423589","longitute":"-0.089551","amountDemanded":"4","pricePrefered":"15","distancePrefered":"11","energyTypePrefered":"3"},{"index":14,"seed":"FEAICYGGYSJRMYOAYHGUCDXLNOTSNCKOFDVGIOQRONTYBCMDDVFPGDMWMURVBGJRNMNFAVMCHAEJKFEGA","address":"IASOEFKKDIZTJXWEZSD9SNKUTLIAIVSQVVT9GULFUHFK9BEIYEIHGMFPWCLEFLCK9FAANZFNUEGXIUERD","optimalPurchaseTarget":-100,"optimalPurchaseTargetScore":-100,"availablePurchaseTargetList":[],"optimalSaleTarget":-100,"optimalSaleTargetScore":-100,"latitute":"51.741411","longitute":"0.058271","amountDemanded":"2","pricePrefered":"15","distancePrefered":"14","energyTypePrefered":"1"},{"index":15,"seed":"SYSGMIPTWYASYKKBMXTFDU9EEARJ9COKUMFLQMQQKXUQGHNCOPBRRLCEACWUTDOAFFQVNQ9FMWCCSLKUM","address":"DANQTXJKCS9WCQCEOJOXTNOYFNRSSHBLMDRIZYMDYVXICDDSWZZYKMVDVIRKBOHQHFHMYUHPOIIMYNJWW","optimalPurchaseTarget":-100,"optimalPurchaseTargetScore":-100,"availablePurchaseTargetList":[],"optimalSaleTarget":-100,"optimalSaleTargetScore":-100,"latitute":"51.663425","longitute":"-0.504385","amountDemanded":"3","pricePrefered":"16","distancePrefered":"13","energyTypePrefered":"1"},{"index":16,"seed":"9GBFFCEHBXPEVFAIVBQXDKHAVHSRCXVLAREXFFKYASNFGFONNFBDRDS9YF9WUBPOMBKGVKRVW9PEYBHNL","address":"DJTT9DPRYQECSWZMSQZPWYDOXISDXVLEXJPQNVCYQNREYOTBWY9DKVQDPWSKZJUBVIVEHWMOCKXDPGEUA","optimalPurchaseTarget":-100,"optimalPurchaseTargetScore":-100,"availablePurchaseTargetList":[],"optimalSaleTarget":-100,"optimalSaleTargetScore":-100,"latitute":"52.185259","longitute":"-2.302294","amountDemanded":"5","pricePrefered":"15","distancePrefered":"14","energyTypePrefered":"2"},{"index":17,"seed":"I9ET9SDH9HPONHGDAYFQYKWUXUNRPOF9UIFSOYTXBETLYRIWHPKUPOTOUDXTNIVSTVMOABMQGHO9BWSDN","address":"N9GPTYASDSDHBABBTGXKFLRYMXAM9GOKIDFFGTIONRUZDVGNLIZSERAZQZVOUUFVHZFMSHJUMQPQ9WHZA","optimalPurchaseTarget":-100,"optimalPurchaseTargetScore":-100,"availablePurchaseTargetList":[],"optimalSaleTarget":-100,"optimalSaleTargetScore":-100,"latitute":"51.491294","longitute":"-0.233755","amountDemanded":"2","pricePrefered":"15","distancePrefered":"14","energyTypePrefered":"4"},{"index":18,"seed":"RXIUJCAPWYYGWXTPMVLVLNSSHIAIGOWUBB9S9RQMIWW9NJSBVYJKLSMUABRJHXGOGASAHP9XFUXAQFPMM","address":"IYPIH9LRIVTBGUODQSQBGFCIXBFKVGQAXXVXBACWNCOJ9UXBQZPIRHSGSHCSQEFETFGZ9AUGFNBKXJEYA","optimalPurchaseTarget":-100,"optimalPurchaseTargetScore":-100,"availablePurchaseTargetList":[],"optimalSaleTarget":-100,"optimalSaleTargetScore":-100,"latitute":"51.958174","longitute":"-2.260891","amountDemanded":"3","pricePrefered":"14","distancePrefered":"10","energyTypePrefered":"3"},{"index":19,"seed":"P9XQNMY9WTIFMEPUCAYYYFDUSTRNTPTYGUQPMVYHTWVJA9DCRCALSSJSWNCLS9WATFAXCVYTFSJQLFBSW","address":"TLCLAHWXKGJWBPVDXSZFSYMOWXFTKQERDGZT9CDJZ9FJLNLJTDLJURIEVH9PUZAWED9CRMFOPTAPV9TI9","optimalPurchaseTarget":-100,"optimalPurchaseTargetScore":-100,"availablePurchaseTargetList":[],"optimalSaleTarget":-100,"optimalSaleTargetScore":-100,"latitute":"52.272590","longitute":"0.170924","amountDemanded":"6","pricePrefered":"15","distancePrefered":"13","energyTypePrefered":"1"},{"index":20,"seed":"YBD9DQVWWDVAXT9BHCXYKPRVHMV9DGI9OSCOVCPKNHJORNHLAFMYJTRGSQDAXQAH99NOFHPNLY9QSUSJY","address":"G9JKTDEDVHTVIMHCHKERLTQLGDPKOHF9DBITXDIUYGSWJXRIP9LFL9LANSZQNDFRIZEXNVVFJCPCHLWUB","optimalPurchaseTarget":-100,"optimalPurchaseTargetScore":-100,"availablePurchaseTargetList":[],"optimalSaleTarget":-100,"optimalSaleTargetScore":-100,"latitute":"52.153467","longitute":"-0.977747","amountDemanded":"4","pricePrefered":"14","distancePrefered":"10","energyTypePrefered":"3"},{"index":21,"seed":"QFGHOFURPPGPUGGCGKKIVQSSGHQNDIVLEENYHJXLDRAFOITLTKDIPYNWLJUHWBFKEFOGPIPUPLGVKAXHW","address":"JVROTQNVQIAJRCU9BIXSTNWSMZKLCFKWZKBRGQHTYDHKYRKBJQDAFKKCXXIOBOZCQXEJEZIIUIWAIQDJB","optimalPurchaseTarget":-100,"optimalPurchaseTargetScore":-100,"availablePurchaseTargetList":[],"optimalSaleTarget":-100,"optimalSaleTargetScore":-100,"latitute":"51.621904","longitute":"-0.856950","amountDemanded":"1","pricePrefered":"15","distancePrefered":"11","energyTypePrefered":"3"},{"index":22,"seed":"OGKWSJIHWOLAWUNMHHFIOHVGAYHUHL9ORGH9NUSKYLYVRSWWKYIEQAIKRYOQTROK9L9EHSWTAWLYYFCY9","address":"DUJXTO9EQDEFVATWD9DZTKCKWWDNTPFZ9EVOVRWNRSNINQZPQAMRTUSSYCLTZANTKETLZUIZNFKFL9RLC","optimalPurchaseTarget":-100,"optimalPurchaseTargetScore":-100,"availablePurchaseTargetList":[],"optimalSaleTarget":-100,"optimalSaleTargetScore":-100,"latitute":"51.607689","longitute":"-1.004963","amountDemanded":"2","pricePrefered":"15","distancePrefered":"14","energyTypePrefered":"3"},{"index":23,"seed":"NYXFEPDISWOEKEFDF9TCPDUYCNFFGMVQQLAYOUSSKEFTTVPJNHEQAYKHXMVFQFSWDQIYQMHQMBBXMUOTO","address":"OUTXIGSFPJKRGWUDUVWBCZWMHNQTXHDKBXIZGQZQEGPOPUKA9B9KNWXUN9YYDWFGUAQRHXGAMHHG9QACD","optimalPurchaseTarget":-100,"optimalPurchaseTargetScore":-100,"availablePurchaseTargetList":[],"optimalSaleTarget":-100,"optimalSaleTargetScore":-100,"latitute":"52.094434","longitute":"-1.164015","amountDemanded":"4","pricePrefered":"14","distancePrefered":"10","energyTypePrefered":"1"},{"index":24,"seed":"NRIVJTQPBYERKUQBKAWVODHCARJYSILXCHQSNFTMWCNLTINFRHASVSGXTJPLNGOEHEKYCRSUHYJFHYTSO","address":"A9MDUSCXUDZJYLMJEYRLYHBZDNTOWWZEHVWPTTGXWYECNEFZOZEKVRMROKVQYIXJDHXNFSAFCMSORCKUB","optimalPurchaseTarget":-100,"optimalPurchaseTargetScore":-100,"availablePurchaseTargetList":[],"optimalSaleTarget":-100,"optimalSaleTargetScore":-100,"latitute":"51.953269","longitute":"-1.046549","amountDemanded":"5","pricePrefered":"14","distancePrefered":"10","energyTypePrefered":"3"},{"index":25,"seed":"LLSDSHEIWOEXGMVUNOHOGMQIWWGJRJVNEGBPTMUDOK9GVMNYCOCHTTNPALAMQXKSJF9YUHIYUJJDNQOUG","address":"PYKEYTWWUKDPWHNGQOUDSB9FHQOUPMMBCUMYSHNWOSRXFJMLZDYEJPRI9Q9NKLQCMGIOSPTFZFNFQRPLA","optimalPurchaseTarget":-100,"optimalPurchaseTargetScore":-100,"availablePurchaseTargetList":[],"optimalSaleTarget":-100,"optimalSaleTargetScore":-100,"latitute":"51.533491","longitute":"-1.603307","amountDemanded":"5","pricePrefered":"16","distancePrefered":"13","energyTypePrefered":"4"},{"index":26,"seed":"LBUPDL99TWHQQAFNRLNGKXVMFBFBCTRBAAGIGOURDKHA9EMCPIREKGPEPL9DMOPJUXWBHVJTSCLWWSMBO","address":"RWUEXYQ9ACKGYCYOSQKPCIOBQUUEQIHTUWVAOEMXFPHXTMAQYDLBTJFNUUIBAIVYJPBOSRE9VQSFDDNIA","optimalPurchaseTarget":-100,"optimalPurchaseTargetScore":-100,"availablePurchaseTargetList":[],"optimalSaleTarget":-100,"optimalSaleTargetScore":-100,"latitute":"51.009977","longitute":"-1.209778","amountDemanded":"4","pricePrefered":"15","distancePrefered":"10","energyTypePrefered":"1"},{"index":27,"seed":"AYBOPQPSRWCRTBHPD9HJSTXPTCRACJCCSMJMEIWTXFLYOMHPMWONMWRJSVIV9KUSGVSHWVHDXCESEDIBW","address":"ZCKTETRXGYTJIGNP9KISEYQIMHHOIZWOYPCLNEBHRQYCTZQKICGAVALVCYRNKSAHYPJKLHYJJXMEWLNYW","optimalPurchaseTarget":-100,"optimalPurchaseTargetScore":-100,"availablePurchaseTargetList":[],"optimalSaleTarget":-100,"optimalSaleTargetScore":-100,"latitute":"52.098411","longitute":"-2.048205","amountDemanded":"1","pricePrefered":"15","distancePrefered":"11","energyTypePrefered":"0"},{"index":28,"seed":"M9WIG9AAILAEPLRJYVUHNQMXDATFJN9LNEVJ9QJOG9ENSCYJPGQWLNFENDMENEOCFOBTCQQCNEMHJDOAU","address":"EYRZBY9EJFRF9FIPGFQTYLUBYFFMWACEZTRUQNBKWEGJAVPSFFDLKANL9BCZCBSOGSMIJSCRJAGCXZHTW","optimalPurchaseTarget":-100,"optimalPurchaseTargetScore":-100,"availablePurchaseTargetList":[],"optimalSaleTarget":-100,"optimalSaleTargetScore":-100,"latitute":"50.965847","longitute":"-0.699480","amountDemanded":"4","pricePrefered":"16","distancePrefered":"13","energyTypePrefered":"2"},{"index":29,"seed":"YWVXKEFDYWQCIRSC9BMGAVHEGHEEG9MSTQAB9HFRHRDKLRPIWDDPIAWIIRRBSPYRRXENDONPTXNPGVTQH","address":"XKYWTDJRDVHJGDWGIRMWINORVRFFFXDAUZZVVEHBGZ9NNBWZNMDFULADXUNCEJVVVVJTQQZCPWV9BVJEA","optimalPurchaseTarget":-100,"optimalPurchaseTargetScore":-100,"availablePurchaseTargetList":[],"optimalSaleTarget":-100,"optimalSaleTargetScore":-100,"latitute":"51.102036","longitute":"-2.196441","amountDemanded":"2","pricePrefered":"15","distancePrefered":"12","energyTypePrefered":"1"},{"index":30,"seed":"BXFWQUNNQNNBLGGDIFIOQHIDKSNSGQ9HMQFP9HICSKUWXRIGDAJDJJMGJFKQWJBPUELEQBTNNHAINMHKF","address":"JCXMWFWQNWSOIPEYDWSIETYJBHOGGPQARJJGBCWXFCKEG9TEXCZWLKCSLPOSFFRYKGA9INCVWVIWLEBXC","optimalPurchaseTarget":-100,"optimalPurchaseTargetScore":-100,"availablePurchaseTargetList":[],"optimalSaleTarget":-100,"optimalSaleTargetScore":-100,"latitute":"51.980419","longitute":"-0.838601","amountDemanded":"6","pricePrefered":"16","distancePrefered":"11","energyTypePrefered":"1"},{"index":31,"seed":"RSFS9FJBPETAGVTSP9W9DGBA9SD9WBUFRCEOYSDRHONNQHIRMOWDHWV9HUUKYRPUBUYCGXUVMGHX99VLW","address":"AWJUGUTGAONIQXPSPMJ9EIQTDYBORSCDYDFUTGF9YVUZSWYEUPUOWBMNMAKIWNMQOU9QZRWD9VSENWNV9","optimalPurchaseTarget":-100,"optimalPurchaseTargetScore":-100,"availablePurchaseTargetList":[],"optimalSaleTarget":-100,"optimalSaleTargetScore":-100,"latitute":"52.102007","longitute":"-1.853778","amountDemanded":"4","pricePrefered":"14","distancePrefered":"10","energyTypePrefered":"3"},{"index":32,"seed":"CKNEPNBCQCWCEOXIQVI9UNUIYSTLWFXPAREK9SVGPSXPTNPHRCPRQODQWEDWSQUISXD9IULHVYDFAQRKY","address":"WCCR9IOWWILBR9BEWONMDMTYMFBPPWWZNBQVKEHZOGBBVEFCYSSBTJSB9KCXCSLKGBPVYQVE9MFYMZECW","optimalPurchaseTarget":-100,"optimalPurchaseTargetScore":-100,"availablePurchaseTargetList":[],"optimalSaleTarget":-100,"optimalSaleTargetScore":-100,"latitute":"51.435977","longitute":"-0.218923","amountDemanded":"2","pricePrefered":"15","distancePrefered":"13","energyTypePrefered":"2"},{"index":33,"seed":"RGNAJNOMVBUJJ9FJTJITJPALVXN9FRIUAFYKJFHFGT9ELWVJLMIMBAHBFJJJGQUDMLBNK9IMFUQJEHUNS","address":"SCLSUAUKG9VLZCATAKB9AZVJZWLUIFGINNCXGWHJBRRBHZJTEBHMGZSGQV9LOZNHPMQH9BORFLSEBMZPW","optimalPurchaseTarget":-100,"optimalPurchaseTargetScore":-100,"availablePurchaseTargetList":[],"optimalSaleTarget":-100,"optimalSaleTargetScore":-100,"latitute":"51.394873","longitute":"-0.301868","amountDemanded":"1","pricePrefered":"14","distancePrefered":"10","energyTypePrefered":"2"},{"index":34,"seed":"MARKSRIBSHDLCWSQFKCJWX9NJVFAJUYKGPLIWAPTCQOCAAWLHTYPFXRJGBTOYCFYOEEPUFJTFCBYMCQMF","address":"OBPAILAMLSNWDIGQRCQE9LJXTFGMAYXIXVSUUMQYEYYKAUCPEZOWKUDCCLWAVMGNDAWWIBQFQSCCJCID9","optimalPurchaseTarget":-100,"optimalPurchaseTargetScore":-100,"availablePurchaseTargetList":[],"optimalSaleTarget":-100,"optimalSaleTargetScore":-100,"latitute":"52.267980","longitute":"-0.341675","amountDemanded":"4","pricePrefered":"15","distancePrefered":"13","energyTypePrefered":"4"},{"index":35,"seed":"SRJBVMDNVEHTSVPORUSYRFCYV9KHOKCPDFVUEWVBMCXGFODOEWQPTTLKEHDMVDGUVBXJNHXJHLEVEBH9B","address":"AJVIHCLJVWFVBVREHT9HNYUGRYRGUWVPRQWBEOFKZZFVYCOTMEJQUYJKUVOAFXHJAJHIPWUWILMNJZ9DA","optimalPurchaseTarget":-100,"optimalPurchaseTargetScore":-100,"availablePurchaseTargetList":[],"optimalSaleTarget":-100,"optimalSaleTargetScore":-100,"latitute":"51.676028","longitute":"-0.145547","amountDemanded":"4","pricePrefered":"15","distancePrefered":"14","energyTypePrefered":"1"},{"index":36,"seed":"SWLSLKWEIGVEFJCUKCBHFIDDCKLUAEVDHKC9MGAXIRCHUYMYDSBXRQRXRQVAJLEFXTDFGTVAAMCWEDHCO","address":"WBFEIWBKPSDFQDZIBZIMJHVAADBQOUBMBWRYSZIZJPBUHYI9NBCUUWLNIJBJWTYPDURJMXVKXNFTWTHDC","optimalPurchaseTarget":-100,"optimalPurchaseTargetScore":-100,"availablePurchaseTargetList":[],"optimalSaleTarget":-100,"optimalSaleTargetScore":-100,"latitute":"51.901980","longitute":"-0.325020","amountDemanded":"4","pricePrefered":"16","distancePrefered":"14","energyTypePrefered":"2"},{"index":37,"seed":"UF9FVBYMEHPLCWGVKAASCHP9MGKSKWBONCQXQACKTPF9FVNMXRBVIREWLGDRQGYNKCRANTUSNLLUNHWRP","address":"HIOWGRCXVKVTHQXTSDJLCKEXBYPMEF9IGIAVKIGHVWZIDIRHWGVVVQXTDOIDTBNNUUIXIEYPFUGWOOXHA","optimalPurchaseTarget":-100,"optimalPurchaseTargetScore":-100,"availablePurchaseTargetList":[],"optimalSaleTarget":-100,"optimalSaleTargetScore":-100,"latitute":"51.299454","longitute":"0.155647","amountDemanded":"4","pricePrefered":"15","distancePrefered":"12","energyTypePrefered":"1"},{"index":38,"seed":"RHXADJDVK9LBEINIFOGYVWRUCVHTSIKXD9OABUBYPNMKIOLDLFEPSP9NM99ENCWYMCSYXMVVANLLUL9WF","address":"OYMTSRVUHFPYZMUBFAYFIEDRROAGNZFZKXWWKASKDVFJCKCP9XVMPGCZDWSMVDBEXXKJOUVNBQBGXUNCX","optimalPurchaseTarget":-100,"optimalPurchaseTargetScore":-100,"availablePurchaseTargetList":[],"optimalSaleTarget":-100,"optimalSaleTargetScore":-100,"latitute":"52.377413","longitute":"-0.263166","amountDemanded":"4","pricePrefered":"15","distancePrefered":"15","energyTypePrefered":"3"},{"index":39,"seed":"IX9NUGKVLQNF9WWRBVHKQEAHDNRPFXYAYBJJEHBIUKYHNOL9ORJDN9OJCRRHPODEOASXAGMFFLEV99GFS","address":"BLQEYBZNFZJOPAZKVJOHCFNKWARNYZMTMPHRXQZJPDGOOIBFBACCRWEYTHUGLNTKHBTABVDGFVEUGDYRW","optimalPurchaseTarget":-100,"optimalPurchaseTargetScore":-100,"availablePurchaseTargetList":[],"optimalSaleTarget":-100,"optimalSaleTargetScore":-100,"latitute":"51.732421","longitute":"-0.596423","amountDemanded":"6","pricePrefered":"14","distancePrefered":"15","energyTypePrefered":"4"},{"index":40,"seed":"QSKJFBVAFGXXUGIDXICP9SRG9HPII9PHHWGKKSMWVYDCA9SLAMYS9KINAODEYABWCBWTTQUIRJGWMMLPM","address":"URUXXS9BWFOMINDHSTDB9DBXKFVJZDFZSSKNQJTLFZUNJNYGHEJJTBRLDTXJIEEZHSRFSMZSTNRIUHGM9","optimalPurchaseTarget":-100,"optimalPurchaseTargetScore":-100,"availablePurchaseTargetList":[],"optimalSaleTarget":-100,"optimalSaleTargetScore":-100,"latitute":"51.411826","longitute":"-0.965435","amountDemanded":"4","pricePrefered":"16","distancePrefered":"11","energyTypePrefered":"3"},{"index":41,"seed":"AOA9AFTWFDCQRIIKSMSQBOHPBRLVFVWMJGEEHU9PEDWAIPEYTUJJXLFEHTVAJLRPNXOVSNLMMKECXKKHV","address":"RAZQZXOYWIJTRPWEIBFL9ILUMDFODUOQTAQD99KTXXCKLALVLHIZHDQALMRTDSLGNRHWOI9ISDJBBXZ9D","optimalPurchaseTarget":-100,"optimalPurchaseTargetScore":-100,"availablePurchaseTargetList":[],"optimalSaleTarget":-100,"optimalSaleTargetScore":-100,"latitute":"52.258107","longitute":"-2.115024","amountDemanded":"4","pricePrefered":"15","distancePrefered":"13","energyTypePrefered":"3"},{"index":42,"seed":"LANOKVKNHPYPRVWLCXXOTNSAVPUB9NHQIECLMOLKHOOYP9XGWQWVFDDRHFHCJVM9UYYMXRVLQGEYERENB","address":"QKQARGODPAE9KMWLZPNOYNAHRAIWN9K9RT9RURQGNBBRBHAXVUOTZUPILZYMGBICTTVDERIXYWDFAPAIC","optimalPurchaseTarget":-100,"optimalPurchaseTargetScore":-100,"availablePurchaseTargetList":[],"optimalSaleTarget":-100,"optimalSaleTargetScore":-100,"latitute":"52.149638","longitute":"-1.094406","amountDemanded":"3","pricePrefered":"15","distancePrefered":"13","energyTypePrefered":"4"},{"index":43,"seed":"CUXWJQRWAABUAB9FQWBIY9DNVDUCEXGJW9DHQGGLLSXGVXESAJQURAOYTTKNOOIKRTWOPVUME9H9LSDRX","address":"XEDU9ISCYFDAZMKFNFHJRXBHPOUXOVMCSCHONTFNFMXRTYIDOVJRKCWBCULHEUEPDEPQPGQJNJYRZZMJZ","optimalPurchaseTarget":-100,"optimalPurchaseTargetScore":-100,"availablePurchaseTargetList":[],"optimalSaleTarget":-100,"optimalSaleTargetScore":-100,"latitute":"52.177315","longitute":"-0.832858","amountDemanded":"6","pricePrefered":"15","distancePrefered":"11","energyTypePrefered":"2"},{"index":44,"seed":"JNYMNLRXSUGCEHUGOFRBOPQOHPW9KPMWUVKJREGOOVJDAADLKXMUTXHCUKYPU9PMWBWTNSDOAPLMEGTID","address":"NEN9HUZIKVWYDYP9PJKVP9TSQAITZMMTFOJDVGYLLCZAWNNX9DVJBHTRGVZWNDUQ9PNUNQULHPPEZYJQW","optimalPurchaseTarget":-100,"optimalPurchaseTargetScore":-100,"availablePurchaseTargetList":[],"optimalSaleTarget":-100,"optimalSaleTargetScore":-100,"latitute":"51.587680","longitute":"-2.174634","amountDemanded":"5","pricePrefered":"14","distancePrefered":"13","energyTypePrefered":"0"},{"index":45,"seed":"HYDR9SSNX9PW9VHQKFTJYFNFLRDRMMWHXOYBQJAVSIUVEDAHOXIDKXTEEAVDHEEEYMJGXLSYVISXHUHSA","address":"CLRKYBAFWZGBLYHSPQLQJRLZBGXBQWHKEIMM9KIIJ9KGCGHLLCVTYGQHCQYOSBTTBQHRDGBRVZPFFIYBX","optimalPurchaseTarget":-100,"optimalPurchaseTargetScore":-100,"availablePurchaseTargetList":[],"optimalSaleTarget":-100,"optimalSaleTargetScore":-100,"latitute":"51.764794","longitute":"-1.753041","amountDemanded":"1","pricePrefered":"15","distancePrefered":"15","energyTypePrefered":"4"},{"index":46,"seed":"NMURJGIGKQNHPOTDRRITIOCHFYMNJEHJLIYLGXOGVIAEWYCC9YKJKJVVBFBKVMDVMGWVGTPMDHIP9KOBH","address":"HCMXYKRASLMCBT9IA9RNQLPTYVTEMLSMGRLYGGBAXTOFMB9OWMVKYPBEORABRWIEMGKSTJNXBJCFWBLSW","optimalPurchaseTarget":-100,"optimalPurchaseTargetScore":-100,"availablePurchaseTargetList":[],"optimalSaleTarget":-100,"optimalSaleTargetScore":-100,"latitute":"52.406714","longitute":"-1.725867","amountDemanded":"1","pricePrefered":"15","distancePrefered":"13","energyTypePrefered":"3"},{"index":47,"seed":"ROYJMEUQQKJUSLLTJKULF9OCQEIMAMSSKTFDJVIFXDIQJHXWRDFFHXJCHTKJRXKQCBGXOVMKCYSARVHKX","address":"ZWHGHXDIY9WZNQOJW9SFYYCGY9MVEFXECNRLLQTGWLGXUIGFHQYJUKCQXPGHVXUHUGQBLSS9GV9CMSZS9","optimalPurchaseTarget":-100,"optimalPurchaseTargetScore":-100,"availablePurchaseTargetList":[],"optimalSaleTarget":-100,"optimalSaleTargetScore":-100,"latitute":"51.353606","longitute":"-1.194403","amountDemanded":"4","pricePrefered":"15","distancePrefered":"11","energyTypePrefered":"2"},{"index":48,"seed":"JUYUCIRNLCBEPJVMCLCDJETPCPPJVWHADRNTJRGKEFIQDPKQSEB9ESRUACPUEYBHPLCONBOEUCEEOEHCS","address":"FFSUZUTXYYKQFXPSLBCBRCLOOYURJNJDORQBRWIP9MKCFVQTCKPB9KHKYLGJFZZQJ9TJIHBNTCCFEJYOA","optimalPurchaseTarget":-100,"optimalPurchaseTargetScore":-100,"availablePurchaseTargetList":[],"optimalSaleTarget":-100,"optimalSaleTargetScore":-100,"latitute":"51.916228","longitute":"-1.841896","amountDemanded":"5","pricePrefered":"14","distancePrefered":"13","energyTypePrefered":"2"},{"index":49,"seed":"WVLJFFPBSHQJMPKSYLFH9HOUEISPOAJJSWRQRQQJPAUELJGKOOIHWFGAADYKKWJIBVKLVJQGY9LYMJCA9","address":"PHSEERBOOEWSLMOBU9I9ZBPEBVJHSUTYP9WBXOLJKRBWTQEJUTWQDKUTQGRUSLUYCZN9HIVISFBTNLPVX","optimalPurchaseTarget":-100,"optimalPurchaseTargetScore":-100,"availablePurchaseTargetList":[],"optimalSaleTarget":-100,"optimalSaleTargetScore":-100,"latitute":"51.240050","longitute":"-0.322102","amountDemanded":"1","pricePrefered":"15","distancePrefered":"13","energyTypePrefered":"0"},{"index":50,"seed":"DAPU9AAJJWESLMWPMHPQXBHJTYOYDAGGTHYGOLJXMCWPIADVFPVCCFUIEGWCNPFNBIP9KGLKNGJOVAEIJ","address":"XQQSNNYTLTLHVQGO9ZQIPSZLLMPSPKSB9UXIEM9GAZPAKPJHBFTILNXSSSYFGWCPSIMNVIAIGDPIKDSSZ","optimalPurchaseTarget":-100,"optimalPurchaseTargetScore":-100,"availablePurchaseTargetList":[],"optimalSaleTarget":-100,"optimalSaleTargetScore":-100,"latitute":"51.817365","longitute":"-1.221509","amountDemanded":"6","pricePrefered":"14","distancePrefered":"12","energyTypePrefered":"2"},{"index":51,"seed":"LDJJYPBW99UKWLXBQWUUGSTTNGRMUCRANDB9XXPYKHMNUV9HRQYCXINRLUCXXHULRPREP9NVBOFKJYDYU","address":"RIEIRRLZBJPXNSTNGDGHTAQ9ELJJJZMJC9TGUPMNMMEOX9VMWDUHKOAIGRUFKSSKLHQDYKFANIXAHZSB9","optimalPurchaseTarget":-100,"optimalPurchaseTargetScore":-100,"availablePurchaseTargetList":[],"optimalSaleTarget":-100,"optimalSaleTargetScore":-100,"latitute":"51.632796","longitute":"-2.078021","amountDemanded":"4","pricePrefered":"15","distancePrefered":"13","energyTypePrefered":"3"},{"index":52,"seed":"AKHDSIBLERIXOIY9HXHRMJGYGLMCMMFLQI9XGBHMETUPTMQWKH9QFLCHANMQFWJ99LQBWUJUSOLDLLONV","address":"QJKDEQOOCGEEJTSOYDJP9WCSZOFDBTZVYOGTXDONUGULZMSJB9UIBMIXJQSFHKHFPHESMOPVMPJJJKSXD","optimalPurchaseTarget":-100,"optimalPurchaseTargetScore":-100,"availablePurchaseTargetList":[],"optimalSaleTarget":-100,"optimalSaleTargetScore":-100,"latitute":"51.548544","longitute":"-1.467769","amountDemanded":"3","pricePrefered":"15","distancePrefered":"15","energyTypePrefered":"1"},{"index":53,"seed":"BXULAECABJGERQCMNHRQUPVNUNCDHGNRQTIITNRPIYGMOWB9MULDKUKQHALSKMJOXGWPNXYHDBWQSHMQB","address":"THBDMGCBLBUHFCDHRMNZJXDNBSXHAMMOMUGWYVO9ZJSGBYZSZVGXXFUVCIGIPKX9KTUIIRAINR9FZM9TZ","optimalPurchaseTarget":-100,"optimalPurchaseTargetScore":-100,"availablePurchaseTargetList":[],"optimalSaleTarget":-100,"optimalSaleTargetScore":-100,"latitute":"51.983978","longitute":"0.084956","amountDemanded":"5","pricePrefered":"15","distancePrefered":"15","energyTypePrefered":"2"},{"index":54,"seed":"UNWWJOV9OVTDKDBNKWAWWODTUIUNECUHDIBYUIKLDMCVI9LUAJYRSQDJCVBKKWKM9KGOWURAPTIVADKGB","address":"OBKCIPLYLDGUFHSEAKCDDDGRBJQGAVPDZRRTSETHLTSAUZ9LNIDBAUGHTSGHTIZQYJZKSA9DMZ9VHIERD","optimalPurchaseTarget":-100,"optimalPurchaseTargetScore":-100,"availablePurchaseTargetList":[],"optimalSaleTarget":-100,"optimalSaleTargetScore":-100,"latitute":"52.308710","longitute":"-0.983271","amountDemanded":"4","pricePrefered":"14","distancePrefered":"12","energyTypePrefered":"1"},{"index":55,"seed":"JNAXQCJLRCKEIDSUKVAIWTGHWOJCPKMRPUXLJDRGFVPXA9MDPU9XBBWEDAIMCGTVPQNPILDX9EAGPIQVB","address":"GKKDCWRAXJ9EYVARPFAOCBNUXOHIRLKDUUJKTVQGUWRZJV9KWM9APTZOXIXDKKLSMBPP9NWF9LDNTYURC","optimalPurchaseTarget":-100,"optimalPurchaseTargetScore":-100,"availablePurchaseTargetList":[],"optimalSaleTarget":-100,"optimalSaleTargetScore":-100,"latitute":"51.966082","longitute":"-1.999437","amountDemanded":"4","pricePrefered":"16","distancePrefered":"13","energyTypePrefered":"3"},{"index":56,"seed":"ILHBXEIQDEUCBCYNCBJ9KEMDXVPWVU9VLMT9JYBYFXULXAHENOJYRKCRRKEOF9DXMPDHDT9WEC9XGXMJC","address":"CQCUFMDJ9TWMVLOINLKJVWO9DDUSTDMZ9RIPUHJQ9WXXVKHYJBPCWAIBIF9VEGSJUDZJLGDBA9LYHJPJC","optimalPurchaseTarget":-100,"optimalPurchaseTargetScore":-100,"availablePurchaseTargetList":[],"optimalSaleTarget":-100,"optimalSaleTargetScore":-100,"latitute":"51.405261","longitute":"-1.727974","amountDemanded":"4","pricePrefered":"15","distancePrefered":"12","energyTypePrefered":"1"},{"index":57,"seed":"9HGCLLRPEW9SCGMNOFOOGFVVAAPFBRI9OK9RRJXRV9LREWWMA9CEBKWGBDQJVCLWGAOTJJUPMCBXJUGGN","address":"GCTWNHJRLDZ9YBDFPSMMJUKHASIYCDCNOBRYBK9JOGEOCMEPMYYWQNX9CUWFVXTLQYDEWBNZPYQRMYFGW","optimalPurchaseTarget":-100,"optimalPurchaseTargetScore":-100,"availablePurchaseTargetList":[],"optimalSaleTarget":-100,"optimalSaleTargetScore":-100,"latitute":"51.358357","longitute":"-1.563238","amountDemanded":"2","pricePrefered":"14","distancePrefered":"12","energyTypePrefered":"4"},{"index":58,"seed":"VXIM9KL9TLXMCMXWNEWVTXYIWKPCGRVXOVRDVVYROUNQNWSSFNSAQNRUFRYVM9NXCEBVALOHUVHCI9LY9","address":"NBYKPGNJMYPOJ9XZMRIJTEXIDKWBTRESICHWCRNJPAZCTLCBRLBXGHOTUERRWVK9RTPVKUIGMWQIXAYIW","optimalPurchaseTarget":-100,"optimalPurchaseTargetScore":-100,"availablePurchaseTargetList":[],"optimalSaleTarget":-100,"optimalSaleTargetScore":-100,"latitute":"51.796081","longitute":"-0.025734","amountDemanded":"6","pricePrefered":"15","distancePrefered":"12","energyTypePrefered":"1"},{"index":59,"seed":"F9XLQYKIRHCWIHUTDYMJGIXJDSPTDVN9W9GUB9GSDUUAF9UGQV9DUWRFIXGYBXMAQMEUAKJMDRJERNECC","address":"9UOQLBQJKW9NZNJWORCTPYKMJGLVLHUWVAQBWZXMRQQHNJKXDYU9SEFMXELXMNIOATTCWPZREQ9FZYYJZ","optimalPurchaseTarget":-100,"optimalPurchaseTargetScore":-100,"availablePurchaseTargetList":[],"optimalSaleTarget":-100,"optimalSaleTargetScore":-100,"latitute":"50.963197","longitute":"-2.033335","amountDemanded":"5","pricePrefered":"15","distancePrefered":"13","energyTypePrefered":"4"},{"index":60,"seed":"Q9TKNAWMQXGEFGBMYWHVJDRXYQBH9HTSQCVMMNLHOFHDURPKIWUBCHAKMMWLAVOLTSYGGJECFWYIQJMJU","address":"BWRYWUWKVRUUIBCRZDWROVHYEDGNAJXVNYMNWGQNFKANJTVFTQQGAVBWRDMRPURPBPXHHTVVZLMRCKXID","optimalPurchaseTarget":-100,"optimalPurchaseTargetScore":-100,"availablePurchaseTargetList":[],"optimalSaleTarget":-100,"optimalSaleTargetScore":-100,"latitute":"52.264475","longitute":"-0.295498","amountDemanded":"4","pricePrefered":"15","distancePrefered":"14","energyTypePrefered":"2"},{"index":61,"seed":"PNQCXTCU9UPABWRNIVOBWF9EODJYWWOXLQEUPOTUUQJDNNQLRTQHMCKHUOXMEHGBHSOGTTIXAOCVCXJQN","address":"DCWIFBYDUMMHTXPAGKDHHUFGSFGBZAZKBMDEGCMVDHUAVSSXWRGKLH9ZIZTZZIZYSPAXLVTXWYRVLFCEX","optimalPurchaseTarget":-100,"optimalPurchaseTargetScore":-100,"availablePurchaseTargetList":[],"optimalSaleTarget":-100,"optimalSaleTargetScore":-100,"latitute":"51.822000","longitute":"-1.898129","amountDemanded":"3","pricePrefered":"15","distancePrefered":"11","energyTypePrefered":"0"},{"index":62,"seed":"VPEILOD9VEONEMBANFFRHAWQ9IIEE9Y9BYK9LNEBEKVIKVFRGGCTKOYTYIHXQHFNGAECYDQWYRLPFT9XK","address":"RALJGHXQZWZBCZTUBESSCTIWGQWQTSGWRPXWRAOZWPRIYND9GNPURXJGUCOAFYAKXYURVSGITJFKHVUJC","optimalPurchaseTarget":-100,"optimalPurchaseTargetScore":-100,"availablePurchaseTargetList":[],"optimalSaleTarget":-100,"optimalSaleTargetScore":-100,"latitute":"52.028954","longitute":"-1.965287","amountDemanded":"2","pricePrefered":"14","distancePrefered":"13","energyTypePrefered":"2"},{"index":63,"seed":"JNL9QAJGNODLKKMRYSRCMEWFU9SLUBPOIGXBC9HABEQXJG9XITASCRRIJUTLGICEIHOBWEHQIS9HDSSKQ","address":"VBVKECSTOFJFNJVR9PIZTFXYOULNQZLTDYQFDJFWJNS9HZLIOUQPRYQJMHGKLFCIMBRODYLKGVCIKZSJC","optimalPurchaseTarget":-100,"optimalPurchaseTargetScore":-100,"availablePurchaseTargetList":[],"optimalSaleTarget":-100,"optimalSaleTargetScore":-100,"latitute":"52.329879","longitute":"-1.815771","amountDemanded":"3","pricePrefered":"15","distancePrefered":"11","energyTypePrefered":"1"},{"index":64,"seed":"TEYMTFKJVPAAOKAMKFXJQRQDQCKWXHOWFNK9AIYJMIRQWAYBNHUBPAMWOT9NSY9KDQY9NAJYOHLOGHHQN","address":"DTYZDIKIRX9Y9DGDSLOAYGPIGDSKEQFCMLXUXHAKCSHUTWIUJWSHWKIIGPBSVYXX9FONPZCUDVCHJSHWY","optimalPurchaseTarget":-100,"optimalPurchaseTargetScore":-100,"availablePurchaseTargetList":[],"optimalSaleTarget":-100,"optimalSaleTargetScore":-100,"latitute":"51.671172","longitute":"-1.039592","amountDemanded":"2","pricePrefered":"15","distancePrefered":"14","energyTypePrefered":"3"},{"index":65,"seed":"FC9LVQOLW9LFCQKBEJBRRAMCFQGPDKCDOSXR9YUCKQFMV9QGWKDMMEPNVEVWTXVUKRXRS9UGMVPSKGDFP","address":"MBJNKJXPSLAUXCMKZWKJSBYF9CLDDSUDJC9MHWNOIAHRRVBHUN9ILAIWRGUJCVSIAQMBLEDFBV9VDQTSX","optimalPurchaseTarget":-100,"optimalPurchaseTargetScore":-100,"availablePurchaseTargetList":[],"optimalSaleTarget":-100,"optimalSaleTargetScore":-100,"latitute":"51.311632","longitute":"-0.823047","amountDemanded":"2","pricePrefered":"15","distancePrefered":"11","energyTypePrefered":"2"},{"index":66,"seed":"PYLDDEHTPIH9EELYHUBDQFIYJKWCBSWYIEBPWFDADFV9KIHNPNGLIIUWJWDOWXLFXCDYVIWDAGTBSAYJI","address":"HRKVIQJGDCHOLYHOZSJUDGHKSAMQRDONYYQLQV9ZTBAFSNYXFNIAERHCUVLSSYNEYKRDGRKPDZXPLZ9OX","optimalPurchaseTarget":-100,"optimalPurchaseTargetScore":-100,"availablePurchaseTargetList":[],"optimalSaleTarget":-100,"optimalSaleTargetScore":-100,"latitute":"51.926505","longitute":"0.243015","amountDemanded":"1","pricePrefered":"15","distancePrefered":"15","energyTypePrefered":"1"},{"index":67,"seed":"DOMGHXAYWNTLAWISKOSUPTYYHVL9UJTFKVCF9BKSQJHTVWOFKKUIMKG9UTHXHVXMUWISWTRLTUDMP9MWA","address":"LOOPJFMSYXWQRWMRBOULWCYYYTJZMMZYIADPRMESBLYSXTKLQUEPF9ZFKISMWLGVFXDAHWYOEGERBLYSC","optimalPurchaseTarget":-100,"optimalPurchaseTargetScore":-100,"availablePurchaseTargetList":[],"optimalSaleTarget":-100,"optimalSaleTargetScore":-100,"latitute":"52.316990","longitute":"-1.111807","amountDemanded":"3","pricePrefered":"14","distancePrefered":"13","energyTypePrefered":"0"},{"index":68,"seed":"AMBOIF9A9CBDLBCJJMTY9QVVDECBEXJUEYUFLHANTBXCWQYKPPHSOWIOCBMP9IWDSK9KQUJJ9ICXRVDSQ","address":"APCBMJJOWAHOHNUBKNTVDQIFJEKJBMLWEVLTPYMNCH9AKQA9WQRXACYI99AFSCIZRKRRJRSTWQCQHAYV9","optimalPurchaseTarget":-100,"optimalPurchaseTargetScore":-100,"availablePurchaseTargetList":[],"optimalSaleTarget":-100,"optimalSaleTargetScore":-100,"latitute":"51.963898","longitute":"-2.289248","amountDemanded":"5","pricePrefered":"15","distancePrefered":"11","energyTypePrefered":"4"},{"index":69,"seed":"DFAKAVCYVMJYNIXWRDWINJVIHHYUXRIDEPSNGO9EQIPLJPKD9HCQQDWJTDWFCOQUKUJRKSPWRWIDANBVU","address":"GYTOCCDS9ANKLWZXQMKWPIJGEXOEAGCZYUYXOGEVILFXZHEOMXGRTFCKRRACWOVDDFPYSCMSOBAOWAHEA","optimalPurchaseTarget":-100,"optimalPurchaseTargetScore":-100,"availablePurchaseTargetList":[],"optimalSaleTarget":-100,"optimalSaleTargetScore":-100,"latitute":"52.152457","longitute":"-0.944665","amountDemanded":"3","pricePrefered":"14","distancePrefered":"12","energyTypePrefered":"4"},{"index":70,"seed":"AHTVEKBHTYPRNCIYYMSKCCBR9JMOPOHP9QOLM9NQRCWQPOKNXLQBOLEJEIBHTLAOOQAFLMVKOFCDUPXNS","address":"JSBRLTXUAMIZDVSKFO9FQFXFKXSOIJYZSGKVOWZOWWLWATGFWTCPHLCQJOMUJVCGTYMVCWSQRVLDMGHYW","optimalPurchaseTarget":-100,"optimalPurchaseTargetScore":-100,"availablePurchaseTargetList":[],"optimalSaleTarget":-100,"optimalSaleTargetScore":-100,"latitute":"52.156097","longitute":"-0.031763","amountDemanded":"6","pricePrefered":"14","distancePrefered":"10","energyTypePrefered":"4"},{"index":71,"seed":"LQAXAWYBGOUVKMAWLNAEDSYAJ9EXTAPVUHCIQGGJSDSHNAQD9KGPWSTDUKCKHBMRXGKUVVKPKE9UJLBA9","address":"QZZK9UBKTPLVXXTTNKANTNOFXQUMVSKD9AUNHZITRXMYNFS9VMTNMJSVHUHIZEOXHQRVRGUKEVEKUMWCC","optimalPurchaseTarget":-100,"optimalPurchaseTargetScore":-100,"availablePurchaseTargetList":[],"optimalSaleTarget":-100,"optimalSaleTargetScore":-100,"latitute":"52.274926","longitute":"-0.306966","amountDemanded":"5","pricePrefered":"15","distancePrefered":"14","energyTypePrefered":"3"},{"index":72,"seed":"MYSXLSWPDPGLXUUJUD9SOUTMWKFOIGADGYIQMU9YFSHWOCVFHEFHAUQFAQYCHVGARPPORSFWTMMMG9CWN","address":"CGYDUOUL9WYPO9WXFCGQMT9PHXRNKFKWIKOETNVXEL9FYQGEYNDKIGTXKGEMPATXDRELPL9DMRM9IDUVD","optimalPurchaseTarget":-100,"optimalPurchaseTargetScore":-100,"availablePurchaseTargetList":[],"optimalSaleTarget":-100,"optimalSaleTargetScore":-100,"latitute":"51.879390","longitute":"-1.189827","amountDemanded":"5","pricePrefered":"15","distancePrefered":"14","energyTypePrefered":"4"},{"index":73,"seed":"IPFRFKBIDTAV9RLPSJH9LDBIXRJBPFGWAWUIGQPGTHALOG99Q9E9SQFCHSXBVJPBDUBQGJRUVOGMNNVC9","address":"QOB9VA9O9GLXEQCVBYBKI9ICBMXTEIBDXEENQVOBNRKHC9XKCHMKMYQXROUNKLKVFBZJEXHEBXXFTJMFB","optimalPurchaseTarget":-100,"optimalPurchaseTargetScore":-100,"availablePurchaseTargetList":[],"optimalSaleTarget":-100,"optimalSaleTargetScore":-100,"latitute":"52.408764","longitute":"-1.793802","amountDemanded":"3","pricePrefered":"14","distancePrefered":"13","energyTypePrefered":"3"},{"index":74,"seed":"GFRPMGJMYIR9MWBMXKYBBOGJHATJKAAUEJLLXCQACFATWCSODQDFGQLVBUYCVBVINRIVBILDQGOHIRLOT","address":"WCWEDCXERWNNMYANERKRTDQUNCSWGRYFOJVQWCFIOEWZMPZZLXYZJGWRCDCFTXBQEMYFFRKSMULLYBIZX","optimalPurchaseTarget":-100,"optimalPurchaseTargetScore":-100,"availablePurchaseTargetList":[],"optimalSaleTarget":-100,"optimalSaleTargetScore":-100,"latitute":"52.270705","longitute":"-0.526451","amountDemanded":"5","pricePrefered":"15","distancePrefered":"15","energyTypePrefered":"2"},{"index":75,"seed":"PSDVTPXTJKDPVKPNDWMNMLUJHNAMGOSVWEHTTBRQRDYDILRXFODUXCAEKUYYIMEJUAWGSXBLHEOHY9LBD","address":"KATOKBSCINMLRCYJS99MJYG9EETJXNOCJWQCIBWOUSYBMJDEJWDRWXBHTILQYKXHJGEJUILYWQTGBNJCD","optimalPurchaseTarget":-100,"optimalPurchaseTargetScore":-100,"availablePurchaseTargetList":[],"optimalSaleTarget":-100,"optimalSaleTargetScore":-100,"latitute":"52.250974","longitute":"-2.004080","amountDemanded":"5","pricePrefered":"16","distancePrefered":"14","energyTypePrefered":"0"},{"index":76,"seed":"MXGWA9RLOQUEXBSATXRXXOQRBLLEVIHERLOHEWKEPSTBTRVFKD9BGXFMOPESUUFCWVP9WOIVHQQSLYGUD","address":"SJWQRICK9TSYXHQMIBWGYF9PX9TCFJFTGSIIIMNVMKKZYXSCKCIKNOWJOBTLMELUZZAYIRVTUROGVUUOZ","optimalPurchaseTarget":-100,"optimalPurchaseTargetScore":-100,"availablePurchaseTargetList":[],"optimalSaleTarget":-100,"optimalSaleTargetScore":-100,"latitute":"51.957112","longitute":"-0.703695","amountDemanded":"5","pricePrefered":"15","distancePrefered":"12","energyTypePrefered":"2"},{"index":77,"seed":"PJ9LGFXPFCU9CQWKBYGVKLWMRADQSWKNHPJOEVXL9RNLSMYTEXBK9HCCSOPKRUPPKBUFNHADCKB9OSLFY","address":"SLRJIUCPFYVTOENMQZCAZETXQSUAHGFPWEFSSDBABHWWSGSK9ELKYSRSQRJPSKBGGAMP9VTLUCKCPC9YD","optimalPurchaseTarget":-100,"optimalPurchaseTargetScore":-100,"availablePurchaseTargetList":[],"optimalSaleTarget":-100,"optimalSaleTargetScore":-100,"latitute":"51.203858","longitute":"-1.922001","amountDemanded":"3","pricePrefered":"16","distancePrefered":"13","energyTypePrefered":"4"},{"index":78,"seed":"FUCVDMSDQXNDU9FRGXOPGPWHNNMOFLJURGCEXPGCMFPNLGWOPT9TXVAUMVJFTPNYTUIVKCTVJPFRBPGBF","address":"ELNRFDQVUXHGXTLCRGPWTFPMVVYHBUXKELIJHOZECJCPMNEFDXIBEOILLNGEJQNRJDKVZOJGJTKHXULNW","optimalPurchaseTarget":-100,"optimalPurchaseTargetScore":-100,"availablePurchaseTargetList":[],"optimalSaleTarget":-100,"optimalSaleTargetScore":-100,"latitute":"51.720020","longitute":"-0.031548","amountDemanded":"2","pricePrefered":"15","distancePrefered":"14","energyTypePrefered":"3"},{"index":79,"seed":"EJVAWPAVQJAOUYJPRLIXGKTHFGKL9FYRRRUFBIUP9OSNCFCAEQAMLQQOILTQBEXNUQAAVTCALXOEPWATK","address":"USKARIHO9RVGPJDFOUZQNXPGPORWJMVRRVWFOJMENGGTQRKLSMFPZADRJWI9WRTMQGPPIWUAKURPWQA9Y","optimalPurchaseTarget":-100,"optimalPurchaseTargetScore":-100,"availablePurchaseTargetList":[],"optimalSaleTarget":-100,"optimalSaleTargetScore":-100,"latitute":"51.372624","longitute":"-2.089253","amountDemanded":"4","pricePrefered":"16","distancePrefered":"10","energyTypePrefered":"3"},{"index":80,"seed":"LKPUOEBRKN9EOBNOEL9ROGPWNRLGKDLJCEODNPA9YYUTPLCKSGFYCBFDGGWMFADROSXPUWEIVG9MOMOWU","address":"YTRZBGDYMAYMDYKXJNBXXILYBFZRYXXEHQEWETOKNKHXJWCKCEWAVYYSVEREDUK9MCHHWYSZDIXJHFVH9","optimalPurchaseTarget":-100,"optimalPurchaseTargetScore":-100,"availablePurchaseTargetList":[],"optimalSaleTarget":-100,"optimalSaleTargetScore":-100,"latitute":"51.581164","longitute":"-0.998962","amountDemanded":"2","pricePrefered":"16","distancePrefered":"11","energyTypePrefered":"1"},{"index":81,"seed":"JJUMQDFRCQEAABWXCKQWPEG9EAXTIYMEHVAESQUCUIOFLEQONRFJRJES9NGUES9PKOHFLJQMPTOVNYNFM","address":"JYBMTPMCJLMSRHXQLYYMROYFDGRKBNSERFU9V99TSOYMXPGSGWXHFMETZIKVWXAASFOWXHAWJCAAARXNW","optimalPurchaseTarget":-100,"optimalPurchaseTargetScore":-100,"availablePurchaseTargetList":[],"optimalSaleTarget":-100,"optimalSaleTargetScore":-100,"latitute":"51.195363","longitute":"-0.525015","amountDemanded":"5","pricePrefered":"16","distancePrefered":"15","energyTypePrefered":"3"},{"index":82,"seed":"YKNKTHNOVXGOHRWICKMHJFJVPBECIKPOBJBHAJSRUXTOUGCFPQD9CJJEVLIKUFSVKPSEARREKPRFBBDWO","address":"ZUZRDSFVLXG9VAGODRTPKCZEEF9FJTRJXE9FGBO9WOKBKD9QUUDZJZTPKPDKKQKWYAQXNVRJLOXKQYXHZ","optimalPurchaseTarget":-100,"optimalPurchaseTargetScore":-100,"availablePurchaseTargetList":[],"optimalSaleTarget":-100,"optimalSaleTargetScore":-100,"latitute":"52.226563","longitute":"-0.694602","amountDemanded":"1","pricePrefered":"14","distancePrefered":"11","energyTypePrefered":"4"},{"index":83,"seed":"OHYOGVRAKSUVOSRAYYTJCYOEAES9OXHTFQAMPJCIEBMVYPGEKHYPSME99OCAPNMCJHFBODKBPTMIVMKFY","address":"DORKBOZWGVDCYOUZJJXRBUQSCONUIPIR99OHFCCJIEARYCAMEOQWRFAEYQHIYJNYCMPLWQTAJFTUKEXNX","optimalPurchaseTarget":-100,"optimalPurchaseTargetScore":-100,"availablePurchaseTargetList":[],"optimalSaleTarget":-100,"optimalSaleTargetScore":-100,"latitute":"51.596433","longitute":"-0.138709","amountDemanded":"3","pricePrefered":"15","distancePrefered":"15","energyTypePrefered":"3"},{"index":84,"seed":"HKOCOBREKVMGIAKR9QTKYHNQBQQPMOMLFYFNIMR9LSGPOBRCVMOKMAFNQGWFUVAJXNKOWTKOKBN9KDAT9","address":"FBBSTLUB9BTQEOTJSUVCCYNONEQERZJHUNGIYWVGVRRFEAW9CGEEENRVAKYYQXKRVOBKDQLGTJTWOUBWY","optimalPurchaseTarget":-100,"optimalPurchaseTargetScore":-100,"availablePurchaseTargetList":[],"optimalSaleTarget":-100,"optimalSaleTargetScore":-100,"latitute":"51.360201","longitute":"-0.793498","amountDemanded":"2","pricePrefered":"16","distancePrefered":"11","energyTypePrefered":"1"},{"index":85,"seed":"OVRIWTOYIJKO9FRFGBNNJOANAOHIEVQPLXKHVV9FEXGXPIDTCNOB9TUTWXQJTCUQCNMMMQKNP9JRNMC9D","address":"ZAPSUIMQGHJHWTRFSYSRNPOCYKIXEHRMBPYLZEX9B9TBDS9FVSVSTYHPOCDPTOVYCOAZDUUAIJPNIYOMC","optimalPurchaseTarget":-100,"optimalPurchaseTargetScore":-100,"availablePurchaseTargetList":[],"optimalSaleTarget":-100,"optimalSaleTargetScore":-100,"latitute":"52.074357","longitute":"-0.998301","amountDemanded":"1","pricePrefered":"15","distancePrefered":"12","energyTypePrefered":"1"},{"index":86,"seed":"EWKCIYCEYLWNEGUIVWVIKNILNCIK9HYQRLUKWQYOCXMUFLLANVOXRDNUFYGELE9WJOCKKXBKQEPWLGLAQ","address":"GHEOMRKERPJLGOOXMPMW9AHGUSMEAMYEKLTGCSIXKXPYYINSNPCRBZGBE9JFLJNGLXDF9ZDGUJHWVOVFW","optimalPurchaseTarget":-100,"optimalPurchaseTargetScore":-100,"availablePurchaseTargetList":[],"optimalSaleTarget":-100,"optimalSaleTargetScore":-100,"latitute":"51.868566","longitute":"-2.260111","amountDemanded":"2","pricePrefered":"14","distancePrefered":"15","energyTypePrefered":"0"},{"index":87,"seed":"AGMOGBPVOHNKERUWQCJHNWCQEJPLGJRFNEWPXJRJOLKOMBSXKNRLYIHQRQXGPQGBA9XRBBTSJQAVIEXOA","address":"LQYPBFNBZXTUS9VYVQFWVUZ9MPUXKRGYJNQCI9WMRIPGJVLALZWEAPZGOSIHBFFWXVQLOBITKF9IXLNFB","optimalPurchaseTarget":-100,"optimalPurchaseTargetScore":-100,"availablePurchaseTargetList":[],"optimalSaleTarget":-100,"optimalSaleTargetScore":-100,"latitute":"51.652778","longitute":"-2.051152","amountDemanded":"3","pricePrefered":"16","distancePrefered":"11","energyTypePrefered":"1"},{"index":88,"seed":"DJBHGCWJL9VJVNREEOKVPWIPSTHOCULDUBKOMDUPKLD9XBCODVNDGWWJVJKTKDXLVUMYKRDTXQSGBXPEM","address":"CVNMNNVMLTCDIXEHQN9NZICYBKMWXOAIJ9EFUXXRBVJXLAYCIHQYWMA9WTRIGYKXXPABAVCKSUCVHPDAD","optimalPurchaseTarget":-100,"optimalPurchaseTargetScore":-100,"availablePurchaseTargetList":[],"optimalSaleTarget":-100,"optimalSaleTargetScore":-100,"latitute":"51.395799","longitute":"-0.784897","amountDemanded":"3","pricePrefered":"15","distancePrefered":"13","energyTypePrefered":"0"},{"index":89,"seed":"LGSYHUHXLHVXSEKMLHR9GCLHAYOHGJWNRQQLVCWUTDTSHVJAUKCJAVTJFBKYSFCTXMJIMJPIMVKCMHQNR","address":"NGRXTBQXFJ9ZYQHFDFPDVLSQFEKLK9HQSLVMOELJUCWEGTCWBGWGBQESCRDLJETFTNENVTJOWBVDMDVXY","optimalPurchaseTarget":-100,"optimalPurchaseTargetScore":-100,"availablePurchaseTargetList":[],"optimalSaleTarget":-100,"optimalSaleTargetScore":-100,"latitute":"51.809100","longitute":"-0.506370","amountDemanded":"4","pricePrefered":"15","distancePrefered":"13","energyTypePrefered":"4"},{"index":90,"seed":"UQA9ERIBCWOAHECKVVNPMSCXDQTXRCFCJH9NDPMNRMGBVSBHNTHSQGSO9XISBBHTCNSGGTXUNCKUPUICE","address":"YUMBBLI9S9SNGT9MAXIYLEVATANVEWXJNOJJGYWVAPTCHQBNVYGSQUEJ9KBRCKJKRUDAOSKKURDQNJYS9","optimalPurchaseTarget":-100,"optimalPurchaseTargetScore":-100,"availablePurchaseTargetList":[],"optimalSaleTarget":-100,"optimalSaleTargetScore":-100,"latitute":"51.931997","longitute":"-0.023924","amountDemanded":"3","pricePrefered":"14","distancePrefered":"12","energyTypePrefered":"0"},{"index":91,"seed":"FGNXWQRIBFKRCOYLCKJEIPBEJIPYYSABSGYEQTGGLFVRAG9FHENRSYUBN9MRUQTNNWPLTOGADFNPEPUYY","address":"IBZMX9UQRCBMCKFGHDPJWSEJGGBTRSMQJNIKSWBVRYCYF9EEOOTDKRSUEXTWITSIOUUNL9DTZZYDZNFDC","optimalPurchaseTarget":-100,"optimalPurchaseTargetScore":-100,"availablePurchaseTargetList":[],"optimalSaleTarget":-100,"optimalSaleTargetScore":-100,"latitute":"52.085559","longitute":"-0.920662","amountDemanded":"2","pricePrefered":"14","distancePrefered":"12","energyTypePrefered":"2"},{"index":92,"seed":"SWOI9HJXMRHB9HVKLMDJSUSIIHOMDTPD9D9BRDWTYAORLXAH9HIHYFFBVHVYDKRUUCXBF9DSKHBHDHFHS","address":"GJY9IGBIABYLCIEQO9ZILXEXYSLXZVXRCVYLIDFZSFALZEGXSDHQLZBDWTJMGZEOHPEWJNHCGXA9QXQBD","optimalPurchaseTarget":-100,"optimalPurchaseTargetScore":-100,"availablePurchaseTargetList":[],"optimalSaleTarget":-100,"optimalSaleTargetScore":-100,"latitute":"51.002431","longitute":"-0.839866","amountDemanded":"4","pricePrefered":"15","distancePrefered":"11","energyTypePrefered":"1"},{"index":93,"seed":"PB9PJSKXLKXXUJEFEVWDUMMMVNTFKOB9PJXKEMVQIOKAYA9SNFSRTAKUQUUCWLGPHEFFFPRFKFPRIYJMW","address":"ECUOT9RUBGCMUDYCFVPTUCJXPMERAFCQLBYFRIMWHYTBAUWDXDDPO99YMVUBNQVPG9CKMDWTPXYUCQOUZ","optimalPurchaseTarget":-100,"optimalPurchaseTargetScore":-100,"availablePurchaseTargetList":[],"optimalSaleTarget":-100,"optimalSaleTargetScore":-100,"latitute":"51.938532","longitute":"-1.423706","amountDemanded":"5","pricePrefered":"15","distancePrefered":"13","energyTypePrefered":"3"},{"index":94,"seed":"IUNO99RSRIATWXFWFWUDSKHAMKCRSVSJBIDGPDUVXQUBTQCGFDXWCNCHTGILJCBCTWO9UINIKAQDCRQUM","address":"YFJZXLIPYYZXOUPZJDMDWUCXIVDVLBYZAPS9RLNINZFSMWKEEQIVIFGHIDTMHNYDROAASQIFMEGTAFBDX","optimalPurchaseTarget":-100,"optimalPurchaseTargetScore":-100,"availablePurchaseTargetList":[],"optimalSaleTarget":-100,"optimalSaleTargetScore":-100,"latitute":"51.825582","longitute":"-1.696859","amountDemanded":"3","pricePrefered":"16","distancePrefered":"12","energyTypePrefered":"2"},{"index":95,"seed":"NKALLVY9EAFQPISIQBCMJIHHOJHBBMGKYVOHDFKLFRMLKMTHOEHINTHKKYQNYWTPHXPGDNRFVYON9ALFN","address":"CPHKESQQBOPEWCTOZDMRBOZDA99ZHDUUOFWNRWWA9XTKNEOSBMBCTVEUIXUXOQOGEC9OPYOYVJPGUEOHY","optimalPurchaseTarget":-100,"optimalPurchaseTargetScore":-100,"availablePurchaseTargetList":[],"optimalSaleTarget":-100,"optimalSaleTargetScore":-100,"latitute":"51.304830","longitute":"-0.972183","amountDemanded":"2","pricePrefered":"15","distancePrefered":"10","energyTypePrefered":"0"},{"index":96,"seed":"MHJEGH9PHF9EVHYSKRUCUXQHKVJXMBO9LHQTM9ODBIJHQ9HKHATCY9TLHCDSAYTYYGSYQBSNMXKJBREIU","address":"HRZSAIZAFCJFDNUMPKOKKHSSCX9PD9JDO9ZSEIHGZQBUOXF9SENBEJRHMWBDMAVPFBYWLEA9LJFB9AXM9","optimalPurchaseTarget":-100,"optimalPurchaseTargetScore":-100,"availablePurchaseTargetList":[],"optimalSaleTarget":-100,"optimalSaleTargetScore":-100,"latitute":"52.206157","longitute":"-1.539052","amountDemanded":"4","pricePrefered":"15","distancePrefered":"14","energyTypePrefered":"1"},{"index":97,"seed":"LMYTE9NDAXBJBVRJHLOEWSEID9RTDVLFGUNMW9AWQBG9FMFJIFEVCUBRCTMFKDUKITLREQTJJJMOC9KGT","address":"VAGPQKFYRCYDWPXXUPFLCJARLTW9TUVPDHWBNWGSIZSLHZAL9MTIXWRGKOAUPDXDUVGTDYKQ9AODCHXUX","optimalPurchaseTarget":-100,"optimalPurchaseTargetScore":-100,"availablePurchaseTargetList":[],"optimalSaleTarget":-100,"optimalSaleTargetScore":-100,"latitute":"51.285764","longitute":"-1.519189","amountDemanded":"2","pricePrefered":"15","distancePrefered":"10","energyTypePrefered":"4"},{"index":98,"seed":"HSCWFGFLRQREOICMPBBSCYSBJJSJGFBCQINA9GPSTIKKXISDYESAQKUKMXVWNAXXMEPWPFKEMUPELBUHR","address":"ZQEXRUCITJJSASWJKBVXKKMREWEYMNZSRVNQQXRRCB9DQJKKYQFRYUBHPMBSPJRJL9WAQYU9ZNBCJOYSD","optimalPurchaseTarget":-100,"optimalPurchaseTargetScore":-100,"availablePurchaseTargetList":[],"optimalSaleTarget":-100,"optimalSaleTargetScore":-100,"latitute":"51.600816","longitute":"-0.009714","amountDemanded":"6","pricePrefered":"14","distancePrefered":"11","energyTypePrefered":"0"},{"index":99,"seed":"FHYKR9FDFIVWPIHJVISSFHPDMRJUTIJRUAG9FIAYWCIHHNBHHVQWNQSHFPNDKAIKATUSTWXCQ9NTXIUTU","address":"COFP99FSEHMKQCL9CICAGUNEYZUHIAKPBWGRCOTKKDBEJBXMIYFE9TSBILHNAFHQTEBOUVBYUDMI9JIAB","optimalPurchaseTarget":-100,"optimalPurchaseTargetScore":-100,"availablePurchaseTargetList":[],"optimalSaleTarget":-100,"optimalSaleTargetScore":-100,"latitute":"52.081873","longitute":"-0.861967","amountDemanded":"5","pricePrefered":"14","distancePrefered":"12","energyTypePrefered":"2"},{"index":100,"seed":"KQRBJOYXWLJEPBEEEBFAFVQECGEVRP9DQVLNXENQXGSLFOYFW9E9IHERKELYGLLUAUSP9JNEYKTQERC9C","address":"VCCO9TEOSOJBHRTQWIKYXGBCBAZMLMRAGQMVAVM9CZGSZWSAKBSSBMZNVYVDWUIVCYKKJVBRSCICNPLWW","optimalPurchaseTarget":-100,"optimalPurchaseTargetScore":-100,"availablePurchaseTargetList":[],"optimalSaleTarget":-100,"optimalSaleTargetScore":-100,"latitute":"52.323112","longitute":"-0.047610","amountDemanded":"2","pricePrefered":"15","distancePrefered":"10","energyTypePrefered":"0"},{"index":101,"seed":"GFXKHLPVQQPKOGVFVJYMVWRNTLPFBIUXESVFUIKCQVCDNKQJ9HJTHBBYFDVIRKVFIAMSUIQKGEKWIKPWS","address":"MJTIRZKEDTSHHKDRRWWQZPDECMRGKMMUQSRRAGTWIGEWFATJMCWPKTRBQTVFBYALBXATPLAY9MZKQIHEW","optimalPurchaseTarget":-100,"optimalPurchaseTargetScore":-100,"availablePurchaseTargetList":[],"optimalSaleTarget":-100,"optimalSaleTargetScore":-100,"latitute":"52.329293","longitute":"0.120637","amountDemanded":"5","pricePrefered":"15","distancePrefered":"14","energyTypePrefered":"1"},{"index":102,"seed":"FTEPQBPEMPYFYEUBJTEPXHDHROGGJLEY9HMFURJFCCMOKFGWXHMPCGYFNRYYWSQRJXYSMWIGHIKAPDNIR","address":"OKD9AFEPJKGHEXK9IDEBRJYNZHKBSWRURPOPXMTAJAUPTMI9HZUTR9GWOEQRBPLHKMVOHLJORTJIRSQPC","optimalPurchaseTarget":-100,"optimalPurchaseTargetScore":-100,"availablePurchaseTargetList":[],"optimalSaleTarget":-100,"optimalSaleTargetScore":-100,"latitute":"51.869388","longitute":"-0.204790","amountDemanded":"6","pricePrefered":"16","distancePrefered":"14","energyTypePrefered":"4"},{"index":103,"seed":"IFSQVBDETUQCOGENVDKTEXEIYEVYNPSVGODCDAYLNBUYLKUECVNLMBGAREWISHSVILFKTVQUCRCHGHQKC","address":"XIKEYDCLURDOBQRZSCXZHWCJVIVTLCRUWUENYMDBCQRNWBOVSICBCAVXYGTD9UVNWNTGFZGCCERUR9OUB","optimalPurchaseTarget":-100,"optimalPurchaseTargetScore":-100,"availablePurchaseTargetList":[],"optimalSaleTarget":-100,"optimalSaleTargetScore":-100,"latitute":"51.029251","longitute":"-2.121017","amountDemanded":"6","pricePrefered":"16","distancePrefered":"13","energyTypePrefered":"1"},{"index":104,"seed":"OFFBQIJYKPNOPOQNMRTSTEXAPOHMSHXVYDIPNWS9MDXXBVGBWH9OROGMYVFVFVJTJHQFEBYYPFP9OAJNU","address":"CTHMGHJWPIFRYZ9RSUL9DTZRCEBTLWBLBXBAUKGYQKNWSBMKDQMGLREE9UVIXOSBMJBIRHMSG9UGBQIWX","optimalPurchaseTarget":-100,"optimalPurchaseTargetScore":-100,"availablePurchaseTargetList":[],"optimalSaleTarget":-100,"optimalSaleTargetScore":-100,"latitute":"51.484602","longitute":"-1.577591","amountDemanded":"3","pricePrefered":"15","distancePrefered":"13","energyTypePrefered":"3"},{"index":105,"seed":"NUVTSPVKJEJWRXLMSRTSQAQOFDLILLWDYOFVEFUXDKSFQNWUVMFRXGT9QCOKQXXFLIACEVHLUJBMTL9MX","address":"OLOPCRQOMGLWJUKLYABQJ9KHSUBCEOE9NQJEAIF9TNEWINPFNYWMNHW9CIQACZPGBNLLU9VWGSCSQPJZX","optimalPurchaseTarget":-100,"optimalPurchaseTargetScore":-100,"availablePurchaseTargetList":[],"optimalSaleTarget":-100,"optimalSaleTargetScore":-100,"latitute":"51.983802","longitute":"-1.784950","amountDemanded":"6","pricePrefered":"14","distancePrefered":"11","energyTypePrefered":"3"},{"index":106,"seed":"LOSPPNNDJWIMNTFCXFBWPUIBWXJJFUNQSFPDJN9EKULWWOKYSMUAOXUFKNPWBCMVMKI9PLHS9YTDGVJOR","address":"EVXPRQTHESVRMKRFWHGLAVENRMGTNUDXXKEACBSXXLDBEXIGOFRMI9F9V9MTCWMPDWMAEXXYQF9KKAPVD","optimalPurchaseTarget":-100,"optimalPurchaseTargetScore":-100,"availablePurchaseTargetList":[],"optimalSaleTarget":-100,"optimalSaleTargetScore":-100,"latitute":"52.042477","longitute":"-1.878422","amountDemanded":"5","pricePrefered":"15","distancePrefered":"10","energyTypePrefered":"0"},{"index":107,"seed":"EPBHECTXSNXGVHRMAYXPYCMC9CYAVDYLOHXKIJVJCXMLTHCDYBWBDKBUVDV9PBJBUVFVWELNDLYIXUKRV","address":"QYWNQYTVVSMA9OHDEGMHTUKYYGZIMCROTBDCPGBNTVKIINQOHQRWKADRYKBQZJAFGWKWYXRMTQLZNJSRC","optimalPurchaseTarget":-100,"optimalPurchaseTargetScore":-100,"availablePurchaseTargetList":[],"optimalSaleTarget":-100,"optimalSaleTargetScore":-100,"latitute":"51.049612","longitute":"-0.211642","amountDemanded":"3","pricePrefered":"15","distancePrefered":"12","energyTypePrefered":"0"},{"index":108,"seed":"PXSAVVOPGOAXGMMLIKOBRIHSEMFVOLXVHIJB9YTHYJFQFT9OPMGXMNWBUWHMYYRLISMJEKCKFAJQHBBUP","address":"KYNYQVFYIIZKXICQBSZMGJEPEQOYWGYAHGMCTDNPEYHWJYRHREUORERWMQAMSHWJECOVVUHFCEMQHRMSX","optimalPurchaseTarget":-100,"optimalPurchaseTargetScore":-100,"availablePurchaseTargetList":[],"optimalSaleTarget":-100,"optimalSaleTargetScore":-100,"latitute":"51.289684","longitute":"-1.978184","amountDemanded":"1","pricePrefered":"16","distancePrefered":"10","energyTypePrefered":"0"},{"index":109,"seed":"YUTSLEUDJRSPRMFLJKPEJUEB9IFHWITT9FSLPJYD9LIJXNLCSITTDSLRCRJSUSTKWOESGXULHUCAOOKNH","address":"BLVEMEGAUUHQNHIZVMXMGYRLAWIGPZCUXPAPLNKQD9YSIDCNSPAIDYTSNGVTQ9NTOFBRDCIRLHVTSMVSA","optimalPurchaseTarget":-100,"optimalPurchaseTargetScore":-100,"availablePurchaseTargetList":[],"optimalSaleTarget":-100,"optimalSaleTargetScore":-100,"latitute":"52.198956","longitute":"-0.526817","amountDemanded":"3","pricePrefered":"14","distancePrefered":"14","energyTypePrefered":"1"},{"index":110,"seed":"LQWCMQ9HSPFQOTUSXTEO9EFQFXMAOEUAJNWMGAHQDL9INUQY9DNK9URS9AGGHRGNBBGIKXYMWLRSFBTGS","address":"MUJUCMSKFPNEICZPKLTBOJDPCGWRELU9DTQKJUKNOUYLUGCGGUPSUBMFAUOJVATHCHNTSHRLIPRMIGEFW","optimalPurchaseTarget":-100,"optimalPurchaseTargetScore":-100,"availablePurchaseTargetList":[],"optimalSaleTarget":-100,"optimalSaleTargetScore":-100,"latitute":"52.325911","longitute":"-1.077039","amountDemanded":"5","pricePrefered":"14","distancePrefered":"14","energyTypePrefered":"2"},{"index":111,"seed":"RCYIILQCSNJTBVYKMYQUMHXWPVXWG9YGVHJGIXCPCGLEFTXUF99JNWPQMYIADWMSNITBHJBVKRPMNSQJM","address":"QJPJDCBCYOFTBVAWSXOLJDLEDOJHKQMGTZPNNLZZIHQR9MBGAA9KULRGRQJUHHCXIMRS9JGMNPHPUPIGZ","optimalPurchaseTarget":-100,"optimalPurchaseTargetScore":-100,"availablePurchaseTargetList":[],"optimalSaleTarget":-100,"optimalSaleTargetScore":-100,"latitute":"51.131163","longitute":"-2.343578","amountDemanded":"4","pricePrefered":"15","distancePrefered":"12","energyTypePrefered":"4"},{"index":112,"seed":"KSVJYVXNEOGKWEXBHSIGHLXIBEDTWEAVHLQJMPLBLLYESMLMIALVHHGPXBCLNTQR9YJHLEAMOXWJCXQUF","address":"VZMRYMPZVNT9LUAVATGTMWRN99IQAIMDKSNI9SLVJYQPKLUVLNMKTNFEJQWZCAYNWSPUWWYAXUKAIEYNA","optimalPurchaseTarget":-100,"optimalPurchaseTargetScore":-100,"availablePurchaseTargetList":[],"optimalSaleTarget":-100,"optimalSaleTargetScore":-100,"latitute":"52.266190","longitute":"-0.129134","amountDemanded":"3","pricePrefered":"15","distancePrefered":"14","energyTypePrefered":"2"},{"index":113,"seed":"SGL99IQNEORQFUDGMOJLXIDTSNMYLCWVRURGLSULSBGLTANDBXXWWAUXNKYOFAVO9LFBFPSRYFQNXGEWQ","address":"XHUVBWTOZGBHEQTUYPQ9ZJBCKPIYOPDYII9RCSFQMWEFFPJXHIUTCEYAAHFCODBCLPMCKWICICCTYRLZC","optimalPurchaseTarget":-100,"optimalPurchaseTargetScore":-100,"availablePurchaseTargetList":[],"optimalSaleTarget":-100,"optimalSaleTargetScore":-100,"latitute":"52.124404","longitute":"-0.320013","amountDemanded":"4","pricePrefered":"16","distancePrefered":"11","energyTypePrefered":"1"},{"index":114,"seed":"WGUGMCIFBEHU99PBMIIRUFPQOXYOYTWL9VRRRPJGFBOGYOSPSXUQSBOWMIFK9MFEDSPGUCGBLVAPKBOYM","address":"EGFTNIOTHHXIUUWDJEWQZZ9JKOFKOXJUXICHBSFDJP9MKOUFZDNQXBEGK9YCYLPTZQIXMZTOJA9NUKIAW","optimalPurchaseTarget":-100,"optimalPurchaseTargetScore":-100,"availablePurchaseTargetList":[],"optimalSaleTarget":-100,"optimalSaleTargetScore":-100,"latitute":"51.182977","longitute":"-2.371919","amountDemanded":"6","pricePrefered":"15","distancePrefered":"14","energyTypePrefered":"2"},{"index":115,"seed":"YEDBJWYQENLWVVLYRLXKFJUCOBBLUTSPHTNMUSNGUVQMOUWDIYLFULYPXFNRLRDYWXPLVILOIIMCFAEDW","address":"WTRMPCOLNQBR9DTOIQBCSOCDENDAPRUQSHPOZSRBGCEHVLOVQXPSZBLO9PHOH9TDLMSUISSTDYIUWNWW9","optimalPurchaseTarget":-100,"optimalPurchaseTargetScore":-100,"availablePurchaseTargetList":[],"optimalSaleTarget":-100,"optimalSaleTargetScore":-100,"latitute":"50.983235","longitute":"0.040146","amountDemanded":"4","pricePrefered":"15","distancePrefered":"12","energyTypePrefered":"2"},{"index":116,"seed":"IRJUCYEKIVXOHTD9IOGEOXPVYQJBXYDBVIC9DRBJBTBWYAWOYUWCJUHGSQVUDOHCTMNRYHRJTDAGVQVQD","address":"BFFHUHHFDZAAZXPL9YFOURORLJSM9WATOPOEUPNMKKDVMAEKLBWMKUTZK9EFBTFERO9RLCENWGSRHQHAW","optimalPurchaseTarget":-100,"optimalPurchaseTargetScore":-100,"availablePurchaseTargetList":[],"optimalSaleTarget":-100,"optimalSaleTargetScore":-100,"latitute":"51.147940","longitute":"-1.936742","amountDemanded":"4","pricePrefered":"15","distancePrefered":"14","energyTypePrefered":"2"},{"index":117,"seed":"NNUFWCXNMLCCCPWMHRBVILWTUUXWQNSWNMTDBTWGVGNKRKOARMXCFFQILOYJKEWWDVUBADNVUNVTKENRC","address":"ZKYIGNWFKVOXX9VQFBUPVKLKFDBRLVCEOWYUL9TVDTWXWFPCPJJEPPGLSWXLUXZPSZKGQW9SCJGXONVNB","optimalPurchaseTarget":-100,"optimalPurchaseTargetScore":-100,"availablePurchaseTargetList":[],"optimalSaleTarget":-100,"optimalSaleTargetScore":-100,"latitute":"51.669292","longitute":"-1.902089","amountDemanded":"2","pricePrefered":"15","distancePrefered":"12","energyTypePrefered":"0"},{"index":118,"seed":"YREYIYQBGJFH9LKGWKHXIKVOGJMTQQPYYNMPAGIIMDEGSULIRPLHMQXDPYY9QTTCBKSTEORNVFNQAGEFB","address":"DG9RFZYCIBNQCBPKFILTHZHPRAPPOADO9UKYSMPRPZGBJV9PFOY9SOGWSTISOYVNVJURW9PLTGUUTUMCW","optimalPurchaseTarget":-100,"optimalPurchaseTargetScore":-100,"availablePurchaseTargetList":[],"optimalSaleTarget":-100,"optimalSaleTargetScore":-100,"latitute":"52.235697","longitute":"-1.292821","amountDemanded":"5","pricePrefered":"14","distancePrefered":"14","energyTypePrefered":"4"},{"index":119,"seed":"D9JDF9WICFVNVIARWSLCG9XNIAHMHAL9UKOYLWCFKKPOBKXUJSRNGOLKTRVUUIKAK9NGKDFIRFBUAAFOO","address":"JRPXLHBXSWZACGTIIHALHUPCXCAIOXPJRRBOGUZ9DQQFQAPSWCRQQZFZXEXVLFWIYUXLHYQRUXSZV9FNW","optimalPurchaseTarget":-100,"optimalPurchaseTargetScore":-100,"availablePurchaseTargetList":[],"optimalSaleTarget":-100,"optimalSaleTargetScore":-100,"latitute":"52.105037","longitute":"-0.736037","amountDemanded":"2","pricePrefered":"16","distancePrefered":"12","energyTypePrefered":"2"},{"index":120,"seed":"XQDWOEEYSJLFCOCOYHMMJH9YINNHISYLAKHREMADV9JSVEQAVKHEIKTRGOVRQFSFEJOBSKWYDODSBAYPI","address":"9GBCYYLMXZHLE9ULWXLUAOSWKYDBKSGDSESXORIRY9FU9Y9TMHMFHFOUXSBUKVKSOANIRMJALTO9NVJYA","optimalPurchaseTarget":-100,"optimalPurchaseTargetScore":-100,"availablePurchaseTargetList":[],"optimalSaleTarget":-100,"optimalSaleTargetScore":-100,"latitute":"51.265048","longitute":"-2.073204","amountDemanded":"4","pricePrefered":"16","distancePrefered":"13","energyTypePrefered":"2"},{"index":121,"seed":"YHOWEVODYSBU9UNGFWWGIM9WDQRJXUAEGYCFOQIOQEWRFJOXX9IJHAHWPJDULIX9ONMT9XICOBFRXDKNP","address":"W9JIITEYMWRHKOIYTADKKISTXWHNTVBUDGZNSFOEXXY9HRYRBQECGVWFCWMSAMBILTK9JZNGJC9JYCFIY","optimalPurchaseTarget":-100,"optimalPurchaseTargetScore":-100,"availablePurchaseTargetList":[],"optimalSaleTarget":-100,"optimalSaleTargetScore":-100,"latitute":"52.016959","longitute":"-2.046110","amountDemanded":"4","pricePrefered":"16","distancePrefered":"10","energyTypePrefered":"4"},{"index":122,"seed":"WN9NTHIKDNCKLQQFJMXJQMAQDBXLIXRRDLKNYNOFVOBCMBOSQBJETGNB9NGAHLNPVONP9DY9MBMVVSCGV","address":"SAKDKWLN9ZQOEXKTTYZKCUGTSDIKRXQ9KQOLHLS9DIEXQVOBI9DKT9EMBXWNMARMECYHQSFGXTYUOKCQC","optimalPurchaseTarget":-100,"optimalPurchaseTargetScore":-100,"availablePurchaseTargetList":[],"optimalSaleTarget":-100,"optimalSaleTargetScore":-100,"latitute":"51.420451","longitute":"-1.087602","amountDemanded":"2","pricePrefered":"15","distancePrefered":"15","energyTypePrefered":"3"},{"index":123,"seed":"UFHCCBFUXJXDIARG9IWIKUBPWYMKMLEHHH9VJLHLMNSHMLPCOTKNQVRBME9FSMUCUUDSNKMISBADGUXIY","address":"INTN9RT9BYBDUEFMQ9CSDMLFONXFIZKHOOKSYNPZWQ9FLOVUEIZVGHQWXYLBEBYKNEEW9XMXCSPUFKYA9","optimalPurchaseTarget":-100,"optimalPurchaseTargetScore":-100,"availablePurchaseTargetList":[],"optimalSaleTarget":-100,"optimalSaleTargetScore":-100,"latitute":"51.086023","longitute":"-0.820665","amountDemanded":"4","pricePrefered":"14","distancePrefered":"14","energyTypePrefered":"1"},{"index":124,"seed":"DXSLAQWHIIN9CYUH9CKDXYOSBNDQTRXNHOKUAVFUHH9MGBF9GWLCVJI9UKGBGOKX9WBUMSFKHKGKSPIES","address":"EAIHTMOWRIAWTHA9A9MUREAQRIIZCDGKUOZRTFYQ9KKEJBQEBJYVCJIXQFIBIFJYMHB9MIBWKJHXNRYLC","optimalPurchaseTarget":-100,"optimalPurchaseTargetScore":-100,"availablePurchaseTargetList":[],"optimalSaleTarget":-100,"optimalSaleTargetScore":-100,"latitute":"51.978369","longitute":"-0.708087","amountDemanded":"2","pricePrefered":"15","distancePrefered":"12","energyTypePrefered":"0"},{"index":125,"seed":"9YTY9NLWWAPJNGAQVEGPWE9HQEEILUTSXWXWPRJDIVMJSVCAGYSXCVVNXDCSBFCCKHHBXWAP9UACKILTI","address":"9RYXAFLUEVBQRKFPU9BYKVLZISQMIZ9GHMEUNEUBUJIYLVUUTDBXSJJPQCVXOQQBZKTKVFHLYDOXTQHTC","optimalPurchaseTarget":-100,"optimalPurchaseTargetScore":-100,"availablePurchaseTargetList":[],"optimalSaleTarget":-100,"optimalSaleTargetScore":-100,"latitute":"51.918836","longitute":"-1.162412","amountDemanded":"4","pricePrefered":"16","distancePrefered":"12","energyTypePrefered":"4"},{"index":126,"seed":"OUEPLBXMAPONHSQVSTKNUAYGHE9ICQMGIFBLYSWQJEULDDTABLEBVAIWJQONFLPUXREIOWKOOPYTUDCOM","address":"GUWIOJLGAZFJTNHNV9TKCGMQPUGYIXEVRIJIURDWOZJVZUPPQBQIAUZMXFNK9U9WGYVNGARXXOQYRCCTD","optimalPurchaseTarget":-100,"optimalPurchaseTargetScore":-100,"availablePurchaseTargetList":[],"optimalSaleTarget":-100,"optimalSaleTargetScore":-100,"latitute":"52.186449","longitute":"-0.460875","amountDemanded":"3","pricePrefered":"15","distancePrefered":"11","energyTypePrefered":"1"},{"index":127,"seed":"RNXFEYNBHXRNTJAIVAXLD9IDIMFBVHVHBOXE9PHHFCIYLREYLCTDUX9EPYQMHIABDQFK9VTGNUMPXAGCS","address":"TKFSXPKQOTXLMDEBNHCRLFQVEUGICYCVELDIZIZHLMM9ZERUOYQUUQAFBYYNSIMIMMTILHVVCNQGZFXSD","optimalPurchaseTarget":-100,"optimalPurchaseTargetScore":-100,"availablePurchaseTargetList":[],"optimalSaleTarget":-100,"optimalSaleTargetScore":-100,"latitute":"51.261795","longitute":"-2.106668","amountDemanded":"3","pricePrefered":"15","distancePrefered":"13","energyTypePrefered":"1"},{"index":128,"seed":"XFIGUVKANCDWIJDI9JYXOLSKPUW9ETMAQMTQNVPUT9HAPTW9L9LHANYL9EYOLJBJIOOL9USLVNHGAXGCN","address":"YVNGNQBGJBPIFBH9TUJGJGGZVZSR9RQETTBQJZLUIXTKAAJKDYMAFYLVVOHQKFTAWOXIKIVGXIGLNSUXD","optimalPurchaseTarget":-100,"optimalPurchaseTargetScore":-100,"availablePurchaseTargetList":[],"optimalSaleTarget":-100,"optimalSaleTargetScore":-100,"latitute":"51.334183","longitute":"-1.956668","amountDemanded":"3","pricePrefered":"16","distancePrefered":"14","energyTypePrefered":"1"},{"index":129,"seed":"OFXOOCOETN9YYJEJFBXIVOKDOV9PHIMLTHBBF99WWKCARPFIKIPTBKDEJ9JKWEYDTCEVWLCXJDGMBQW9T","address":"QGSNV9DMKAVG9VVNLTPSCKNPTXDIGDQEMJAYELDEBYPQBNZYDAUBYTKXUGHACPCQBTGSV9TAWKAPXALKX","optimalPurchaseTarget":-100,"optimalPurchaseTargetScore":-100,"availablePurchaseTargetList":[],"optimalSaleTarget":-100,"optimalSaleTargetScore":-100,"latitute":"52.187074","longitute":"-0.178130","amountDemanded":"6","pricePrefered":"15","distancePrefered":"14","energyTypePrefered":"4"},{"index":130,"seed":"DRUYO9KASEDLEUTPWOWBAWMAQXLQEJJGI9NTS9FRLMHGS9YSAS9NDSLLABAM9YGUVB9LKBORBRLYJVUSS","address":"HSJMHDPHCGFDAOKJSNMYFTAMWSYUCSHMHZ9GOHZLFAZEVWHKSTAWMGSQQI9VBOCESPCGXJH9TGLJKIUJB","optimalPurchaseTarget":-100,"optimalPurchaseTargetScore":-100,"availablePurchaseTargetList":[],"optimalSaleTarget":-100,"optimalSaleTargetScore":-100,"latitute":"51.839029","longitute":"-0.802049","amountDemanded":"4","pricePrefered":"16","distancePrefered":"14","energyTypePrefered":"3"},{"index":131,"seed":"EBUXRXOLAUGMYXWXHJLELIBINJOTKVJYBNQYOI9ISIFKLPDETWCY9BHAKATMKUQDVVWOR9GDMBVQESWGV","address":"JFFMQLKFQBQETSLYRAJJFNFXQMNVLEOHWLXMEYCQTUNVMWHNEEHDMTJYSZIBULXUZNKYX9QEQNOZOMXSC","optimalPurchaseTarget":-100,"optimalPurchaseTargetScore":-100,"availablePurchaseTargetList":[],"optimalSaleTarget":-100,"optimalSaleTargetScore":-100,"latitute":"51.735751","longitute":"-0.098752","amountDemanded":"5","pricePrefered":"16","distancePrefered":"12","energyTypePrefered":"3"},{"index":132,"seed":"AGGNYIDTHUXQAEVABYSPOBIVDCCPIXBOUTXVBRPQPEGNGFKS9WO9GRA9JAGKDVYPVWJMSEJATA9FSVVYB","address":"QOEGLHYVOWJBKBKHMP9ZDNEWDPGGLQYLOTHSWXKNVIMNN9GDWLHVIBUQVWZBZVTIDCHBFWIUB9ORGAE9D","optimalPurchaseTarget":-100,"optimalPurchaseTargetScore":-100,"availablePurchaseTargetList":[],"optimalSaleTarget":-100,"optimalSaleTargetScore":-100,"latitute":"51.545796","longitute":"-0.114425","amountDemanded":"1","pricePrefered":"16","distancePrefered":"12","energyTypePrefered":"1"},{"index":133,"seed":"YKIFNYTIJPGMISEMPWQWAUUQRXUKCPIHBYCLIRTIXVXMRVVCOCHLP9EU9SHROWRYG9DYBYXYPJVRH9CSM","address":"EGAVAICTCSRBJXUCZDVKHYCUGIPPQGLYRYVTWIXNFQLREUZKVYZOZRTQDQXKVKYRGEFFSMXTTOOGIYRKW","optimalPurchaseTarget":-100,"optimalPurchaseTargetScore":-100,"availablePurchaseTargetList":[],"optimalSaleTarget":-100,"optimalSaleTargetScore":-100,"latitute":"52.235200","longitute":"-0.967240","amountDemanded":"5","pricePrefered":"14","distancePrefered":"12","energyTypePrefered":"4"},{"index":134,"seed":"PHAJGLF9UODWE9YKFDP9AMDMRFUT9RTRTSQTICGCAQDSP9KIFESTNAJKGANQUGFNFODMIGDTXQBHTCWIM","address":"BYUFZEL9ILH9LXSXHHIFEIUVVXHIYHEAQJBUKXICDVWFFZPGRCZPHDMLRTKYEFLIVAEXKJYMQLJJBVCL9","optimalPurchaseTarget":-100,"optimalPurchaseTargetScore":-100,"availablePurchaseTargetList":[],"optimalSaleTarget":-100,"optimalSaleTargetScore":-100,"latitute":"51.153568","longitute":"-1.161517","amountDemanded":"5","pricePrefered":"14","distancePrefered":"14","energyTypePrefered":"3"},{"index":135,"seed":"BHXSSXVCLTGTXK9LAQRETTYQRVRTAKPLEFSGCQHCIC9Y9WMAJRHKNYTSVSUHSVCPLQQIXUWLL9HNGOFTM","address":"JWIQQJSURI9RISGZYIMVJKQDUJKMXPMQIVYWZBB9BCKYOZNE9PLHDZEJSMDMSZLNMRHUFF9LHIZTHGDMC","optimalPurchaseTarget":-100,"optimalPurchaseTargetScore":-100,"availablePurchaseTargetList":[],"optimalSaleTarget":-100,"optimalSaleTargetScore":-100,"latitute":"52.352743","longitute":"-1.777036","amountDemanded":"4","pricePrefered":"14","distancePrefered":"14","energyTypePrefered":"3"},{"index":136,"seed":"OAJAMJCJWMLQWBYBHVFCRYNEXFJFMIERAUWJWQIEBKJ9THL9MEEKBBAXYBUHGLAIAXAN9PL9P9IFTMJRO","address":"JDPPZIEBJSPOPUNINABYGTOLNZ9NOJKJLYEZLJLTRNFOMCLLJ9IXCUSN9NMXNQYGCWPAWYZHSKJPTYFZB","optimalPurchaseTarget":-100,"optimalPurchaseTargetScore":-100,"availablePurchaseTargetList":[],"optimalSaleTarget":-100,"optimalSaleTargetScore":-100,"latitute":"51.837640","longitute":"-0.219503","amountDemanded":"4","pricePrefered":"15","distancePrefered":"13","energyTypePrefered":"1"},{"index":137,"seed":"SRENWSTCEYDAKCKREAPNGNGXJTLXLBVAKMSEMRSSAPLMYHWTNRPYDGLHDUCMENMEGGGGPTRWVRXUBWXTG","address":"YNA9DBQIPMFUFWXUEKJLPVYURFHT9H9IGGA9CTWNXIDENNXD9PBVFBKFWWVUQXBVCGBCURIOZXWDCHRIB","optimalPurchaseTarget":-100,"optimalPurchaseTargetScore":-100,"availablePurchaseTargetList":[],"optimalSaleTarget":-100,"optimalSaleTargetScore":-100,"latitute":"52.058629","longitute":"-1.043496","amountDemanded":"4","pricePrefered":"15","distancePrefered":"15","energyTypePrefered":"1"},{"index":138,"seed":"CJMGCATAHKX9QFNNFUQLB9GBIBMERCA9MLKWWLB9RAYXPXFRXVNIHMBXFCWWOXYYXDJPNEAGNYBQY9ITV","address":"RTPUMYJZM9YKCFTAKECFMKNGRYVUHBSBXGOLTHZXQKJXOBQEYRVMWLGYTAC9OIDUYW9FPDUJCZDPVQFV9","optimalPurchaseTarget":-100,"optimalPurchaseTargetScore":-100,"availablePurchaseTargetList":[],"optimalSaleTarget":-100,"optimalSaleTargetScore":-100,"latitute":"51.194856","longitute":"-0.592042","amountDemanded":"4","pricePrefered":"14","distancePrefered":"11","energyTypePrefered":"3"},{"index":139,"seed":"ITKVJOYPNKXCHDREYSOUTVTQOWDFDX9OMDNYFOSXSXKGJAMLBAW9PPGWPWDQ9IIDMSJUTOBLUEIMYLOB9","address":"YS9KMMSVVWYKAZTCDPYJGNJKUTROCOIVRNLFMDNUQWH9NSLGUDN9MS9HFLDQMVPYPJGMLYSBNXYPMHJBY","optimalPurchaseTarget":-100,"optimalPurchaseTargetScore":-100,"availablePurchaseTargetList":[],"optimalSaleTarget":-100,"optimalSaleTargetScore":-100,"latitute":"52.020445","longitute":"-0.721904","amountDemanded":"4","pricePrefered":"15","distancePrefered":"12","energyTypePrefered":"1"},{"index":140,"seed":"QIBIFICJQAYYEIRFNOQAHLH9O9VVIJHVVOPJRABKNGMUWEUFTPCDBLCMGSDE9BKWUQEYTTE9IO9TKEYKB","address":"EZTBRFQGSAKCZGJCJX9GTZDIZTXUDOPNXEBXSHWTTQOY9N99YFTLSTNKBYIKGTYYZZMJGQBTFUDHHKXMZ","optimalPurchaseTarget":-100,"optimalPurchaseTargetScore":-100,"availablePurchaseTargetList":[],"optimalSaleTarget":-100,"optimalSaleTargetScore":-100,"latitute":"51.967094","longitute":"0.020579","amountDemanded":"1","pricePrefered":"15","distancePrefered":"14","energyTypePrefered":"3"},{"index":141,"seed":"LMXCJXCAYKWTCEJJTQVWJGUCUBAHLHRPLJNEDJAECKLFXNDXHJBS9NYFUYLHSRMQUQ9SXQTBUVJHBCYPR","address":"PVJXSHPIUUDOKNMPOXKUEWALRNRMOPR9N9DZXKIQYAPZWELVJYEQPZOQPHKSHUKQKIDE9JWNT9UG9OSDC","optimalPurchaseTarget":-100,"optimalPurchaseTargetScore":-100,"availablePurchaseTargetList":[],"optimalSaleTarget":-100,"optimalSaleTargetScore":-100,"latitute":"52.029147","longitute":"0.284326","amountDemanded":"2","pricePrefered":"14","distancePrefered":"14","energyTypePrefered":"3"},{"index":142,"seed":"JUQBXYXEEQCE9SERYXJMEKMPAIAQXGYBCKCMGCBUVWQKTSUSCRCTUYNTYSXMQHUWCTWCUVKJFHHAMOECB","address":"YBHSWJSOBLBPMIROPWKYXGKLM9SXA99LEGLUCIIHPHAIYARQYXMSSNMHRYPIPGUSWHNBBLAMFEMDIMNSY","optimalPurchaseTarget":-100,"optimalPurchaseTargetScore":-100,"availablePurchaseTargetList":[],"optimalSaleTarget":-100,"optimalSaleTargetScore":-100,"latitute":"51.186872","longitute":"-2.047493","amountDemanded":"4","pricePrefered":"16","distancePrefered":"12","energyTypePrefered":"1"},{"index":143,"seed":"BTA9YMQBLAUROSSEQKUAUFFMNEONCJDDGRBYA9LKPCVT9YWATGYGXYNOCKTBANEUITGGVFKAOBTYSGNNC","address":"KJBWZND9HOPZERUAOVLHDVZIYUQJ9AWBSMKQYSTVSDQGXXKDQZIBHHTIRSFGOHMLMJRXF9JOMSPCILS9C","optimalPurchaseTarget":-100,"optimalPurchaseTargetScore":-100,"availablePurchaseTargetList":[],"optimalSaleTarget":-100,"optimalSaleTargetScore":-100,"latitute":"51.288918","longitute":"-1.118962","amountDemanded":"5","pricePrefered":"15","distancePrefered":"14","energyTypePrefered":"4"},{"index":144,"seed":"M9VMMMCCPKHYJYPRQQDCJTKNQRHRU9EM9KMSU9QCGXAB9HUSJ9CKXASLQFTTIFA99S9G9YGMRNCGSKRPO","address":"WBBLVIUHEXQ9FXRRYLGDJBLTWEXBBEUBNYOUNIZRKVRGTGAEBLTMHAUXNPKMQBSKYMVRMCQLTPEZUNXGZ","optimalPurchaseTarget":-100,"optimalPurchaseTargetScore":-100,"availablePurchaseTargetList":[],"optimalSaleTarget":-100,"optimalSaleTargetScore":-100,"latitute":"51.537609","longitute":"-0.752385","amountDemanded":"5","pricePrefered":"14","distancePrefered":"13","energyTypePrefered":"2"},{"index":145,"seed":"LJFSVXLPJQOVCYPKTHXCTYRMLLNQWWDMEENILVYSESVEE9ULSIGHI9AFSWXWJ9WFYOMAVKTNCYTLDUCYY","address":"XTGJSIZQIKGIPF9YTCOBNSAQSGHSWFGIXNXCTFAPY9B9ZJGEIWHSRKSYPVEUVW9AFACSDHNSNNGNQTDWD","optimalPurchaseTarget":-100,"optimalPurchaseTargetScore":-100,"availablePurchaseTargetList":[],"optimalSaleTarget":-100,"optimalSaleTargetScore":-100,"latitute":"51.932931","longitute":"-1.152632","amountDemanded":"4","pricePrefered":"14","distancePrefered":"13","energyTypePrefered":"3"},{"index":146,"seed":"SIPGAEAHAE9KCFWDKCP9RLBRMK9JOUBF9BBFSNUHSAWMEDCHAJOPHSFAFMNTVYTCSPWLWGJLILSIRYREA","address":"UFLX9KZBGAVOFKJJNBBYSFCCGJPJ9WFFWQLMABEHNOJYAGITHIMCPDTNLNZYTEEDQJHDXBRHNDIRMZMPD","optimalPurchaseTarget":-100,"optimalPurchaseTargetScore":-100,"availablePurchaseTargetList":[],"optimalSaleTarget":-100,"optimalSaleTargetScore":-100,"latitute":"52.103898","longitute":"-1.523279","amountDemanded":"2","pricePrefered":"15","distancePrefered":"14","energyTypePrefered":"2"},{"index":147,"seed":"UVQOPHADGKTYD9YJLCCBDCUOFBWQTCSMNHUQJMPPRGGXTRREKBPCDPFUJN9FLMDJXNPICHLSMVGX9EVNM","address":"BJBUERHQBOMDTFACPYDYNRWCSLBOCVFELDFBUUQGLO9BSLDAPAO9RQMJRMDYARKDFIMZKLMKGHIKGQUWX","optimalPurchaseTarget":-100,"optimalPurchaseTargetScore":-100,"availablePurchaseTargetList":[],"optimalSaleTarget":-100,"optimalSaleTargetScore":-100,"latitute":"51.993258","longitute":"-1.008230","amountDemanded":"2","pricePrefered":"15","distancePrefered":"14","energyTypePrefered":"0"},{"index":148,"seed":"RRDJXAWINGTFGUJEUAHPKKEUPYUOLPMNXCXISBTUOCXRFVWXEFQQEARKQASLQWWSUFINDTC9RGSSFYUVQ","address":"NIKDABECEARPOKOPXBGKNMCJELNBYLWEDHKITBBQPOQSMYXHFJUHHMNKECERKTUBOWBVIYXFGBNPWXUG9","optimalPurchaseTarget":-100,"optimalPurchaseTargetScore":-100,"availablePurchaseTargetList":[],"optimalSaleTarget":-100,"optimalSaleTargetScore":-100,"latitute":"51.027372","longitute":"-1.279272","amountDemanded":"5","pricePrefered":"15","distancePrefered":"13","energyTypePrefered":"2"},{"index":149,"seed":"DDIHDBFIMFTBGB9PDJBMUQGDBFJMPVTHBWELMEHIJWEJDFQECABDV9HYLLVR9RNJHDUVHMBY9BVDIYKHW","address":"NAIKP9VNMVNWMOWJVNOCBIGBOFTVNSAHMBUUZCRD9PPHCHUGLVUYKLALJBUBJMMXAOGBMDRCGOFINLETX","optimalPurchaseTarget":-100,"optimalPurchaseTargetScore":-100,"availablePurchaseTargetList":[],"optimalSaleTarget":-100,"optimalSaleTargetScore":-100,"latitute":"51.533447","longitute":"-0.721846","amountDemanded":"6","pricePrefered":"15","distancePrefered":"15","energyTypePrefered":"1"},{"index":150,"seed":"ILPPGBBQ9CRVBQDD9UTHHLMMRXOXBLBPFULOQYWQKBDXGMQMKICVBNXDHHP9XNMXVLSOFIKWTKRKDVNHO","address":"ZOCDLBUJRBSGTSFHOQHTLEQ9KILSAJYXPUCRJXJVMXL9L9CTELLRPD99IVTUAHZ9NLCPHGORWSTCXFYLW","optimalPurchaseTarget":-100,"optimalPurchaseTargetScore":-100,"availablePurchaseTargetList":[],"optimalSaleTarget":-100,"optimalSaleTargetScore":-100,"latitute":"51.747604","longitute":"0.240214","amountDemanded":"2","pricePrefered":"15","distancePrefered":"15","energyTypePrefered":"2"},{"index":151,"seed":"DWOMCQMXKRGSJRXEPSTNYGTMVNEEECSNUGYJDJNEUSMCK9SXNVBKNBLUQCUCPO9PEYYLWJQYTIXBSWXIV","address":"9HMNQDIF9HZYSLQMLCHUHSYOPOJDXTVGLHUASPGONXEWHFIKOKVUGSKKQKYFIXK9KXVFGMTZTIPCXEOYD","optimalPurchaseTarget":-100,"optimalPurchaseTargetScore":-100,"availablePurchaseTargetList":[],"optimalSaleTarget":-100,"optimalSaleTargetScore":-100,"latitute":"51.576384","longitute":"0.247403","amountDemanded":"3","pricePrefered":"15","distancePrefered":"12","energyTypePrefered":"1"},{"index":152,"seed":"VY9JKVLTCOKGJ9SUSWVHLTQUDLKOM99OVEJXPCTFPRGOVVVYPTACRPGTXBUNYBPMDQRTIFIQSD9MCKLVA","address":"SVGEHRNTTEFBKR9UVSAZQGXAMGVHQAXNKCYKMHQKBEOMONNMCVIFHVLHANRHTYF9OJP9IURUTMEYDUGBA","optimalPurchaseTarget":-100,"optimalPurchaseTargetScore":-100,"availablePurchaseTargetList":[],"optimalSaleTarget":-100,"optimalSaleTargetScore":-100,"latitute":"52.326650","longitute":"-1.245382","amountDemanded":"6","pricePrefered":"14","distancePrefered":"15","energyTypePrefered":"1"},{"index":153,"seed":"NPSTTASUGVKBFI9NMUFTKWJWUOLREGAVLGRKSOIHFVKQPHVHQGFAQNWHPVEVIQWDNGFVNFQYCVYQYJNLL","address":"QD9VGQNDMMYQPEDRHDTUJHDFFYMUCNDVAV9KFDKJUAWWQZP9MUAXOKLBN9URQLYZWIOLPTJGMECUDUVEX","optimalPurchaseTarget":-100,"optimalPurchaseTargetScore":-100,"availablePurchaseTargetList":[],"optimalSaleTarget":-100,"optimalSaleTargetScore":-100,"latitute":"52.016227","longitute":"-2.050236","amountDemanded":"3","pricePrefered":"15","distancePrefered":"12","energyTypePrefered":"3"},{"index":154,"seed":"NGDSXY9ADRQVVGKBOSOEYTT9QVPMBYCILFNNKSWEOCEPBJGSY9CRHLNV9FIBXIAHSO9ICCEYMSTSNRPFV","address":"IYLBEBWNPQNZGMMLOTQGXGRZTCDNXCPGSYJTYHDRNZANOBCOHWN9OXJNJFRD9YVUTVFHJXUZAWOLDXTMX","optimalPurchaseTarget":-100,"optimalPurchaseTargetScore":-100,"availablePurchaseTargetList":[],"optimalSaleTarget":-100,"optimalSaleTargetScore":-100,"latitute":"51.682289","longitute":"-1.565500","amountDemanded":"5","pricePrefered":"15","distancePrefered":"14","energyTypePrefered":"2"},{"index":155,"seed":"FLCRYPICUBMPDWSOSTPXMBMAGCMKSCVKATLWEYCQGBEKGXTPLERVMHOOGESQPIR9CQNTEEDJOEQNSU9SG","address":"XNURZIIXOIGMDFLQZLRHLNTRKFXVOIIEPFTMEIAPUWVISWFIKDCDWS9OXJARWRPOHRYIOBDIRJIWZGEQD","optimalPurchaseTarget":-100,"optimalPurchaseTargetScore":-100,"availablePurchaseTargetList":[],"optimalSaleTarget":-100,"optimalSaleTargetScore":-100,"latitute":"52.214793","longitute":"-1.032098","amountDemanded":"4","pricePrefered":"15","distancePrefered":"15","energyTypePrefered":"2"},{"index":156,"seed":"DAVXGBRDLAUGRAGJ9HGKTJNVSFMYKFKOBRWQXARDELYFLHGHARTTCLGRGFWKMTDE9DQSCLUYFODJCBGJJ","address":"TJOJWQOFZVKKEWVQGWIKGZHOXVPZGFZXIAFFZYCTAIROPG9BWRPIOZPLA9XVBWCHVXLWSPGJSYBUJNBZW","optimalPurchaseTarget":-100,"optimalPurchaseTargetScore":-100,"availablePurchaseTargetList":[],"optimalSaleTarget":-100,"optimalSaleTargetScore":-100,"latitute":"51.080398","longitute":"0.093627","amountDemanded":"5","pricePrefered":"14","distancePrefered":"13","energyTypePrefered":"3"},{"index":157,"seed":"NEBUJHKLIJSONMXLBIKLVSLOIKWTEBRBBXVOKEYGFWKQMWSS9XJHYB9SLUWJHGMIBOLKJAYNQEERIEP9O","address":"LHNUNYWUZFJAYLWNNQNQM9REXJAVATJUPJWNMJIC9AUIOZQUP9CKHP9EBF9DGMUYEUQGERF9MRPQZCMKZ","optimalPurchaseTarget":-100,"optimalPurchaseTargetScore":-100,"availablePurchaseTargetList":[],"optimalSaleTarget":-100,"optimalSaleTargetScore":-100,"latitute":"51.630870","longitute":"-2.068092","amountDemanded":"2","pricePrefered":"16","distancePrefered":"12","energyTypePrefered":"2"},{"index":158,"seed":"NDYIIHBXJCGUGQPUBWTUXOFMWXASPVIUXFDGULXCAUG9WEIWUMBMHH9TVEISNKXETNKWQFMVCRRWRHJSK","address":"Z9APOMUMFBXB9BFZWKGVLWHI9LVAUFVYGSBCXICWYYH9WFOYHLAQWAESYYEBAHB9SYQOUNKKVVFQKHAHC","optimalPurchaseTarget":-100,"optimalPurchaseTargetScore":-100,"availablePurchaseTargetList":[],"optimalSaleTarget":-100,"optimalSaleTargetScore":-100,"latitute":"51.739587","longitute":"-0.452212","amountDemanded":"3","pricePrefered":"15","distancePrefered":"11","energyTypePrefered":"1"},{"index":159,"seed":"BQGLGQRCNEISCJLXBPLISDSIBDKQRIQOWCWUICIKHAGVYCIGVWWHJPMDEJUAOONLNCUKRBGYYING9BIVH","address":"TIRQYEKADWAFI9JVJVVLOJMPAOAUSBUL9GDGDBLBBNKVVYVN9BXJHJDLG9ITHVLULCAOKHXXHVVLBLLJW","optimalPurchaseTarget":-100,"optimalPurchaseTargetScore":-100,"availablePurchaseTargetList":[],"optimalSaleTarget":-100,"optimalSaleTargetScore":-100,"latitute":"52.150935","longitute":"-0.745467","amountDemanded":"5","pricePrefered":"14","distancePrefered":"14","energyTypePrefered":"1"},{"index":160,"seed":"VIYFJORVFVJUP9LDOKUOGJTHDJXBKNTMGYHPBWKUTGJAWIIMFPWSQSDV9HMKFLOWXWP9HXLHMDNEMBHQM","address":"F9UICU9FML999FGZIABCZDCKEYKNLXVZK9YGLHDVG9DK9LFQLLKDTMWXEDJVVHGQL9ZTRQDHUKFPAOVHW","optimalPurchaseTarget":-100,"optimalPurchaseTargetScore":-100,"availablePurchaseTargetList":[],"optimalSaleTarget":-100,"optimalSaleTargetScore":-100,"latitute":"51.155916","longitute":"-1.380970","amountDemanded":"5","pricePrefered":"15","distancePrefered":"12","energyTypePrefered":"3"},{"index":161,"seed":"URYYSKSFGALLUIEO9BLCJMCVDATDVGBIWGDOMEPYJPXUBKCETUWBTXJKPXFCBJOEYEDXEREC9NDYSSLMK","address":"NZCBWJOTXLUJOWDIYGHMTSZXUPT9ZRIFSCHGBNEBPRUOPOLMWDWQGXH9HVRKNLYHKO9MWZKZMCWFRUVEZ","optimalPurchaseTarget":-100,"optimalPurchaseTargetScore":-100,"availablePurchaseTargetList":[],"optimalSaleTarget":-100,"optimalSaleTargetScore":-100,"latitute":"51.647570","longitute":"-0.197722","amountDemanded":"5","pricePrefered":"15","distancePrefered":"11","energyTypePrefered":"3"},{"index":162,"seed":"P9TWKNGTSSCQFMCMENACTIJWWNCGCLTGCXTQJHVKCFLXUMBIFMWOQMSPKDJHEQUEFWAFK9QGVBIRFXNJO","address":"GDQ9IYXMIFHGCAILYPMIDRQYDOJLWYNADPUNMVZAXUTTZYJAMQG9HXKHHVEATUMUOWNNPTUQMT9NKQSAX","optimalPurchaseTarget":-100,"optimalPurchaseTargetScore":-100,"availablePurchaseTargetList":[],"optimalSaleTarget":-100,"optimalSaleTargetScore":-100,"latitute":"52.131159","longitute":"-1.983609","amountDemanded":"6","pricePrefered":"14","distancePrefered":"11","energyTypePrefered":"3"},{"index":163,"seed":"PCQRXBTEY9VXEIKWQWPRJHSBVHXGCARNADKRYNVCGDNSSKO9BFTPWQLFTAMWWRHWVVTRAINIQQWUETJLS","address":"XDVIMKFNMUPBINCPWLJKOMCNWXNGPKNIMFKKFX9IAQJJDXPLBTUMBPVMLETUAQAPEOBPNXZMAERYDKRPZ","optimalPurchaseTarget":-100,"optimalPurchaseTargetScore":-100,"availablePurchaseTargetList":[],"optimalSaleTarget":-100,"optimalSaleTargetScore":-100,"latitute":"52.411348","longitute":"-0.743638","amountDemanded":"4","pricePrefered":"16","distancePrefered":"12","energyTypePrefered":"4"},{"index":164,"seed":"WMIXSBOTREQQMTUCQAIFGHKMKSYED9XPNBLGOSVY9GKRQSGXOWWIV9DTJPYBYIFXNGEPUYJJLCLBEFOTC","address":"DYQKZXA9OWHXMTVACQVNSFZYYQYIJZKV999GBTLBFNGRHXAYSZFUWQADDHBGGUQXTNOWTNEVDKWVLRDAD","optimalPurchaseTarget":-100,"optimalPurchaseTargetScore":-100,"availablePurchaseTargetList":[],"optimalSaleTarget":-100,"optimalSaleTargetScore":-100,"latitute":"51.197395","longitute":"-1.101034","amountDemanded":"2","pricePrefered":"15","distancePrefered":"12","energyTypePrefered":"4"},{"index":165,"seed":"OTFGQDDJXRJGFHJRCSYQAEGNMJPUFJRGH9UI9WVNFSNCKGRRUJEOGLLMDV9BB9PCVCRUJQRAWRCYNSLFH","address":"SFYI9HQDEOOEXQHKFYMQRHSXFYFHVIZLRINREADTQLCVVONLBLYZKFODNRBAZDZUJOTXORQBKYABAYZRZ","optimalPurchaseTarget":-100,"optimalPurchaseTargetScore":-100,"availablePurchaseTargetList":[],"optimalSaleTarget":-100,"optimalSaleTargetScore":-100,"latitute":"52.043531","longitute":"0.235499","amountDemanded":"2","pricePrefered":"16","distancePrefered":"12","energyTypePrefered":"1"},{"index":166,"seed":"QHQLEXPOVHUVWDNYABDHJ9VHRESNM9TQDLCBPVTKAORNNJ9NDTGBTC9LMIDGURUYFGMMDBREQUNGB9JRM","address":"TROESSJZLRZEOUEECUTJ9TOPSCGITMWALSNSHT9STNDMJIHMXRIEADYRELUJNCZWAQGJSVKQALIZBCSLD","optimalPurchaseTarget":-100,"optimalPurchaseTargetScore":-100,"availablePurchaseTargetList":[],"optimalSaleTarget":-100,"optimalSaleTargetScore":-100,"latitute":"52.390270","longitute":"0.120287","amountDemanded":"6","pricePrefered":"15","distancePrefered":"14","energyTypePrefered":"1"},{"index":167,"seed":"GXBQSY9MOF9OASAXKV99JUXUATVTITNPFEBWSLOWIGXGTEOSSWNXGTRDKJKOVUYXIUQFO9HGCNQYSSTVK","address":"SVZRQYVC9UIWJZDNMFVCEHVRIROOGF9YFRZFLYVMFHYIHTPADH9CS9AY9PQMHYVMNQWPOLTRFHMPDJRYW","optimalPurchaseTarget":-100,"optimalPurchaseTargetScore":-100,"availablePurchaseTargetList":[],"optimalSaleTarget":-100,"optimalSaleTargetScore":-100,"latitute":"51.318332","longitute":"-0.340012","amountDemanded":"2","pricePrefered":"16","distancePrefered":"11","energyTypePrefered":"2"},{"index":168,"seed":"JCTQTJTXGUAFXXNP9RNNOGOWGKKVIXLWWJHVCWJYOKSCRCOXSABOPEMSQMKVMGMIWRIQKAJDFJACTYEKR","address":"DKNHRCIWTLMBRELOQNL9SOQVEWGRXFBPCULF9PFXTCRDEAEZYGHYXJPAPPPBESRTCDQETEHLEBOSSU9WC","optimalPurchaseTarget":-100,"optimalPurchaseTargetScore":-100,"availablePurchaseTargetList":[],"optimalSaleTarget":-100,"optimalSaleTargetScore":-100,"latitute":"51.470945","longitute":"-1.936567","amountDemanded":"6","pricePrefered":"16","distancePrefered":"12","energyTypePrefered":"3"},{"index":169,"seed":"YQPCMNUXREFNQQSUERUFR9HLNXUQCPIMRVAJEYASNWLMFDLGNCMY9QXVYXJEXNJOSKGYUUAFYFBLLIWHK","address":"MKWVJSJL9NSKVLETSVQTZWVFBOPFXCJSX9YPAPWUESPBNQVGGVFECXEKBAQLDWJOTDBNZPJBWRBA9QEFZ","optimalPurchaseTarget":-100,"optimalPurchaseTargetScore":-100,"availablePurchaseTargetList":[],"optimalSaleTarget":-100,"optimalSaleTargetScore":-100,"latitute":"51.136573","longitute":"-2.019130","amountDemanded":"2","pricePrefered":"15","distancePrefered":"14","energyTypePrefered":"1"},{"index":170,"seed":"TMHKHWAUOQ9QRUDOGAVOUFGXKFVBLOHCFANP9RYIAUTMBEOEPHLDW9CDDFQDVIPVINTULTNCBLWDLGJLA","address":"9MEZMQSYTGRMUFXSXJKFYMHTLGBMJEQNZNSSHNPNSSVFPNMETJNFTFEISBVHZQENETJDZVTH9WYSYAFX9","optimalPurchaseTarget":-100,"optimalPurchaseTargetScore":-100,"availablePurchaseTargetList":[],"optimalSaleTarget":-100,"optimalSaleTargetScore":-100,"latitute":"51.817608","longitute":"-2.128885","amountDemanded":"3","pricePrefered":"15","distancePrefered":"15","energyTypePrefered":"4"},{"index":171,"seed":"CJLF9YDOYXJECKPDBFVPYDDSCUVXPJSJAPLRBU9NJSQXEEEMYCYRFAVSLYO9VTRYQTISWKPYTUFTEWIUG","address":"R9CHFCKLBSM99LDLPPKLIJOLEQBNQGYARUM9OFVYDGKZ9NTBMAPHJBWIUZGEFVLKJRMI9RSGBOKE9VDTD","optimalPurchaseTarget":-100,"optimalPurchaseTargetScore":-100,"availablePurchaseTargetList":[],"optimalSaleTarget":-100,"optimalSaleTargetScore":-100,"latitute":"51.226424","longitute":"-1.560308","amountDemanded":"3","pricePrefered":"16","distancePrefered":"10","energyTypePrefered":"2"},{"index":172,"seed":"PUTLCHRMYVDSN9PJDYJBMLI9SVHTQEPTCAPNQAUDLTPEGHKOSINNRMSTGYMIESAOCXSSJWDCQAGKX9C9B","address":"RXGIDMMZHGDOKZKEEJPZLCT9LQZRXCNJKHCLNNATRELIBWJROLXTCYBGIYUHLVGQYJLXGWYQLGWY9Z9RB","optimalPurchaseTarget":-100,"optimalPurchaseTargetScore":-100,"availablePurchaseTargetList":[],"optimalSaleTarget":-100,"optimalSaleTargetScore":-100,"latitute":"52.325148","longitute":"-1.315777","amountDemanded":"2","pricePrefered":"16","distancePrefered":"10","energyTypePrefered":"3"},{"index":173,"seed":"WCLXASGATDBQ9KRNRD9VIJBOSHFWJMYPHHWVMSWBVFVLDATVLEF9RHUMUGPUUMABGEOTIQJBDUFMQXWJU","address":"SJWQUENDJXLAT9MKSOMYKBSFTAUVNPHREBBGTCUAOYCQAKEEVZXFPVP9FKKLFOQKGFMQZLLMILSETGOIB","optimalPurchaseTarget":-100,"optimalPurchaseTargetScore":-100,"availablePurchaseTargetList":[],"optimalSaleTarget":-100,"optimalSaleTargetScore":-100,"latitute":"51.243166","longitute":"-0.253450","amountDemanded":"6","pricePrefered":"15","distancePrefered":"14","energyTypePrefered":"1"},{"index":174,"seed":"TYBREUUVLSQQROJMAEVUWXCFNEYNENATPKIUTNOOI9LCTLHI9VXIKPPYDTEHDQDQPPDJLQFLOEPSYVSRK","address":"ITWHXGQFBTIGTVYKJJBZGEIDEQSVHSYTHTVFKDMERKQWFISDAVITPUZNGPUIPXSYQXRLETRKGMUPGH9MY","optimalPurchaseTarget":-100,"optimalPurchaseTargetScore":-100,"availablePurchaseTargetList":[],"optimalSaleTarget":-100,"optimalSaleTargetScore":-100,"latitute":"52.060632","longitute":"-0.934446","amountDemanded":"3","pricePrefered":"15","distancePrefered":"14","energyTypePrefered":"3"},{"index":175,"seed":"BYNUW9TKIFAADKBUEOTILQOYKEOIHETKGNVMJQRGLQHDXKODVWIMLDTOFAUPIUSJPPYXMICFRXBQUANVB","address":"DNWBJJJMPRKIKJNIZTVMNUUOX9SW9IHUYEGSAUVKGOYJJL9IJFUVBIPCTOG9HDXSTBROOZEGJSNCFQGRC","optimalPurchaseTarget":-100,"optimalPurchaseTargetScore":-100,"availablePurchaseTargetList":[],"optimalSaleTarget":-100,"optimalSaleTargetScore":-100,"latitute":"50.976296","longitute":"-1.024740","amountDemanded":"6","pricePrefered":"15","distancePrefered":"13","energyTypePrefered":"3"},{"index":176,"seed":"NNTOCA9S9KLJKIWKYHR9FDEGGYVWYRTOQXXHXJTREXLCDIDUNFEWTRDTPIBMCNRVGVYLEFGLCERAVFPXR","address":"ULSIJWNOMMEMDTUUQJNDFUDZQGCHXHKKZEEIOM9EXCDRNQMRMSYFUEGFRYYECCDWDRGGZF9JP99YBSJAC","optimalPurchaseTarget":-100,"optimalPurchaseTargetScore":-100,"availablePurchaseTargetList":[],"optimalSaleTarget":-100,"optimalSaleTargetScore":-100,"latitute":"51.117688","longitute":"-0.253213","amountDemanded":"5","pricePrefered":"16","distancePrefered":"15","energyTypePrefered":"4"},{"index":177,"seed":"GYPFCTSXGNQCUFQKTFJSB9WUUJLFIFXLWYGPHNRSFLDN9UKGESLBOYFGMRRJCJJKPELMDCVVYURFBFWFL","address":"KAMRPYDTBPTZTRERTKECJ9YUSTHGIMQVVHQTEMDCKTCZHVXHYWFDNISUVEOCIRXIJCYJKAWCWBEPQKVEB","optimalPurchaseTarget":-100,"optimalPurchaseTargetScore":-100,"availablePurchaseTargetList":[],"optimalSaleTarget":-100,"optimalSaleTargetScore":-100,"latitute":"52.242989","longitute":"-1.391717","amountDemanded":"5","pricePrefered":"14","distancePrefered":"14","energyTypePrefered":"3"},{"index":178,"seed":"COETQGPXVPNXRLEUT9YEXRIYHMXUSQHOUNVLVCPAGTLSINENHQGRJ99VN9QSHYMIUUUVJAPN9KBCWGYHI","address":"JOVCEFKCHSKMPKTZRALXQKZNIIGNWMZCSVTYCIXDVXNFIOTLRNFO9HOXGROFXSGAMPHTIROZQFKPPGDPC","optimalPurchaseTarget":-100,"optimalPurchaseTargetScore":-100,"availablePurchaseTargetList":[],"optimalSaleTarget":-100,"optimalSaleTargetScore":-100,"latitute":"51.098411","longitute":"-1.376225","amountDemanded":"3","pricePrefered":"16","distancePrefered":"11","energyTypePrefered":"1"},{"index":179,"seed":"RFWNQPXDACFFCXH9IFYFVEKVPHDJCYFDCXLJQRVOBGIYRVDEPDMGFWUEEGOLQEGEN9JWGIHHKDULLHXUU","address":"GTKRJMWGFLLLHIMIJB9JP9GMMDANH9HPQFWZHKIPESZXA9QMZMVO9AVHLKR9SUDQXWDGVZSQIAT9UCDJC","optimalPurchaseTarget":-100,"optimalPurchaseTargetScore":-100,"availablePurchaseTargetList":[],"optimalSaleTarget":-100,"optimalSaleTargetScore":-100,"latitute":"51.812127","longitute":"-1.979211","amountDemanded":"4","pricePrefered":"16","distancePrefered":"10","energyTypePrefered":"1"},{"index":180,"seed":"FQURIABMNTINRLUFNEXGYOYADWWGFBLGARUF9NWABFTMLQHDQLJYXIELKKRQTPQGWHQJUIWKJBQKBJJJG","address":"TAMSPSBPYUEMSKOZIVGWIOQBQPRWAMCF9ADZIROENADMGBXGLLBGAEYUCBQP9ADQYKZUTZORODMVHFVX9","optimalPurchaseTarget":-100,"optimalPurchaseTargetScore":-100,"availablePurchaseTargetList":[],"optimalSaleTarget":-100,"optimalSaleTargetScore":-100,"latitute":"51.770338","longitute":"0.146780","amountDemanded":"2","pricePrefered":"15","distancePrefered":"14","energyTypePrefered":"1"},{"index":181,"seed":"EPILHOSXTCMTVANRGXMCDSWKDQBVNWJBUEEESXKEP9ESWWFITRQWBOMWUBTSUIVTSHFKNXLJANVDL9TDR","address":"GSTNOIOIPCNVKOQGQRSFHHOVXGBQUZQTNZSFALSVQHTEIUWGPYKRIPBTPKBXWQYZDCMFYKVZMNIFWSVAD","optimalPurchaseTarget":-100,"optimalPurchaseTargetScore":-100,"availablePurchaseTargetList":[],"optimalSaleTarget":-100,"optimalSaleTargetScore":-100,"latitute":"51.853881","longitute":"-1.257787","amountDemanded":"2","pricePrefered":"15","distancePrefered":"13","energyTypePrefered":"3"},{"index":182,"seed":"DRRGHFGIMHBJKRPOQFDCMLLNFYHKSEGQEHBFDPFHGCFGTEDLWMQCCA9KNALJBEFPIY9RJLX9GVALSBG9W","address":"OQRIYMFAFIASZKAMMPUFKAUGANCPBGJSBWVYQYJSTYJHR9RWQCJIUUAMZFZTCJJITSERETAMPZHWQDIVB","optimalPurchaseTarget":-100,"optimalPurchaseTargetScore":-100,"availablePurchaseTargetList":[],"optimalSaleTarget":-100,"optimalSaleTargetScore":-100,"latitute":"51.609519","longitute":"-1.078583","amountDemanded":"5","pricePrefered":"15","distancePrefered":"12","energyTypePrefered":"1"},{"index":183,"seed":"JBILBEKSBV9RBOXRS9GDNGJFWEUQLJBHKOIHEAERIWWBYH9HKCTU9TLG9WIHX9SN9NU9KSMLMQONXQQNX","address":"9YVPQBCLSDAZJQCONYWDLTGY9VCPKH9GG9TPASCNEXHTQFTSBGMTQOF9LKENSUSWKUUIRSAE9HBVUEUG9","optimalPurchaseTarget":-100,"optimalPurchaseTargetScore":-100,"availablePurchaseTargetList":[],"optimalSaleTarget":-100,"optimalSaleTargetScore":-100,"latitute":"52.268821","longitute":"-1.887803","amountDemanded":"4","pricePrefered":"15","distancePrefered":"12","energyTypePrefered":"0"},{"index":184,"seed":"FYHBTFMKXJHBYNNSQDBCJYN99THQAFBMGGG9SYXMJVPTBDOFMRXNURYDHPUE9JLMHGEDJE9WJF9WTUDKJ","address":"DTTFYX99AMFHOQYPNVSKHSZWSVYGYHBXJMBXILUHDTAZRNVAYHJPTRBRNMZFFMXFVQNRQEJQBYGCSCGX9","optimalPurchaseTarget":-100,"optimalPurchaseTargetScore":-100,"availablePurchaseTargetList":[],"optimalSaleTarget":-100,"optimalSaleTargetScore":-100,"latitute":"52.336604","longitute":"-2.285364","amountDemanded":"6","pricePrefered":"15","distancePrefered":"13","energyTypePrefered":"2"},{"index":185,"seed":"XQPCSWYOGEENFPBQSQQNDNOTAMANVCADTWGDHNWVHAVIDPNOHAIHRQNYHYCNVYELWCLMANUSQRFINWGVO","address":"A9AFQMGARKZKIBMUWROENTFBSGLCEWQUPVGUVHEZH9VRXIOZIQPNYKJFIFJBSXUU9ZCZCPJEDKOLUYXLC","optimalPurchaseTarget":-100,"optimalPurchaseTargetScore":-100,"availablePurchaseTargetList":[],"optimalSaleTarget":-100,"optimalSaleTargetScore":-100,"latitute":"51.354947","longitute":"0.224491","amountDemanded":"5","pricePrefered":"16","distancePrefered":"14","energyTypePrefered":"0"},{"index":186,"seed":"WLIP9YPQ9SGVDAAANDVBWOGWG9UJPGSQRGY9U9E9UKUAKFHDNME99I9WATNYPSXEISHRYILSDKIXFDNLI","address":"CJQJXJKTD9VUGF9XK9MSGXRRU9TJRSTUBPNEZOJTSNWANEBWRKZNBRJKCHLKWGBIGPJCKTJZURITUJPMZ","optimalPurchaseTarget":-100,"optimalPurchaseTargetScore":-100,"availablePurchaseTargetList":[],"optimalSaleTarget":-100,"optimalSaleTargetScore":-100,"latitute":"52.392821","longitute":"-1.394243","amountDemanded":"1","pricePrefered":"15","distancePrefered":"13","energyTypePrefered":"1"},{"index":187,"seed":"QTFAVVSY9UOTBAJGOMAKCTW9YIQNONXURIXLXPDKIPLOIGQKFAUATFQUD9MJIH9HRSKEHWEYNQRHUCFYS","address":"DFTHOQJRC9PBWHKZRQMUTCPFIJFCIVDBNEWRRGA9TGIFKYBNZBZEPFJBGYCDPUDOFQHDUOAKIRRFBWBPA","optimalPurchaseTarget":-100,"optimalPurchaseTargetScore":-100,"availablePurchaseTargetList":[],"optimalSaleTarget":-100,"optimalSaleTargetScore":-100,"latitute":"51.597969","longitute":"-0.873636","amountDemanded":"6","pricePrefered":"14","distancePrefered":"14","energyTypePrefered":"0"},{"index":188,"seed":"NROVNNNBEWTQOLWKEXTSBDBXYOEGQWMAGNVQDRBLVFTFKHSKNMCELFBHPKCNEAXEYODYFWKJXOIVMEYDM","address":"HONROX9EKFMGCTHHRBAYFGGJVRUMGYZS9BWBFJFNOYEXRKKNJANQVWWCOMWJCUA9RPMNRIUBAQLHQUFXX","optimalPurchaseTarget":-100,"optimalPurchaseTargetScore":-100,"availablePurchaseTargetList":[],"optimalSaleTarget":-100,"optimalSaleTargetScore":-100,"latitute":"51.898342","longitute":"-1.648911","amountDemanded":"4","pricePrefered":"15","distancePrefered":"15","energyTypePrefered":"2"},{"index":189,"seed":"HHGCQRQLDBTCJOWJUHVYQXYPCWKI9UMFRLDFGPEDQPETIFOAAXPRJYMQBLON9URMDDUHOHQQGUDLDJGDW","address":"TKUTODIKAFNHXCVRYNSEAAYKBGYHDCGTTCXVWCYJLZGYIANKWWYYZJJIWEKMCSC9MMUHOUJLYMKTMHBHX","optimalPurchaseTarget":-100,"optimalPurchaseTargetScore":-100,"availablePurchaseTargetList":[],"optimalSaleTarget":-100,"optimalSaleTargetScore":-100,"latitute":"52.227110","longitute":"-1.193614","amountDemanded":"3","pricePrefered":"16","distancePrefered":"11","energyTypePrefered":"3"},{"index":190,"seed":"HEWPOUGPKVGADXSPJDKBKOVLIGH9GDFPCYGWJVMYVHCWPXPPJMVQMCANHCLARMVOULJMIYUPAO9KBAKQT","address":"PO9IZQCCJGU99MSYEHZGNMWXRFHKKEBFZHIHLCMWMYSWDSBJRXDSAVLHAAIGVNNLSBGAEXWDWWQUDYCCW","optimalPurchaseTarget":-100,"optimalPurchaseTargetScore":-100,"availablePurchaseTargetList":[],"optimalSaleTarget":-100,"optimalSaleTargetScore":-100,"latitute":"51.751730","longitute":"0.155043","amountDemanded":"2","pricePrefered":"16","distancePrefered":"14","energyTypePrefered":"2"},{"index":191,"seed":"DRDEAWDDVICGXKWIPKANDAFLYWKXACMADBPSYWOFWYKGWAMPNORXQHFE9WIECFTSWBOEGAPEKGJEIWFC9","address":"JTZXZG9ZZYBUJNGFZNPOCROWHJSDQBEGIWTNVWMS9VLJDCKZULNBUUY9LFAGOPXRMMGNJZJBVGRXBEGWC","optimalPurchaseTarget":-100,"optimalPurchaseTargetScore":-100,"availablePurchaseTargetList":[],"optimalSaleTarget":-100,"optimalSaleTargetScore":-100,"latitute":"51.566913","longitute":"-0.189410","amountDemanded":"3","pricePrefered":"16","distancePrefered":"12","energyTypePrefered":"3"},{"index":192,"seed":"UUPMVDTUIQOUCBOHMG9BABQRLT9ACTQOSSSUSCMEEYHUGRN9JLFALD9PMMGCAJOKXSVJLHMLXDQCV9YUH","address":"BMNPNPBIKSOQOBLKSZIDZJDXUE9UGRBJRPVKNSWJQLXWESARCCRRYNCQNRMSIWZCOCUHGHQNMFGXYTTRB","optimalPurchaseTarget":-100,"optimalPurchaseTargetScore":-100,"availablePurchaseTargetList":[],"optimalSaleTarget":-100,"optimalSaleTargetScore":-100,"latitute":"51.154206","longitute":"-0.310104","amountDemanded":"3","pricePrefered":"15","distancePrefered":"12","energyTypePrefered":"1"},{"index":193,"seed":"R9HKTMCRHCDNPBDGLXGCBPJYGGLGFEYT9YMUWYJJAPAYVT9XQKFALQYTYCM9SAPUOWBR9MQGDMIIUJAAN","address":"HKEIOEBPIZWSCNORFFURDEWKVELOVSEXTBDJBAFQJQFKFZH9EXIFSTEWDISNTGHUWJERFOALPILGZBETC","optimalPurchaseTarget":-100,"optimalPurchaseTargetScore":-100,"availablePurchaseTargetList":[],"optimalSaleTarget":-100,"optimalSaleTargetScore":-100,"latitute":"51.210373","longitute":"-1.802170","amountDemanded":"2","pricePrefered":"16","distancePrefered":"14","energyTypePrefered":"3"},{"index":194,"seed":"KCAISGDAELFDOEGAOXBAWYDUUXD9UAULLKYFD9DSSORQJACVEBDORSACDKL9KLSL9IUV99UDHRYYHSKXS","address":"IYSJCRODV9TZTCGHHWYPKYQJLSDBYFRKOSRABFUBDSRGXKLKBLRLPAGPYXMWCAYBVOX9LKETZYXRLLIRX","optimalPurchaseTarget":-100,"optimalPurchaseTargetScore":-100,"availablePurchaseTargetList":[],"optimalSaleTarget":-100,"optimalSaleTargetScore":-100,"latitute":"52.179894","longitute":"-1.941056","amountDemanded":"2","pricePrefered":"15","distancePrefered":"11","energyTypePrefered":"3"},{"index":195,"seed":"CFVMJ9WN9DQJAHG9AFQKVLWYCSX9S9YGVYQCEBSX9ANQKJXB9G9OP9YNBS9CTGXLDXFEWGATRGKK99LOR","address":"LVUAJPTZIDUYCAGTCV9BTHKULAQENARHJLDJUTAZXRGIXFRHJRKNGNZQWRNUGHYTAWUMSUHLQXEICUSND","optimalPurchaseTarget":-100,"optimalPurchaseTargetScore":-100,"availablePurchaseTargetList":[],"optimalSaleTarget":-100,"optimalSaleTargetScore":-100,"latitute":"52.256226","longitute":"-1.419021","amountDemanded":"3","pricePrefered":"14","distancePrefered":"13","energyTypePrefered":"2"},{"index":196,"seed":"SKNTFNXEPSBSSWPQETWVW9GXV9FHMIMBBDXAOUWNSRITYJOASBGOBGSCVGXLGMVEWODNVL9NNSCHGWIRC","address":"JTCHAIPLUUOWE9OGWGJR9VMZMJDOWNRTVOJSN9NKSNNEYCQIUIEMSZLTKFPLXAB9MFZEQJHJGTWHGEGXA","optimalPurchaseTarget":-100,"optimalPurchaseTargetScore":-100,"availablePurchaseTargetList":[],"optimalSaleTarget":-100,"optimalSaleTargetScore":-100,"latitute":"51.065376","longitute":"-0.235405","amountDemanded":"5","pricePrefered":"14","distancePrefered":"14","energyTypePrefered":"3"},{"index":197,"seed":"MSCD9X9MJSRPRUCCTDLDTNKVOQTKXMEHFCWSERDPAKOBQPTXQSRPMBVMSXTOLRKIPVMTITGRDBTOO9YHF","address":"JKFZQSG9OHSY9IGJVBNXWYEATLXAJAL9MKAZKB9QDYYVKBMAPZQCMSGRISF9FFYI9NWTZLKHDNFEBIVSX","optimalPurchaseTarget":-100,"optimalPurchaseTargetScore":-100,"availablePurchaseTargetList":[],"optimalSaleTarget":-100,"optimalSaleTargetScore":-100,"latitute":"51.579748","longitute":"-1.357252","amountDemanded":"4","pricePrefered":"14","distancePrefered":"14","energyTypePrefered":"1"},{"index":198,"seed":"YGSQIYPOUAFCCJLBROHSWLXSWXWMSHMLXDHDVMSMOGM9PBFRDFPVWVO9VIC9HQWV9TORJTO9K9XYQGNYH","address":"D9OKZPITJXRYRNCWUFVOPQDBLQALJOPICDSZJLO9MRHZOLVPIROSFEVT9QOARQO9WDSZVTMHE9EAHGMDB","optimalPurchaseTarget":-100,"optimalPurchaseTargetScore":-100,"availablePurchaseTargetList":[],"optimalSaleTarget":-100,"optimalSaleTargetScore":-100,"latitute":"51.281957","longitute":"-0.916325","amountDemanded":"1","pricePrefered":"15","distancePrefered":"15","energyTypePrefered":"1"},{"index":199,"seed":"V9DITTFHYMMUKJMVXBSMQLCDIMGNRPMPSEXDITCBXCPESJYQKYCXYYWU9LSKODTYEEQECECUTBIXEDEQT","address":"RHPGLSQOLBCRZGWG9SSLPQM9RWENNFSZVRQXNFXZMVUGH9CNQQTAKITOJI9QYOUCIWDWZFKNSFOECBZEW","optimalPurchaseTarget":-100,"optimalPurchaseTargetScore":-100,"availablePurchaseTargetList":[],"optimalSaleTarget":-100,"optimalSaleTargetScore":-100,"latitute":"51.376908","longitute":"-0.913980","amountDemanded":"5","pricePrefered":"16","distancePrefered":"11","energyTypePrefered":"3"},{"index":200,"seed":"WKVBES9IBRQCOMDRLCOMBDHISFEOOJVEXLNLOVLKDDVLGE9KAIVGJJ9MVFL9IER9JORHW9EUCPQSLBFNR","address":"MEIKTOD9EBMARGOJJPKFVWNJQYIGVUBJFWG9MCTDGFENWG9EOLVMSPVLNWITYPICVUQNJMJSPVTFNITKX","optimalPurchaseTarget":-100,"optimalPurchaseTargetScore":-100,"availablePurchaseTargetList":[],"optimalSaleTarget":-100,"optimalSaleTargetScore":-100,"latitute":"51.597368","longitute":"-1.993754","amountDemanded":"2","pricePrefered":"15","distancePrefered":"13","energyTypePrefered":"2"},{"index":201,"seed":"BVMMMVRJJNWGKJLWQQTAEHNUNSLCWW9GXBPOOXSJOOBP9GTOANM9TPLSNWAUG9NOCGHJHJAOPUWKJG9WC","address":"DIHREBAEEYROX9LDRJIAMBSRDQPQSQLCSWGDUGUDN9ZROVDOVCYHGWOIBDXKJENZQHLYPMMVPLXNPWF9Y","optimalPurchaseTarget":-100,"optimalPurchaseTargetScore":-100,"availablePurchaseTargetList":[],"optimalSaleTarget":-100,"optimalSaleTargetScore":-100,"latitute":"52.083805","longitute":"-0.410823","amountDemanded":"2","pricePrefered":"16","distancePrefered":"13","energyTypePrefered":"3"},{"index":202,"seed":"RJARUHXIMWVA9M9LBXSKBNKWQYLQODWRHJSQMCPJLXU9CTQGCOAVNAJQUNDL9IQVYOOJCDCPWVEWVXDUJ","address":"TSMLSF9UBWGVEHECDJYKMSVKPCFAONZXBTQMXOEAAYSIB9DIMCKXLELLVBBNL9HOKKXODUWGHQS9NDCAD","optimalPurchaseTarget":-100,"optimalPurchaseTargetScore":-100,"availablePurchaseTargetList":[],"optimalSaleTarget":-100,"optimalSaleTargetScore":-100,"latitute":"51.653379","longitute":"-1.881385","amountDemanded":"2","pricePrefered":"15","distancePrefered":"14","energyTypePrefered":"1"},{"index":203,"seed":"POMOHYWFVUXERQFFISTNAIVQCPYTEMQCCJ9FTBTLIIOVGMO9JEVXKOASTRCVLYXBGTLHGAEGMSPPYCVXE","address":"JHLMDPKHBFVPLMMYJGNDMTVRQIHXOWMIIWTTWNLCYLWRMEOYVDFDWZOG9EF9YMVXOPM9PEOADSAZPP9ED","optimalPurchaseTarget":-100,"optimalPurchaseTargetScore":-100,"availablePurchaseTargetList":[],"optimalSaleTarget":-100,"optimalSaleTargetScore":-100,"latitute":"52.279637","longitute":"-0.947766","amountDemanded":"3","pricePrefered":"16","distancePrefered":"14","energyTypePrefered":"2"},{"index":204,"seed":"ICGYBXDPUDIPSAWTIQAAB9SQMDCYPGAORNUYDQ9FKKADKFHNNIBJIXRJLINBAML9WTMXDBHGSJ9SXWEXN","address":"PW9XCWUB9XIMVLXTMMTJVLJSEOSEYKUQWWCNRJTFGIRHKXYFGWSFC9OMQVW9AWAQGZBZDL9ZQTGUOY9IC","optimalPurchaseTarget":-100,"optimalPurchaseTargetScore":-100,"availablePurchaseTargetList":[],"optimalSaleTarget":-100,"optimalSaleTargetScore":-100,"latitute":"52.264216","longitute":"0.237616","amountDemanded":"2","pricePrefered":"15","distancePrefered":"11","energyTypePrefered":"1"},