[{"index":0,"seed":"EYRKXRDSGCQJAACXBKGYOIYNADCXBBIMEPVTYMS9IHOTLUXFFQCDBTXQXWNYTRAFTCUUTERBTFQQBLIAX","address":"NVCMEOGKGRFAHLCVPD99OOCYBEDUDTLXGKVLEKY9CGEZNFIJVIUCZJUSEHSHMBFKSUMJOFSGRX9UQSX9X","optimalPurchaseTarget":-100,"optimalPurchaseTargetScore":-100,"availablePurchaseTargetList":[],"optimalSaleTarget":-100,"optimalSaleTargetScore":-100,"latitute":"51.738382","longitute":"-0.014256","amountDemanded":"3","pricePrefered":"16","distancePrefered":"12","energyTypePrefered":"0"},{"index":1,"seed":"AIQ9VYMRYPVPJRVPH9TH9NPNYFVDSMPCASFSWTJMHYRWPCVRENQGUOMBXSNNLOJKVFW9TFOOIKDCS9CPX","address":"QJ9JF9DTNNXYRPOUWPOOAXZFSJCTQPLTFUFXKHMDSKYDLFSICPFCG9ASXXCREMOQWDBFSYRQDTZOMWUUA","optimalPurchaseTarget":-100,"optimalPurchaseTargetScore":-100,"availablePurchaseTargetList":[],"optimalSaleTarget":-100,"optimalSaleTargetScore":-100,"latitute":"52.017986","longitute":"0.214702","amountDemanded":"3","pricePrefered":"15","distancePrefered":"10","energyTypePrefered":"3"},{"index":2,"seed":"RCTFFSNRVRYAVXQIMGQXNPMJSNVUWLRBNAMROSRRODXAHCXSEMVISQQEJMFVBYDUWFXMAMVNRXUFBEESJ","address":"VGWTR9YEA9ZKWAWKAUM9PBOFOZXDLWSOQGNTAUCRNEDCJXVAFKIZTEJBZQOLCPJPM9QIMDDKISJQVLRQA","optimalPurchaseTarget":-100,"optimalPurchaseTargetScore":-100,"availablePurchaseTargetList":[],"optimalSaleTarget":-100,"optimalSaleTargetScore":-100,"latitute":"51.835410","longitute":"-0.991676","amountDemanded":"1","pricePrefered":"15","distancePrefered":"10","energyTypePrefered":"4"},{"index":3,"seed":"CDFYRXACWIKAGCKFR9VUMJDDXVMVBRLOQIKSSLCYWEVUNORMEUUYGYLEM9IKGFOTQYDGFBBWUQCMUCJBE","address":"V9MJNHZUZ9AVAWQHKPAESTBHJSPQJVUOQIUL9SWSESZIXZMVUH9QBNUNENKDZXORGRYOVLLQQNPMXQIYD","optimalPurchaseTarget":-100,"optimalPurchaseTargetScore":-100,"availablePurchaseTargetList":[],"optimalSaleTarget":-100,"optimalSaleTargetScore":-100,"latitute":"51.417422","longitute":"-0.202309","amountDemanded":"6","pricePrefered":"15","distancePrefered":"15","energyTypePrefered":"4"},{"index":4,"seed":"VNJQEIHEKPIYDEKNLJNRJLWJHQWUHLICKHSGJTMXB9PYQLAOGGXDXXWK9COLRV9XRNSMFBTQVPTMEQVGR","address":"YCEPCXPESGEUELRCPOUH9FCAQXBKHLPFDKGGCXGPMTSF9RPTVGDOTQZDVASXZMUVYMXYKOBRIXADDSBHA","optimalPurchaseTarget":-100,"optimalPurchaseTargetScore":-100,"availablePurchaseTargetList":[],"optimalSaleTarget":-100,"optimalSaleTargetScore":-100,"latitute":"51.368706","longitute":"-2.205151","amountDemanded":"2","pricePrefered":"15","distancePrefered":"11","energyTypePrefered":"1"},{"index":5,"seed":"IDWNHDJGK9KPHWVJXHUDUCKKQSVJSLMBLDR9SKAR9XEWUYQYBTXTLXULI9ABWFSKXRSWHMV9DYQOHHKAT","address":"MSHEUYHQKYEYRUUVUMFOMEHBETZCGDWRSQWOITUSKUKHSWVWOPYSQK9GQRNUIRORLZGPYKMJGDRSKUFJX","optimalPurchaseTarget":-100,"optimalPurchaseTargetScore":-100,"availablePurchaseTargetList":[],"optimalSaleTarget":-100,"optimalSaleTargetScore":-100,"latitute":"52.302558","longitute":"-1.944154","amountDemanded":"3","pricePrefered":"15","distancePrefered":"14","energyTypePrefered":"1"},{"index":6,"seed":"WYQDRAEVNNGT99VXWAQEXXKDRMIXBALBTFDAAUUDBTKDC9GIHLQWFQ9ROGXYSNNCOUEUEECBTAIIAECEP","address":"MJSGVAFJCPPABYIHUUTWYCVIWIHDO9KG9ZFPP9JSAU9PRNTFILUWRWTKSRIMABNOKIHITDQZJ9JEFIOHD","optimalPurchaseTarget":-100,"optimalPurchaseTargetScore":-100,"availablePurchaseTargetList":[],"optimalSaleTarget":-100,"optimalSaleTargetScore":-100,"latitute":"51.282271","longitute":"-2.062014","amountDemanded":"4","pricePrefered":"15","distancePrefered":"10","energyTypePrefered":"3"},{"index":7,"seed":"UMXBWUJOXIVDWUPSIBJHCAXIFHBJXNAYMBMDFFXMXFE99MDRASMIJFSOVUBHPHYVXJJHPSJFXKTGDDFDN","address":"WDF9DI9JCJQHQ9OPVPUE9XEFUCJSDR9KIMSVQMHHNLKSINETJPWCCDRSLEWSHZOBIHIUUWVWZHGYJNZ9C","optimalPurchaseTarget":-100,"optimalPurchaseTargetScore":-100,"availablePurchaseTargetList":[],"optimalSaleTarget":-100,"optimalSaleTargetScore":-100,"latitute":"51.408785","longitute":"-0.576053","amountDemanded":"4","pricePrefered":"16","distancePrefered":"11","energyTypePrefered":"1"},{"index":8,"seed":"OMRKSVHLPWUXNGCGQMQKNJJ9PCDCLDTLKMNSBIAALJRICNVNNXIXPEISDUGLASOSSRDVDNYTUOFBOCQMT","address":"SHTMTBHIN9XILMFDPUUYXDYFNQ9TPQDQJFAUAN9XBRSVBF9OAWCQCNKWCTUMADNEB99DOA9NIVMYHDOEW","optimalPurchaseTarget":-100,"optimalPurchaseTargetScore":-100,"availablePurchaseTargetList":[],"optimalSaleTarget":-100,"optimalSaleTargetScore":-100,"latitute":"51.495273","longitute":"-1.274685","amountDemanded":"4","pricePrefered":"14","distancePrefered":"13","energyTypePrefered":"0"},{"index":9,"seed":"SGBCWXLATFUENPCHACXMGGC9LHWOXIKKYUNJBOBYRJDABYFJKSFFKTWMIEUAJNGMXANFOVSVBPBVEHCOV","address":"MVMFFLRBWUV9ZZRJGQIKKKULDDHNHX9IVMVZJCDY9LCZIZMQEJNGDLOVCS9FZZRV9DDVTTMRE9YUYWFEA","optimalPurchaseTarget":-100,"optimalPurchaseTargetScore":-100,"availablePurchaseTargetList":[],"optimalSaleTarget":-100,"optimalSaleTargetScore":-100,"latitute":"51.968742","longitute":"-1.215207","amountDemanded":"6","pricePrefered":"15","distancePrefered":"13","energyTypePrefered":"2"},{"index":10,"seed":"UNHELIICBPX9H9WXOSMHSS9VWLBBGHHHANNTPNBCRGYHCRJOFTJAOTGYPHTKMJPVCTEYFEA9CCEOLKLTN","address":"VXKXOOLSBSKCYVKPSUTQKLZWIWZZCHYYZBDVHWIAIUKEHLPEAMQ9URBTAWIRPKHNAJLQUBI99BOUWGUMW","optimalPurchaseTarget":-100,"optimalPurchaseTargetScore":-100,"availablePurchaseTargetList":[],"optimalSaleTarget":-100,"optimalSaleTargetScore":-100,"latitute":"52.429948","longitute":"-0.206661","amountDemanded":"3","pricePrefered":"14","distancePrefered":"11","energyTypePrefered":"0"},{"index":11,"seed":"DRLDNXG9KN9NFCYEEOKTYGXQRYSQAYITDQGJYAGBYBVXJGSJDSNCCWIIVFPGVGFF9VLJWQDVC9ITSOWAF","address":"GKI9DKPJM9UVFZSFFMQTCQJHZD9YLNCYOHNITSKIEGBPBWVFADRJMMPCYJQVFRHZYLHILLXCSEFOLOBZ9","optimalPurchaseTarget":-100,"optimalPurchaseTargetScore":-100,"availablePurchaseTargetList":[],"optimalSaleTarget":-100,"optimalSaleTargetScore":-100,"latitute":"52.370744","longitute":"-1.833030","amountDemanded":"6","pricePrefered":"15","distancePrefered":"14","energyTypePrefered":"2"},{"index":12,"seed":"IVGRCJFTFBGAXBJFDXBRGCECOERKNNFLFTE99XRIXBUNDBSPTVKXMHNNIVPUWW9XNYSJFCFLPMDKRTCR9","address":"YAJRPZZHMNUELXXRSEFCDGGNTSRTEEIDFXZQLLMCPIQJGFJOWTDGZNURTBUVK9UWXVIYXXKBTKXNLIVRD","optimalPurchaseTarget":-100,"optimalPurchaseTargetScore":-100,"availablePurchaseTargetList":[],"optimalSaleTarget":-100,"optimalSaleTargetScore":-100,"latitute":"51.957818","longitute":"-0.958307","amountDemanded":"4","pricePrefered":"15","distancePrefered":"12","energyTypePrefered":"1"},{"index":13,"seed":"BU9NGSAVHDPIHCOKFEHWGRXTN9VRKUSWJ9QKUUC9IHQUQMJMBXSMTSPBGISIXVRQDOIOJJCDODYJFSUQY","address":"KXJQFDNILYFIAEYOAUJCSJ9UANRBIHZTWABID9FWRFNBYXVZPLRNMFJKUMBIAECDGBDKVZNJHZUHWZAZY","optimalPurchaseTarget":-100,"optimalPurchaseTargetScore":-100,"availablePurchaseTargetList":[],"optimalSaleTarget":-100,"optimalSaleTargetScore":-100,"latitute":"51.633934","longitute":"-0.563890","amountDemanded":"3","pricePrefered":"15","distancePrefered":"14","energyTypePrefered":"3"},{"index":14,"seed":"NVAJWBKKEORLEMTVQDNNUJQGUMKRDCGLUSWFSAWSLBQOL9CNGT9FKDNWBURJPP9B99COUETLGH9AOYOHM","address":"NXLVVLHHKPCRTNZDOTYGSXTEBLEOVTQCR99GUNHETLRDOFCTH9VYXLNHWBRBCGTOOF9MLUWDGE9NS9T9W","optimalPurchaseTarget":-100,"optimalPurchaseTargetScore":-100,"availablePurchaseTargetList":[],"optimalSaleTarget":-100,"optimalSaleTargetScore":-100,"latitute":"51.247934","longitute":"-0.076201","amountDemanded":"5","pricePrefered":"15","distancePrefered":"12","energyTypePrefered":"1"},{"index":15,"seed":"EDVVCNVRHUIVAPSCHWOAJEFGLWPKKHSEQCQSBYWVVFGOFBDMSKRGKPCNYFGOCMYLMRPGKDURGFCNXETIS","address":"YBYJNNTOUBBHGYHUODIDDAOHNVISATRVKCQRLZTAPGLBPDPANQMF9GSYBFYBHMBABIQNASERFELBWOJSC","optimalPurchaseTarget":-100,"optimalPurchaseTargetScore":-100,"availablePurchaseTargetList":[],"optimalSaleTarget":-100,"optimalSaleTargetScore":-100,"latitute":"51.493928","longitute":"-1.981871","amountDemanded":"2","pricePrefered":"15","distancePrefered":"11","energyTypePrefered":"3"},{"index":16,"seed":"LANLUNMHUDROS9VXRPKBJCXJVLNRXRPBTRXKYEYPCXVC9QPAPUMDQPMOWDRBFTSSKYLVDJCPIJDCLFKPW","address":"EWOURTNUDBEEYNBJLFULCIJOWJWAUQSY9IMEGNZARVBRPNNWPTVWTEMHPDEPQZODE9ODMNKKAUG9KMTRY","optimalPurchaseTarget":-100,"optimalPurchaseTargetScore":-100,"availablePurchaseTargetList":[],"optimalSaleTarget":-100,"optimalSaleTargetScore":-100,"latitute":"52.343624","longitute":"-0.246894","amountDemanded":"6","pricePrefered":"15","distancePrefered":"14","energyTypePrefered":"2"},{"index":17,"seed":"JPGHEFJPWLQMVDVNHFK9GKBYHLMLU9JKQLDI9ASMRKW9HWQX9WHAQHUXBJKNUBWPYMCPMTTUKQIHLFDMC","address":"EIDWNTM9UDIS9HFFAMADVMBHBKWKZSJWDAPVLIVYMUJB9VNDPJFKTOCJTKUOKAMYYYWUUPZNNQUQ9ZJPB","optimalPurchaseTarget":-100,"optimalPurchaseTargetScore":-100,"availablePurchaseTargetList":[],"optimalSaleTarget":-100,"optimalSaleTargetScore":-100,"latitute":"51.573194","longitute":"-0.998318","amountDemanded":"2","pricePrefered":"15","distancePrefered":"14","energyTypePrefered":"2"},{"index":18,"seed":"AGVREPPL9SOFGWMJVE9UOMQVDEGKILGMGJVPFJ9KMOFUOKBQFBHOPRKDFSABFCIXSMKNDABERUFNQG9DD","address":"IHZGOPVBPIYXEGUUSMTRGNDPSJYV9SGSDWSDSGCYKMYHNUZIXXNLAIUIRUQJ9PQYFASYXRLSNENU9GZWZ","optimalPurchaseTarget":-100,"optimalPurchaseTargetScore":-100,"availablePurchaseTargetList":[],"optimalSaleTarget":-100,"optimalSaleTargetScore":-100,"latitute":"50.971031","longitute":"-2.323287","amountDemanded":"2","pricePrefered":"15","distancePrefered":"15","energyTypePrefered":"1"},{"index":19,"seed":"VOAHLDURVL9SLDQEAVTTEUAIWEPQGCWJUIVGNBDRFVCI9BQVOYSOFQXRP9VAHVRSTMLVPYIJUJL9JITMM","address":"YQEZQCUZZUSKNXB9YS9KXKELUJLJHBKFVHHMMUJPDOOGKBYZKTSRHXYLOPIZOGMLIFBNRWMAGKGHLWMQW","optimalPurchaseTarget":-100,"optimalPurchaseTargetScore":-100,"availablePurchaseTargetList":[],"optimalSaleTarget":-100,"optimalSaleTargetScore":-100,"latitute":"51.824633","longitute":"-1.780552","amountDemanded":"3","pricePrefered":"14","distancePrefered":"11","energyTypePrefered":"2"},{"index":20,"seed":"LNSWFQHWFKDRXDW9ONVTJELKMKWTCXTGEPPKEXWAX9LHNNHIHKDQXCQONEJICXVABLPGYGOPHWKKQUCHQ","address":"KAXJQCFCZOXBUXXWPCMOFZTZPVIL9HCHDT9RHT9LSRCSBAGJGTKOFIBUHR9RGTCE99SVVQEDCISECSBCC","optimalPurchaseTarget":-100,"optimalPurchaseTargetScore":-100,"availablePurchaseTargetList":[],"optimalSaleTarget":-100,"optimalSaleTargetScore":-100,"latitute":"51.459531","longitute":"-0.004711","amountDemanded":"2","pricePrefered":"14","distancePrefered":"11","energyTypePrefered":"1"},{"index":21,"seed":"NBHSTJKUDXUYXKEXQXDVSGUPRDDILUN9IHWV9RHDRWGUJDPO9JHOJTWNB9NYNOHCDBBSQKPXWWGPAAU9M","address":"YBEJWQBCCNNYMNKDVJFAXZMUBKRYZZVPCSXRSKLBNJLOFKIHNHYEHFONQLMEBLBRTDVXCZPCONXKCADSB","optimalPurchaseTarget":-100,"optimalPurchaseTargetScore":-100,"availablePurchaseTargetList":[],"optimalSaleTarget":-100,"optimalSaleTargetScore":-100,"latitute":"50.985370","longitute":"-0.156225","amountDemanded":"5","pricePrefered":"16","distancePrefered":"12","energyTypePrefered":"2"},{"index":22,"seed":"SVEFSARWPWMJGBMEXJETXWWMXNVGIUFPOQMJRP9DLGNENPORHVQYNLUKGTQHKMYSPSWTNHBMRLTT9KSLC","address":"MNTUGPOSVEGZHXDUOAQKJEGIGWPDHCFXXVSTABMOCMMBGNVP9LWMPBSJRWGGLIUBYNKWCVUJLGQYJPSOX","optimalPurchaseTarget":-100,"optimalPurchaseTargetScore":-100,"availablePurchaseTargetList":[],"optimalSaleTarget":-100,"optimalSaleTargetScore":-100,"latitute":"51.509173","longitute":"-0.176870","amountDemanded":"2","pricePrefered":"16","distancePrefered":"11","energyTypePrefered":"3"},{"index":23,"seed":"QVOETADKNJURBG9GLOFUSP9KUVTRWVBBMRKDNXOVJNUKQG9XWP9XEISUENCLMLHDBSEHVIMKSSUIEXPGY","address":"KQXIVTAHKVIPKYXYEFHVTOOVOCYVBAWCUQO9TIIVAEP9SVOLJVZFICOOQZYBRMRWIXRWFLOJAJTCASHJZ","optimalPurchaseTarget":-100,"optimalPurchaseTargetScore":-100,"availablePurchaseTargetList":[],"optimalSaleTarget":-100,"optimalSaleTargetScore":-100,"latitute":"51.763791","longitute":"-1.320932","amountDemanded":"5","pricePrefered":"15","distancePrefered":"11","energyTypePrefered":"4"},{"index":24,"seed":"NV9MREBTGLGGPINQLUGIWEWKGARGN9KBNSJCG9LTHMXESKHOITNGUIQJYJXHGRJIBQYGDMCXTHJXJRIXH","address":"TDTNKDXJPDCZPMECIXJN9PJRFDHBAWHSUKZL9MKOPELRMPT99KWJHPRUELBOHKSOAUFMNCDILCPVRMUJC","optimalPurchaseTarget":-100,"optimalPurchaseTargetScore":-100,"availablePurchaseTargetList":[],"optimalSaleTarget":-100,"optimalSaleTargetScore":-100,"latitute":"52.025971","longitute":"-1.950132","amountDemanded":"2","pricePrefered":"14","distancePrefered":"15","energyTypePrefered":"3"},{"index":25,"seed":"YSBPKV9HPXN9XTHJNNJIKXWBEUBLW9DPPB9JXTJQQKMXPMHHNJBGPBLSDKSEEVHRKTM9YCIYWGUCUCEAV","address":"WN9RANABUGSFZ9MZORHXUQOBWFWVYDCNXJQILOIGTBFDWJWAQPCIJRZGYWIQEZMKCJEGMTKLKTFLOZBPX","optimalPurchaseTarget":-100,"optimalPurchaseTargetScore":-100,"availablePurchaseTargetList":[],"optimalSaleTarget":-100,"optimalSaleTargetScore":-100,"latitute":"51.604936","longitute":"-1.304010","amountDemanded":"6","pricePrefered":"15","distancePrefered":"14","energyTypePrefered":"3"},{"index":26,"seed":"ETFSXCXILANWIWUMDEEAXPWPBXKQQJURHHAO9WNFUAWDPYSIEITPFLVDJEBFDVQLXOVSLTFRAXMRFKCQP","address":"XC9EBHS9FRKJDJIJVEUUTMHBNRMYAAYBPTXULZJR99KRGCYKCRYSSDMXVKOSVZXTBGTIVODAXCFOHKVDW","optimalPurchaseTarget":-100,"optimalPurchaseTargetScore":-100,"availablePurchaseTargetList":[],"optimalSaleTarget":-100,"optimalSaleTargetScore":-100,"latitute":"51.282155","longitute":"-0.599159","amountDemanded":"4","pricePrefered":"15","distancePrefered":"13","energyTypePrefered":"1"},{"index":27,"seed":"GGKHMOWVIFTQCJSDP9RPPRNELDIAFDGUQFFFGBHAIWUXDMOFUTCIJDB9UPKOQOCJ9SCD9UAXXNKOPXJRD","address":"UKXTVPWHIZCGMJJOKURCW9UPA9QZCSPZKMBIFQJSNQ9STQAKPMIUU9ZDBAAVGZDTXIWEVUVZZGPDZTZBC","optimalPurchaseTarget":-100,"optimalPurchaseTargetScore":-100,"availablePurchaseTargetList":[],"optimalSaleTarget":-100,"optimalSaleTargetScore":-100,"latitute":"51.932823","longitute":"-0.910171","amountDemanded":"2","pricePrefered":"16","distancePrefered":"11","energyTypePrefered":"2"},{"index":28,"seed":"EQIUPMJQXSAXYKJEJJJVUFNCPMAAQWQFVEFYH9EBJYID9UFTAOYAUYGS9HPIKYCVR99EGWDFBVUFFRE9E","address":"RCKLO9TJAMMKYQNA9BWDCIFQF9IQUHWSVWSHXQR9USPHACZUUOY9PGFO9OMJBKVBTGJFERQZDNYPQGAY9","optimalPurchaseTarget":-100,"optimalPurchaseTargetScore":-100,"availablePurchaseTargetList":[],"optimalSaleTarget":-100,"optimalSaleTargetScore":-100,"latitute":"52.092377","longitute":"-1.683407","amountDemanded":"3","pricePrefered":"15","distancePrefered":"14","energyTypePrefered":"2"},{"index":29,"seed":"9TXRX99IYNESTEOGJHKXYKMXJFPJHXDWNPJDYDFOLGMQ99UHPWIYHMBCNRKLBD9ODDDMLXWPWDIQIOPUQ","address":"9TRWECPDRXMJLKDJXGXEAGNZLMAYNSETSRKGQECIOETCPMLFEJCFMLYJPVQNOWAKUDNWVPC9HOKIFZGRW","optimalPurchaseTarget":-100,"optimalPurchaseTargetScore":-100,"availablePurchaseTargetList":[],"optimalSaleTarget":-100,"optimalSaleTargetScore":-100,"latitute":"52.240392","longitute":"-2.299572","amountDemanded":"5","pricePrefered":"15","distancePrefered":"13","energyTypePrefered":"1"},{"index":30,"seed":"NSND9BYGJYAUUHKVAIRFBO9KJ9QCIBKUCYAWNQTVOFBFHVHWDSCMQMXNLGOPSUORFHFIDGLMOLLJAWSLO","address":"PJNRBGKVZJXFVWUFJJVKPHPQJRVB9WJCGNFZMEFFTKXAOJBQOOHMJYXHYATZHRNPSPKSXLWVB9YXTEQZC","optimalPurchaseTarget":-100,"optimalPurchaseTargetScore":-100,"availablePurchaseTargetList":[],"optimalSaleTarget":-100,"optimalSaleTargetScore":-100,"latitute":"52.416234","longitute":"-0.309618","amountDemanded":"5","pricePrefered":"16","distancePrefered":"13","energyTypePrefered":"2"},{"index":31,"seed":"GDXWRMEBWYO9CTA9FGRWTRJDHYRUVCNRCMMTGTNLADCPYELNREHLJYX9PMLQJO9LHDICUREIKFJB9XKPC","address":"9KOJBQFKKJYW9AXLWZESELUNUNNRQVKB9HHXRSUCVDXSMPSINVCWKUYXNSNKTRBAJKRWGSREQCOIAEJOY","optimalPurchaseTarget":-100,"optimalPurchaseTargetScore":-100,"availablePurchaseTargetList":[],"optimalSaleTarget":-100,"optimalSaleTargetScore":-100,"latitute":"51.676548","longitute":"-2.042925","amountDemanded":"5","pricePrefered":"14","distancePrefered":"15","energyTypePrefered":"4"},{"index":32,"seed":"VUUKQWI9DCIVVSEQJSPHA9DF9AU9VJIJEPXDLJANAF9BQDSWONKTTNCNSCMTAXPXJTMYCWUVNCXSVQMXG","address":"EYZOOFENWIEXYCGLQZYMKYIUCVIWHHELZXEHFI9MBICTEUQ9QMNPTCADRVBWQHLVWVEM9ZRVSJTHPNRFY","optimalPurchaseTarget":-100,"optimalPurchaseTargetScore":-100,"availablePurchaseTargetList":[],"optimalSaleTarget":-100,"optimalSaleTargetScore":-100,"latitute":"51.343878","longitute":"-1.868878","amountDemanded":"2","pricePrefered":"16","distancePrefered":"14","energyTypePrefered":"3"},{"index":33,"seed":"AX99IFLUVAPXFCVEWGYDMRYKDTGKVTXLL9BMUTHJWEPYSHYYUYQECHU9LEGM9KSD9RRISLFANOFVVTGGE","address":"EFJNTOMJ9TJHWHSFKYLXVAMPJHWHUCIEJBVCCWPTO9XZBQWEWXMRNCPVOMFMLKOZANOJEEAAZZMDRARNW","optimalPurchaseTarget":-100,"optimalPurchaseTargetScore":-100,"availablePurchaseTargetList":[],"optimalSaleTarget":-100,"optimalSaleTargetScore":-100,"latitute":"51.902248","longitute":"-1.766490","amountDemanded":"4","pricePrefered":"15","distancePrefered":"12","energyTypePrefered":"2"},{"index":34,"seed":"UTGTMAPU9XKA9UWVMNCCSITWXQQRKLVKC9IURNRJTXHTRBOWFKQ9J9H9NBNKUDGLYJRNUBVBNKLFJKSQA","address":"PEOJZAGQUZOUQXSEK9XWZKUKJTWJZRMDCDNFUDTFEVCBBPPAZKVKYXC9AAZYIVPKTNMVZZWHCVSSUBOR9","optimalPurchaseTarget":-100,"optimalPurchaseTargetScore":-100,"availablePurchaseTargetList":[],"optimalSaleTarget":-100,"optimalSaleTargetScore":-100,"latitute":"52.380785","longitute":"-2.293761","amountDemanded":"5","pricePrefered":"15","distancePrefered":"12","energyTypePrefered":"4"},{"index":35,"seed":"D9EMRWO9RFDFAJWHHIAHYHHQPFVIVJKCOSOHRIXUHYJDOBM9AHKKCVAVQIYHFOFXYAQYWOGSGNYMUOPET","address":"ILAHBYCGTGGJVW9XHFMJWXXS9UMEEFFGIKEXJWOHKU9EOZLMSWRBYPIOIUURWGQAENPEAKSPFGXEBHQLX","optimalPurchaseTarget":-100,"optimalPurchaseTargetScore":-100,"availablePurchaseTargetList":[],"optimalSaleTarget":-100,"optimalSaleTargetScore":-100,"latitute":"52.328558","longitute":"0.062181","amountDemanded":"6","pricePrefered":"15","distancePrefered":"11","energyTypePrefered":"4"},{"index":36,"seed":"YTUTBDRTEYNJRK9OJQQVOYEASINFNMFFDWNQOEWJDEQB9GEH9EXXJ9KVDMBVLTVLWHSEQTMVEMPKDFMHB","address":"TNGOZYKQFEDHOVHHDDR9OSECHN9Y9YBC9QQDJXHVOZSTTFAFFWMOOA9GJSBPDQJKA9XTGKIOOIRQMPXWW","optimalPurchaseTarget":-100,"optimalPurchaseTargetScore":-100,"availablePurchaseTargetList":[],"optimalSaleTarget":-100,"optimalSaleTargetScore":-100,"latitute":"51.664794","longitute":"-1.594549","amountDemanded":"5","pricePrefered":"15","distancePrefered":"14","energyTypePrefered":"2"},{"index":37,"seed":"EUV9BLWUETS9OUDTP9MCAYOVOF9KYRROIWMETYEKIGCNHEUVCVAUFRWSIJBKWJKEKWAQJMDCGJJEWWIBF","address":"LOUXA9FCBIDDGVLYEDMTQNCWSRTPRHFJRTXCRWBBYX9LETZZKH9NCNPRL9ACJFRBWPKBVTUARNEABF9WW","optimalPurchaseTarget":-100,"optimalPurchaseTargetScore":-100,"availablePurchaseTargetList":[],"optimalSaleTarget":-100,"optimalSaleTargetScore":-100,"latitute":"51.468157","longitute":"-0.865505","amountDemanded":"5","pricePrefered":"14","distancePrefered":"14","energyTypePrefered":"4"},{"index":38,"seed":"WFYAFP9RSPNEDJAXTVWGYGSQBRTWCQUHTGWCUILTHEXRCMHURVM99QIEIJCV9JYJLLQMHNUPXDFGKCIEH","address":"HEEEYZDJEMDUWIUZGXRACRCTMHWVDEFNDYBKRHLRUJFGM9JE9IAB99FIYXLWPTYOCYBCSMXHJG9WRSVVZ","optimalPurchaseTarget":-100,"optimalPurchaseTargetScore":-100,"availablePurchaseTargetList":[],"optimalSaleTarget":-100,"optimalSaleTargetScore":-100,"latitute":"51.284879","longitute":"-0.865797","amountDemanded":"3","pricePrefered":"15","distancePrefered":"14","energyTypePrefered":"4"},{"index":39,"seed":"IHW9IRRYKOBRNC9ASPLCFGSCJHBHEUIHIONHEPGOHMOKBKEXKVWEUSFVFDUPTQTWX9Y9ODKBQGBOQKOFG","address":"XSUFE9KGHIWSIPHROGWMIXNHATQTVVIZLYSRUZEQYUFOMLJDTKYLWAAMRVCJRBFV9DLKOW9QLKWEERRGZ","optimalPurchaseTarget":-100,"optimalPurchaseTargetScore":-100,"availablePurchaseTargetList":[],"optimalSaleTarget":-100,"optimalSaleTargetScore":-100,"latitute":"51.467251","longitute":"-1.917523","amountDemanded":"2","pricePrefered":"14","distancePrefered":"11","energyTypePrefered":"2"},{"index":40,"seed":"FEDMTLBCNXPQLHVYPHSMTLBFKTTRGIHKL9NLHMKFCXUVQVTOLNRJHPXKNASPTGBNGPKQYAJFYUDEIHOCB","address":"9NEW9SRHTEUBXEKZLEEJBDDYVEXTNT99NKHUBLBBGSOWSBPUMERFVCQAGTSKWUMUVQVBS9UWGZHTGYCJW","optimalPurchaseTarget":-100,"optimalPurchaseTargetScore":-100,"availablePurchaseTargetList":[],"optimalSaleTarget":-100,"optimalSaleTargetScore":-100,"latitute":"50.958870","longitute":"-0.939267","amountDemanded":"5","pricePrefered":"15","distancePrefered":"14","energyTypePrefered":"3"},{"index":41,"seed":"QRMVLLDEEXCQHQIOHYEEULSJUAIHS9WPADVLFTFFTJOEOE9MQXSINBQIELTGVKMTETEBKCPIHLNXDJPEY","address":"HL9GCGIMKEYSTZPTAEWKCHBZGRFMMVHPUWXSOHJEIKAKOGGSRCPZTXLOHLXQRDQFCNTYZKKWJQBNFQHGY","optimalPurchaseTarget":-100,"optimalPurchaseTargetScore":-100,"availablePurchaseTargetList":[],"optimalSaleTarget":-100,"optimalSaleTargetScore":-100,"latitute":"51.415455","longitute":"0.072427","amountDemanded":"4","pricePrefered":"15","distancePrefered":"14","energyTypePrefered":"3"},{"index":42,"seed":"FYOWTQS9JLTIPNSJIXTSQXJPKAUYVMEFVA9MTB9TUU9UUNDALUTMVC9MPALLTMIDPNORXV9SJKYTOFAWJ","address":"BHIKGOSDDIZWS9VFPMEBTPZGHLICUYSGUNGAJSGTKEXRVIAUBDUSERBDBKXMEWXXTDCTZFHLQLKURQSUX","optimalPurchaseTarget":-100,"optimalPurchaseTargetScore":-100,"availablePurchaseTargetList":[],"optimalSaleTarget":-100,"optimalSaleTargetScore":-100,"latitute":"51.565546","longitute":"-0.123265","amountDemanded":"2","pricePrefered":"14","distancePrefered":"14","energyTypePrefered":"0"},{"index":43,"seed":"SGUXHGJPRWPYDVSNFJUGVKNFJTBHHK9KRCNDARYU9TITJBHIW9SXJVODYLMPTWHCSBOW9MLUQTTHGC9SH","address":"MCF9NOQMBPSSNXEWZSUOAPQZ9TBLCNRHJUCMUFCRRJHPOFXOSCO99ZPBFSXDMLGKSZ9HKAXQZ9GUIHOTC","optimalPurchaseTarget":-100,"optimalPurchaseTargetScore":-100,"availablePurchaseTargetList":[],"optimalSaleTarget":-100,"optimalSaleTargetScore":-100,"latitute":"51.472502","longitute":"-1.684882","amountDemanded":"6","pricePrefered":"15","distancePrefered":"11","energyTypePrefered":"1"},{"index":44,"seed":"DKO9PUTQMRVEXLKKSBI9DQCRADJSMSPRMLEYVMYKUSBHEOAQPIHBFKWTTYILGHMEGGKCGLNGIJYCTAUO9","address":"LSEHGCPRFZQFMWLDSNODABHYEZPYMGYXPQDDYMWJSKYGZGLJQMYIRBIFARYRMAJS9WQPOFQRUYJL9FLYW","optimalPurchaseTarget":-100,"optimalPurchaseTargetScore":-100,"availablePurchaseTargetList":[],"optimalSaleTarget":-100,"optimalSaleTargetScore":-100,"latitute":"51.030005","longitute":"-1.367520","amountDemanded":"2","pricePrefered":"15","distancePrefered":"13","energyTypePrefered":"3"},{"index":45,"seed":"XVFTOUNUWAEQWGGG9P9MOMOBIXWXOYCDMPCNBAMPSCL9BOK9ELDE9WAICKGDDGOVUTCOVWRMJNVLAFMXF","address":"USDRXCGEUN9XDJ9GUAXHBEYUP9VTOHUDLMDYLBJCWBIT9RQPNNPPHKAPXELYZJXFYSMDBRJZRIR9DHPSW","optimalPurchaseTarget":-100,"optimalPurchaseTargetScore":-100,"availablePurchaseTargetList":[],"optimalSaleTarget":-100,"optimalSaleTargetScore":-100,"latitute":"51.738217","longitute":"-0.609974","amountDemanded":"4","pricePrefered":"15","distancePrefered":"14","energyTypePrefered":"1"},{"index":46,"seed":"IVAEGIHEEQ9NOGMBDMLGQLMIHHSLJNEKDPUMDSSVNTTSPPRLDC9FMS9QYUIGMSEKFBMARCAIWVISBXCKM","address":"S9VLT9TAXARHNPGIIOPDXICJTFGKWPNZAXGDVFXNCOETZLGMQLHGKDGCYWFBQCDGVLSTVPMF9LLYVLCFD","optimalPurchaseTarget":-100,"optimalPurchaseTargetScore":-100,"availablePurchaseTargetList":[],"optimalSaleTarget":-100,"optimalSaleTargetScore":-100,"latitute":"51.155841","longitute":"-1.558360","amountDemanded":"6","pricePrefered":"16","distancePrefered":"11","energyTypePrefered":"3"},{"index":47,"seed":"LS9CNIHNRMMTAUOPIGAUWBQDNDTHT9F9DKOWEKOBRCNUTUKCTILUQTIKABASTSVJUXJPPCPWGIRGANGEW","address":"PTUBJVWMSXAQATPJKDJATTSR9VKLFJYEQWSIKXETOXKYBTAMAKRQSCROCYRQIPRTJJBXYVJZMPQAMRAQA","optimalPurchaseTarget":-100,"optimalPurchaseTargetScore":-100,"availablePurchaseTargetList":[],"optimalSaleTarget":-100,"optimalSaleTargetScore":-100,"latitute":"51.616429","longitute":"-0.996753","amountDemanded":"6","pricePrefered":"15","distancePrefered":"11","energyTypePrefered":"3"},{"index":48,"seed":"ERXNJCSDDCS9CDACCMERRAIKHAG9JSSUKAEKOCBHUIJYVHBEEFEEDFFIP9FWKN9DLFIJHEFBLBIRNMRQP","address":"NPIVN9CXRUGVRNLFYYCQTYOWBBTNCRRK9WLALINKPPLYWKCKADNXHZ9SRZPZIXK9QMBVKJNUNUMWBPCVY","optimalPurchaseTarget":-100,"optimalPurchaseTargetScore":-100,"availablePurchaseTargetList":[],"optimalSaleTarget":-100,"optimalSaleTargetScore":-100,"latitute":"51.509447","longitute":"-1.932906","amountDemanded":"5","pricePrefered":"15","distancePrefered":"11","energyTypePrefered":"2"},{"index":49,"seed":"WBFTCOTREWLSBMT9QU9HW9LKRJB9TYWQUGBBGEYXUTGPTLTEDFSRANBIOJFRHYRSKBET9NWMFAYHV9BLJ","address":"YHWHNQDCJ9RTIZPZNQ9FXAMGFGCFDLYJPTKOZJ9HQIWTRBGIRVLHLK9ARCGD9SUDXBAHNQFA9NWULU9AX","optimalPurchaseTarget":-100,"optimalPurchaseTargetScore":-100,"availablePurchaseTargetList":[],"optimalSaleTarget":-100,"optimalSaleTargetScore":-100,"latitute":"52.266932","longitute":"-1.729324","amountDemanded":"2","pricePrefered":"16","distancePrefered":"11","energyTypePrefered":"2"},{"index":50,"seed":"LGWDLETLLIXBTXFFIQARC9YAYQDIUDGGVFJTXB9INYFGIWLMBVVCRMJVCKQJSRR9OUTFIKTNBJQYCFLFX","address":"Q9NJWAQJWDPK9OFHFQRWK9NNATFTWMCQZSRN9KEUMRUNKEKPQMGPUSRGOHRJRIRELIUSYEYKZCSIDHC9C","optimalPurchaseTarget":-100,"optimalPurchaseTargetScore":-100,"availablePurchaseTargetList":[],"optimalSaleTarget":-100,"optimalSaleTargetScore":-100,"latitute":"51.987022","longitute":"-2.163396","amountDemanded":"2","pricePrefered":"15","distancePrefered":"12","energyTypePrefered":"1"},{"index":51,"seed":"CVUNAASWNTIPNWBKTYLNYFHEFPBVJYBKKOQROGWYNHNYDEGVDYPSEBVMVQACPAUBUIQFIEMSLGFYLWWTE","address":"LFHMTXRZHU9GCZTB9KGROCPHPO9NFJDMJGTDYJNRAVSOFYMUIXNFSFZFXMZVLRUBGSEXPRNJRBBZJ9BYD","optimalPurchaseTarget":-100,"optimalPurchaseTargetScore":-100,"availablePurchaseTargetList":[],"optimalSaleTarget":-100,"optimalSaleTargetScore":-100,"latitute":"51.955764","longitute":"-1.548192","amountDemanded":"5","pricePrefered":"15","distancePrefered":"11","energyTypePrefered":"1"},{"index":52,"seed":"AJNLECKUXIFJRMJVOBCPHSEFSQDBGRMCJIUIHDQVPYALOCJIALEANFVKNNHKTLYNDBNCBYEXTCQCLCCUT","address":"KBLYAFKMZT9JIPOSKW9TJSRCUSTDYABZMMJGDSQGCTDQGWEVZDRYGSS9JEGVW9WWZRCG9EOWPZGS9ZF9W","optimalPurchaseTarget":-100,"optimalPurchaseTargetScore":-100,"availablePurchaseTargetList":[],"optimalSaleTarget":-100,"optimalSaleTargetScore":-100,"latitute":"51.083122","longitute":"-1.488820","amountDemanded":"5","pricePrefered":"15","distancePrefered":"11","energyTypePrefered":"1"},{"index":53,"seed":"FRLLD9XFIHMRONOEYUMWFCOJHTBD9XKNRTCTGWXROJCID9OOKLYEMDJVHTSTDNLE9RHRIHFEIWBDDAFWD","address":"JKKMHVUAJUZLNPNVLSTRMWKSBPO9MKUP9WFWOHHJBVCPVPISDOCU9HYHUQCTRGGGOWXFZHO9JZCEJFFKB","optimalPurchaseTarget":-100,"optimalPurchaseTargetScore":-100,"availablePurchaseTargetList":[],"optimalSaleTarget":-100,"optimalSaleTargetScore":-100,"latitute":"51.160128","longitute":"-1.400311","amountDemanded":"1","pricePrefered":"16","distancePrefered":"13","energyTypePrefered":"2"},{"index":54,"seed":"UHDTLYQ9TRJJSHPUJEXXHLKXX9ONPGBYWAEAGLXIJQHKPUEMMLCXHKNDSLEGLMFYMCUIS9YSHGNICLNCJ","address":"YHMOZGLINBA9AUMTNEECQBABXKP9EQRDWUN99DHZHOJDMMOVJJNPEFQMAXGDRAX9KNYHQ9XBCMVRWZPCD","optimalPurchaseTarget":-100,"optimalPurchaseTargetScore":-100,"availablePurchaseTargetList":[],"optimalSaleTarget":-100,"optimalSaleTargetScore":-100,"latitute":"50.975754","longitute":"-1.687843","amountDemanded":"3","pricePrefered":"14","distancePrefered":"14","energyTypePrefered":"4"},{"index":55,"seed":"UQTQXVCJLGFVNUTQIQCFMPOPKIA9QWBJGOOPPF9LVVLTH9LLX9RDKTAAWPEMHOFKKXFOHVIPEJQBGDPGX","address":"BBPKN9NVWEVIJDIRZSFFHJUIDIFYVJYAFSPKOR9GSDPXR9RZKV9FSTHJKRZZHIG9LYRYKQCMBUSOKNWQX","optimalPurchaseTarget":-100,"optimalPurchaseTargetScore":-100,"availablePurchaseTargetList":[],"optimalSaleTarget":-100,"optimalSaleTargetScore":-100,"latitute":"51.819284","longitute":"-2.254031","amountDemanded":"2","pricePrefered":"15","distancePrefered":"12","energyTypePrefered":"2"},{"index":56,"seed":"YYCQTMWGNDGMOUKUPBYWWCBOYXLEEDTFOWLNPSKNBSTWJKRKYOAMVGVHOVHGPXYQCPBKFXDGLQNVHNAWM","address":"OXPQTNDMRELGKFYEBMHCTXVFGMZVXBVTHPABHDVNUZSUSY9XBHNXSDEAI9OGTXDAIRRZTSDTQYHADMJTX","optimalPurchaseTarget":-100,"optimalPurchaseTargetScore":-100,"availablePurchaseTargetList":[],"optimalSaleTarget":-100,"optimalSaleTargetScore":-100,"latitute":"51.503211","longitute":"-1.319917","amountDemanded":"2","pricePrefered":"14","distancePrefered":"14","energyTypePrefered":"3"},{"index":57,"seed":"HYLSVNMEDCJJOIACGICEEVLNWDYKTVMWSMOTVHIGEDCNYNUSQPEDLDMNHBAUQ9UPRAGIJHA9EMLEENT9R","address":"JUYHKFXSUDTF9YDVPMVKF9UADAIGXQOSVRKUYQGGCMYIPSOJTEMEAIJPNZO9AXPRVSLARSXGZJDUXFQV9","optimalPurchaseTarget":-100,"optimalPurchaseTargetScore":-100,"availablePurchaseTargetList":[],"optimalSaleTarget":-100,"optimalSaleTargetScore":-100,"latitute":"51.857354","longitute":"-1.202327","amountDemanded":"5","pricePrefered":"15","distancePrefered":"12","energyTypePrefered":"3"},{"index":58,"seed":"FNYYSYBFLYIWVWLDKRVRBXWJOMCLRRSKEHFCKCSKOAFXCHANCVQLERSCHQOTYULCGVIKXNFEGAQMVUVFL","address":"IBHEDLEQRFJRAPUTAIKJESENHNOUGQDFYDFO9PIRL9DS9ALALSEPSUHWTGAGZERTSABQRYOO9UNUVMUN9","optimalPurchaseTarget":-100,"optimalPurchaseTargetScore":-100,"availablePurchaseTargetList":[],"optimalSaleTarget":-100,"optimalSaleTargetScore":-100,"latitute":"51.067995","longitute":"-1.134175","amountDemanded":"4","pricePrefered":"16","distancePrefered":"13","energyTypePrefered":"1"},{"index":59,"seed":"XFHAWJGIWLSAPPBUPLSTFRBWHTWYWOSIOQTFHRITUNVCXLDWTPQWLYTMADFUVKVUFIXLGCXIYNUMCPLFT","address":"VBQMLBGZYHRUTDUSPAMLQTGDTHTTTASHBNZWZYNQBLVCMOWCWOFAQVYRSWIFU9HINLHUJSSOWRIKLKFN9","optimalPurchaseTarget":-100,"optimalPurchaseTargetScore":-100,"availablePurchaseTargetList":[],"optimalSaleTarget":-100,"optimalSaleTargetScore":-100,"latitute":"52.147009","longitute":"0.205978","amountDemanded":"4","pricePrefered":"15","distancePrefered":"14","energyTypePrefered":"3"},{"index":60,"seed":"OYKLBJSBOGPACET9IJBJGWKXOJBSSRPRIQDFFUQQQALONVXTYAHUAEVYDWMPOVMBRFVXEJPAKFIXKIRDT","address":"9JEHAW9VLVQXTITMJMUEYBFU9JFZCSPMWNRSBVYYYXIS9HIFWRHJGERDCFXQUHVKFQKNCVPPYCXW9EMOX","optimalPurchaseTarget":-100,"optimalPurchaseTargetScore":-100,"availablePurchaseTargetList":[],"optimalSaleTarget":-100,"optimalSaleTargetScore":-100,"latitute":"52.185893","longitute":"0.290258","amountDemanded":"4","pricePrefered":"14","distancePrefered":"11","energyTypePrefered":"3"},{"index":61,"seed":"IHWHH9SQMYSMSDDIDRQ9H9WTINNPAVLKLEJLEKYJPSOVGTAPCWFGBMINBVLVKG9ETPNBKFPKMIE9IGVXX","address":"RCGQHQSCEUOP9QAAQ9EESAKS9IIFIMIXFDWZUJZBNNIELHMLGMWEOBSAHDUYICMXOQBJKGUZUGQ9RYDMA","optimalPurchaseTarget":-100,"optimalPurchaseTargetScore":-100,"availablePurchaseTargetList":[],"optimalSaleTarget":-100,"optimalSaleTargetScore":-100,"latitute":"52.074727","longitute":"-1.989746","amountDemanded":"3","pricePrefered":"14","distancePrefered":"14","energyTypePrefered":"3"},{"index":62,"seed":"LVGUKWKWLUQMANFMCKQQSCFDULWKYEYHWBLKOQKTFKQNTN9XNSFQUQTXPCNDFYCNQGDOUTXBGUBTNUBIB","address":"GARYFALPXSTOGNTIL9PDTWS9NYRQUJAXETMDPVSFIYGFJZKYKJXCCQ9UDWRGWIVNCTRME9QQQQBNPKGAX","optimalPurchaseTarget":-100,"optimalPurchaseTargetScore":-100,"availablePurchaseTargetList":[],"optimalSaleTarget":-100,"optimalSaleTargetScore":-100,"latitute":"51.222390","longitute":"-2.342044","amountDemanded":"3","pricePrefered":"15","distancePrefered":"13","energyTypePrefered":"2"},{"index":63,"seed":"NNWSXUCFQKHRXQWBWBQNJUUKMDNNQTEWTPQYDYNWKX9UQYCBRSLIVJVPRMQKRBAFNPCRJFLHJEFOIISKG","address":"UNHKZOAZOJONREHIJGYHFC9XAVTABJPHU9EDSGYIAWQNZH9MEHSMKGHHY9YZDPXILNUKDFCDGSMFLMXYW","optimalPurchaseTarget":-100,"optimalPurchaseTargetScore":-100,"availablePurchaseTargetList":[],"optimalSaleTarget":-100,"optimalSaleTargetScore":-100,"latitute":"51.600611","longitute":"-2.373523","amountDemanded":"2","pricePrefered":"15","distancePrefered":"10","energyTypePrefered":"1"},{"index":64,"seed":"LUHSHJGSRJFHNORPQVAUYORHOOTPPGU9BQVWAFCSVBADKQMTJUXJQ9QBGMKTYJQPGIGYWEAVMTJVU9LGM","address":"QLKZNOEZXDQWJJAE9RWKCJSIEDXJWTMIEKPPYCHGYMKSMTVOGHBOJKLAEUWQVWCTLRHCMMWCIARILGJGY","optimalPurchaseTarget":-100,"optimalPurchaseTargetScore":-100,"availablePurchaseTargetList":[],"optimalSaleTarget":-100,"optimalSaleTargetScore":-100,"latitute":"52.198611","longitute":"-1.409600","amountDemanded":"1","pricePrefered":"15","distancePrefered":"10","energyTypePrefered":"1"},{"index":65,"seed":"QYQWAJQYCQVLILVFCNDDMEIGDTKYBJYKMCFYNL9AHKMN9XXMJ9GAM9TKCOXXRLGYGOCFNJCIOEOBPOBEK","address":"OQTCHRBTGCJXYFVRVDYXSO9ZQYOTSHLGCIGLRQMOJZDEFCIJYEGXOOUIGJNKQKVAHQVVYBTZOEELWHFSX","optimalPurchaseTarget":-100,"optimalPurchaseTargetScore":-100,"availablePurchaseTargetList":[],"optimalSaleTarget":-100,"optimalSaleTargetScore":-100,"latitute":"50.988724","longitute":"-1.010181","amountDemanded":"4","pricePrefered":"16","distancePrefered":"14","energyTypePrefered":"3"},{"index":66,"seed":"UE9XHKRWPK9DUJQTKBSNISCXFHHWLY9VNBBAOQSX9THIG99FGBBIWUBDUTPKR9SXTUDCHXRWVMNBUPJRC","address":"CIUYH9SCQHELKYZNLZLLOGVLWVFKPM9GJRZVKMUBZCTTXVNZMFBMAQLMQIBFZGYMJNUIXPI9RSGISKSYB","optimalPurchaseTarget":-100,"optimalPurchaseTargetScore":-100,"availablePurchaseTargetList":[],"optimalSaleTarget":-100,"optimalSaleTargetScore":-100,"latitute":"51.119910","longitute":"-0.932558","amountDemanded":"2","pricePrefered":"14","distancePrefered":"11","energyTypePrefered":"1"},{"index":67,"seed":"MPKVOVLUJHQLXCHBTJIEKETRCBH9IHAPXQNNVIYT9SFPYYNVMHHRHANTQMMXACQMIPTALPYFTUUKMUQLJ","address":"ZBIWNVMRJZWOOBJBBORDVW9GEVALTYIOAXRFOKSEUPSGOOXQK9H9ESQCCIELKYWGSAIPUFRD9IRRCEHGD","optimalPurchaseTarget":-100,"optimalPurchaseTargetScore":-100,"availablePurchaseTargetList":[],"optimalSaleTarget":-100,"optimalSaleTargetScore":-100,"latitute":"52.030514","longitute":"-0.952498","amountDemanded":"5","pricePrefered":"14","distancePrefered":"13","energyTypePrefered":"4"},{"index":68,"seed":"9QBTSPFKOQHVLEPEJOENHBSQRYPQSLPFDN9UGTRGDO9SIJCMYUDYFJSEUJPBPLJBIUKFMIMIBGDUT9FSF","address":"S9PPCTXGYSSD9YLCTRPAPEDARJUOYI9RWIWIPSRZUICJOZECRBIJTBKLLCLYWHMGKCPWAJETOJHLIOUYC","optimalPurchaseTarget":-100,"optimalPurchaseTargetScore":-100,"availablePurchaseTargetList":[],"optimalSaleTarget":-100,"optimalSaleTargetScore":-100,"latitute":"51.899213","longitute":"-1.050601","amountDemanded":"4","pricePrefered":"15","distancePrefered":"10","energyTypePrefered":"4"},{"index":69,"seed":"OGAFKKBWBTUP9BHGDWSAHJE9UHFKRCR9LGKWFAFB9VUWPLTVSKGYDVCL9XXXHTLFBHCVJOMFRSIQUBEKV","address":"NZTTHJL9SNZDTXKIQNBCAPNRXYEHPFDEASXTEVS9SILKJE9MJGDMIQRVJKCKYUOTXBDAHDKCHHXOZYWGY","optimalPurchaseTarget":-100,"optimalPurchaseTargetScore":-100,"availablePurchaseTargetList":[],"optimalSaleTarget":-100,"optimalSaleTargetScore":-100,"latitute":"52.376817","longitute":"-0.431215","amountDemanded":"1","pricePrefered":"15","distancePrefered":"11","energyTypePrefered":"2"},{"index":70,"seed":"D9MQSQHCQIEUQPQTDMADWDMKP9TVFGDAEONISVHNDGMCQDYPDKNWDIWEJKGIHQSRELWXMQQMMVMSSFBHX","address":"EOSOKRIMWTXPSGAWFGXDXD9PNWDRKCYZDXDIMUTSJDYJDPHKBXHHABBDSDV9DXWC9IMNZJGVJYXNOIEZ9","optimalPurchaseTarget":-100,"optimalPurchaseTargetScore":-100,"availablePurchaseTargetList":[],"optimalSaleTarget":-100,"optimalSaleTargetScore":-100,"latitute":"51.646637","longitute":"-1.287585","amountDemanded":"3","pricePrefered":"15","distancePrefered":"10","energyTypePrefered":"2"},{"index":71,"seed":"OBBKXTPONHNPBNKWNRRSPCDVRLILHKSYAJCOLBJFNGWTTKHRYPUYKDMQKJCQFWHVVQBNQRCAAJUNIYFLG","address":"USZLRM9JKLPPYLHRBCTRSKGMLXSQOZUUONRWOUYXS9CLYIRMMLW9PQRQGTNROETXHBHQYCFQRCBMHM9UW","optimalPurchaseTarget":-100,"optimalPurchaseTargetScore":-100,"availablePurchaseTargetList":[],"optimalSaleTarget":-100,"optimalSaleTargetScore":-100,"latitute":"52.237243","longitute":"-0.938063","amountDemanded":"3","pricePrefered":"16","distancePrefered":"12","energyTypePrefered":"3"},{"index":72,"seed":"JSJNLNH99FFCBBTOCESCMHENMGUFLKRGBXSDBBTKBMPHWNHAOJMJEXPEFVPIYTETJGT9OLFOJMXIXTDHG","address":"KNV9UCYQPAQSIYTCXOWPKAHRJFSHP9TWWUJDFRPZX9YN9FRLFGBYELESJUAZQETRBRCKLIN9WHYITVLLA","optimalPurchaseTarget":-100,"optimalPurchaseTargetScore":-100,"availablePurchaseTargetList":[],"optimalSaleTarget":-100,"optimalSaleTargetScore":-100,"latitute":"51.995991","longitute":"-0.424775","amountDemanded":"5","pricePrefered":"14","distancePrefered":"11","energyTypePrefered":"4"},{"index":73,"seed":"CVPUBYSECURUCOPIOXYBGAMMSQFVVQDJRIEVXNEXHDNESEDQEITXBIRQPABQCBHRLROCQQKDWDSSHL9TD","address":"TYAURWDIAAOIMPMRFLXSBY9SAJRNOWNEQXQDQUWADHVNRWLYSW9HQBQTBFUGXE9ZSVRCUBQDMCVEJCGUA","optimalPurchaseTarget":-100,"optimalPurchaseTargetScore":-100,"availablePurchaseTargetList":[],"optimalSaleTarget":-100,"optimalSaleTargetScore":-100,"latitute":"51.005719","longitute":"-1.734545","amountDemanded":"5","pricePrefered":"15","distancePrefered":"10","energyTypePrefered":"0"},{"index":74,"seed":"CTTJIJVBYKQWYQYHNSBJCFHQVPPJVGOFH9DLFQTMBRVADKBMLIRBUBVEMQLYYVOUEEXPFDTRRTDCBYSBY","address":"UUDFLKEQOSCFXULQKOJYI9GXMLBERDGZQVLAVIXSTFAKYVNMJCO9PWWZOWNJFAASGJAYMXWSYMVLU9BBC","optimalPurchaseTarget":-100,"optimalPurchaseTargetScore":-100,"availablePurchaseTargetList":[],"optimalSaleTarget":-100,"optimalSaleTargetScore":-100,"latitute":"51.917497","longitute":"-1.337840","amountDemanded":"4","pricePrefered":"15","distancePrefered":"12","energyTypePrefered":"3"},{"index":75,"seed":"T9GYJJJNHQCMHQCKOSUXIQIWALESLARKQRFGHQHWGVVHDFA9SYMWCECCEMJJDSTHGA9EMYLJWALDO9UXS","address":"IDDKHBXXDPMLQDWHTXKMVVHSMMWTMISOCQOSYZRPWWQLJYXNXBVMXAOVNEYAAPRSAIHVHBVYAUCIPMZBC","optimalPurchaseTarget":-100,"optimalPurchaseTargetScore":-100,"availablePurchaseTargetList":[],"optimalSaleTarget":-100,"optimalSaleTargetScore":-100,"latitute":"52.427123","longitute":"-1.649241","amountDemanded":"4","pricePrefered":"14","distancePrefered":"13","energyTypePrefered":"0"},{"index":76,"seed":"IRCPFCMGOHMUDCYGWMHNQBYAONOJSQONVKPAJFBFK9TWHRWBD9IHXN9DENIOWTJVLHYJTVOYMGKKTWWIF","address":"RULVCTGOKBONSRPEYZSBRNTNROIUKS9COEJLVHU9DYPPEJUCSIZEAYGFWZVJQDJZWPCJTIPCHNNYPCEXZ","optimalPurchaseTarget":-100,"optimalPurchaseTargetScore":-100,"availablePurchaseTargetList":[],"optimalSaleTarget":-100,"optimalSaleTargetScore":-100,"latitute":"51.479952","longitute":"-1.443800","amountDemanded":"2","pricePrefered":"14","distancePrefered":"11","energyTypePrefered":"3"},{"index":77,"seed":"HTMAJVBVL9SNSOMDUBOWKBAXUAHHPMEOKOELUVFUQIEGPNXQXSXHCOOKAVLPQRGGRQANYJPTAFWHTRVWA","address":"BSASHGTELPMJJMDFK9PPTDNLRBAN9ZNTPR9GKHHTBUNPMIHJPXVEMMHKVMFEYHYVAQURVO9TKFVNAFCAW","optimalPurchaseTarget":-100,"optimalPurchaseTargetScore":-100,"availablePurchaseTargetList":[],"optimalSaleTarget":-100,"optimalSaleTargetScore":-100,"latitute":"51.426437","longitute":"-2.367101","amountDemanded":"2","pricePrefered":"15","distancePrefered":"13","energyTypePrefered":"2"},{"index":78,"seed":"BBPHGFY9EBL9OPCJHBVEPHMQETAPB9HBJLSMIXEHIOKCPICHTLBXRTWTKO9HR9FCJSGDIBTOSVMRAWF9I","address":"ZEGGMQQG9HDEPNWNIIABLEMUWKEWWIATRQFXKEUPMXRYCHQ9XYKUNOKQCOCLDQMA9BXXZUBSGGASEFE9A","optimalPurchaseTarget":-100,"optimalPurchaseTargetScore":-100,"availablePurchaseTargetList":[],"optimalSaleTarget":-100,"optimalSaleTargetScore":-100,"latitute":"51.401324","longitute":"-2.162910","amountDemanded":"3","pricePrefered":"14","distancePrefered":"11","energyTypePrefered":"0"},{"index":79,"seed":"UKJIYKTSRDSOSTWERGVYYVVBISKQBMIRQEVOCSSSMSXNHMWWWFYVOCXFPAPQQA9BXLITMKLPYNXRLCMTF","address":"KLYBM9UOQFYPADECJBDGJXFJBWBCVT9BQREYTSCWNNKZYAVPGRVY9SFKUSKGHXQTEMGQXVIAMUBRJILUY","optimalPurchaseTarget":-100,"optimalPurchaseTargetScore":-100,"availablePurchaseTargetList":[],"optimalSaleTarget":-100,"optimalSaleTargetScore":-100,"latitute":"51.250020","longitute":"0.077633","amountDemanded":"5","pricePrefered":"15","distancePrefered":"12","energyTypePrefered":"3"},{"index":80,"seed":"NDKEIURHHYTITBFXKBEPVGWGIXJAWNUBANJKRTJUJUVBFEFGNELRYBMKDNVMXCAONHICIMNDXN9HNJEJG","address":"FTYKCABIGGBBOPTQCODQMDGNKNRZPOZFTCWCFX9RSAUZANQYATLYOXTLOBMHOUQHQRFJKMGVGBNNKRUP9","optimalPurchaseTarget":-100,"optimalPurchaseTargetScore":-100,"availablePurchaseTargetList":[],"optimalSaleTarget":-100,"optimalSaleTargetScore":-100,"latitute":"51.757642","longitute":"-0.303672","amountDemanded":"2","pricePrefered":"16","distancePrefered":"14","energyTypePrefered":"2"},{"index":81,"seed":"HHHBEMTQ9ABUANFJIWCVRTHMMJEXVSHMPRQTGAPVSXBE9MGTQOOLISEKRVPIYOEMHEKCNXTKHKFRQAOVU","address":"CRTCTFIDBQUNSVMUDLQPHHLGVABCCEGVXMMAGENRTJZTVSEDUYAUTQYDZMQEDOKCYRYEPPCWETRKVFUU9","optimalPurchaseTarget":-100,"optimalPurchaseTargetScore":-100,"availablePurchaseTargetList":[],"optimalSaleTarget":-100,"optimalSaleTargetScore":-100,"latitute":"51.600084","longitute":"-1.474610","amountDemanded":"2","pricePrefered":"16","distancePrefered":"11","energyTypePrefered":"4"},{"index":82,"seed":"IFYQOXD9ENFPPVJHDXASFPSBFBKBNKRN9NANPMTRARETB9YBJCJFSUSDJV9XXTIDVDUHXIOJRJLUUXDAR","address":"PFSIMFJSDVBGFIMJEQXSY9VSFQPOLEMIHZUPAYJYFBABZNDQCSZ9NGINTRCIUIEDLWQZIDK9CGWTFUR9D","optimalPurchaseTarget":-100,"optimalPurchaseTargetScore":-100,"availablePurchaseTargetList":[],"optimalSaleTarget":-100,"optimalSaleTargetScore":-100,"latitute":"50.992001","longitute":"-2.298290","amountDemanded":"3","pricePrefered":"14","distancePrefered":"13","energyTypePrefered":"2"},{"index":83,"seed":"RHUACXNXFXAI9EOE9VVGEGTMIEHMMHIC9RFCLNRALOWSSIKSIJVFDCFWJUVNPCTICCIWHJFXP9OUQYTCO","address":"ZIVPCLBWEFOUJQNJIMPRAMRDGF9OGYVEYH9YSIBEUPQIYDGKGLADHFMUVUABEBWPFTGKAVYWLUSS99JLX","optimalPurchaseTarget":-100,"optimalPurchaseTargetScore":-100,"availablePurchaseTargetList":[],"optimalSaleTarget":-100,"optimalSaleTargetScore":-100,"latitute":"52.051304","longitute":"-0.575260","amountDemanded":"2","pricePrefered":"15","distancePrefered":"13","energyTypePrefered":"2"},{"index":84,"seed":"LOGWKJGYUWBOIWHCABXFVIBNLNAJRBHHLVGWYQVITYCMJWAMUHMMLPXWQNNXAPXGJ9VHBQNDFAUTGCKGI","address":"OTXTURGFIA9TENSZFESQDOUV9GMGWTNVDZJE99JPSWVYNNDGRO9MGTHRPASORFQGQTCEPMTBGYWGNPKBD","optimalPurchaseTarget":-100,"optimalPurchaseTargetScore":-100,"availablePurchaseTargetList":[],"optimalSaleTarget":-100,"optimalSaleTargetScore":-100,"latitute":"52.071274","longitute":"-1.317793","amountDemanded":"1","pricePrefered":"15","distancePrefered":"13","energyTypePrefered":"4"},{"index":85,"seed":"FQDKCXPDVDLREKQNODOVXWHK9KINPPMFGAQGUVHBUGDHEDRYGYKGNEITIDDIPOJGUHPAEHEVYOVRNQ9XW","address":"AFHUZYDARXZWIUYXHXWQXSWOUJVF9NLO99DDGIBQOGKVVYQQWKNCHZKARUDSDPMGPEHGUQBCTUA9XKYA9","optimalPurchaseTarget":-100,"optimalPurchaseTargetScore":-100,"availablePurchaseTargetList":[],"optimalSaleTarget":-100,"optimalSaleTargetScore":-100,"latitute":"51.467468","longitute":"-1.856566","amountDemanded":"3","pricePrefered":"16","distancePrefered":"12","energyTypePrefered":"4"},{"index":86,"seed":"TLDXVLOLBCKKXLJFOFDX9OJIEGRVAKBDIJMTDREJQDFCDVYBLLDGNHXTLETQBLSATGV9QHWORDWIW9PNR","address":"EUDRDZVJYFNXCX9VLGBYLBBYEDOBWQCMFQAHMFH9UHKQNIL9BZWCQQDLHEEEJUPCJEOGKHW9DAOHGFEUD","optimalPurchaseTarget":-100,"optimalPurchaseTargetScore":-100,"availablePurchaseTargetList":[],"optimalSaleTarget":-100,"optimalSaleTargetScore":-100,"latitute":"51.748708","longitute":"-1.294561","amountDemanded":"3","pricePrefered":"15","distancePrefered":"12","energyTypePrefered":"1"},{"index":87,"seed":"HHVXVKHEVOAIFPBSPAWXECDYLWAGFTQJNM9BONX9NTHGAUTYFNWQ9HQHOJRRNTXHCOQTJIRONWBNLCB9F","address":"MVKY9TDGLW9MNZ9JGNBFPLZBUHZC9CHUJUTDLWVJVBFRDAFQNKL9UGRWRDDYPGHJVSR9IKGASHDVOCOHZ","optimalPurchaseTarget":-100,"optimalPurchaseTargetScore":-100,"availablePurchaseTargetList":[],"optimalSaleTarget":-100,"optimalSaleTargetScore":-100,"latitute":"52.253149","longitute":"-0.608143","amountDemanded":"2","pricePrefered":"15","distancePrefered":"14","energyTypePrefered":"0"},{"index":88,"seed":"UQTFNIKRFEM9PQENVHGNVPQYUF9UCJAGJVYWUANQKLNPDJUIACEXSQCCFLCNQXNKYY9AMKNIRRRYHBVHL","address":"Y9XYLHANRPJKHRCTYNCZSVQVRLLRSWMDISRWNHECFBLPRSWOOVJQQSXCGBNOMWFDUGYUPHEITBZBNWJUW","optimalPurchaseTarget":-100,"optimalPurchaseTargetScore":-100,"availablePurchaseTargetList":[],"optimalSaleTarget":-100,"optimalSaleTargetScore":-100,"latitute":"51.671564","longitute":"-1.873203","amountDemanded":"2","pricePrefered":"15","distancePrefered":"12","energyTypePrefered":"3"},{"index":89,"seed":"YJMOGPMWDVXQYBCNWUPXLAYABRWEAWSWHSUELFBQOJQVXSVNMNSURTVTG9TRKHYMDCWTXOTDEJIIDPWK9","address":"QKXWZHPYEBDTFGWYYIWNFUBWGIUMGPMPUUBDJUHTDALBQHRHNHBZKLYMUHFE9TEG9NAAJGBFSJCUCTZLB","optimalPurchaseTarget":-100,"optimalPurchaseTargetScore":-100,"availablePurchaseTargetList":[],"optimalSaleTarget":-100,"optimalSaleTargetScore":-100,"latitute":"52.043875","longitute":"-0.886534","amountDemanded":"2","pricePrefered":"16","distancePrefered":"13","energyTypePrefered":"0"},{"index":90,"seed":"CKKJWLIRBRCXA9YODWJGSDOQCFFADDLFAUVKOOJQ9YUHF9HWUWBHYSTLHQYSXLGEHSWRSSLOTLRJINBKU","address":"KYOCDYSZD9JDOPFRQHKTNXAE9MHXXYHMOZD9VEBRHNMCNXVKQLRUWEYTTQEMJYYRECJHZQHOGCHMAOTPC","optimalPurchaseTarget":-100,"optimalPurchaseTargetScore":-100,"availablePurchaseTargetList":[],"optimalSaleTarget":-100,"optimalSaleTargetScore":-100,"latitute":"52.034189","longitute":"-1.245610","amountDemanded":"6","pricePrefered":"14","distancePrefered":"11","energyTypePrefered":"4"},{"index":91,"seed":"WM9QWAKRFNUYYPNPDGFUTRJDEDARXTWMHET9PACMAX9FSGJADHGG9IBPOGCGOPRBUHHWLK9BVBIYVNKTE","address":"CJZWJ9TG9VGCXESRA9BAH9SEVBWVXLRWTOKZNYBOXIGNLEYSDMIVGC9CPMWEJXFUSMCGBS9E9NTTWVQE9","optimalPurchaseTarget":-100,"optimalPurchaseTargetScore":-100,"availablePurchaseTargetList":[],"optimalSaleTarget":-100,"optimalSaleTargetScore":-100,"latitute":"51.451561","longitute":"-0.492097","amountDemanded":"6","pricePrefered":"15","distancePrefered":"14","energyTypePrefered":"2"},{"index":92,"seed":"JVR9KOYYEBGTPHHCKGCCDMQWPUMHIIHCAULA9EOHYXJOXKOGPLTEEUEFDXDJ9KCSNU9XDUUBLDOS9IT9D","address":"WKNZUODFKKZNHIFLEWJQDKHEEKC9QONCSAUEURKVAWNEXCCOLTEHYPLPGBNFPHURNUBPLRCMPDOUADCZW","optimalPurchaseTarget":-100,"optimalPurchaseTargetScore":-100,"availablePurchaseTargetList":[],"optimalSaleTarget":-100,"optimalSaleTargetScore":-100,"latitute":"51.738341","longitute":"-1.641161","amountDemanded":"6","pricePrefered":"15","distancePrefered":"13","energyTypePrefered":"3"},{"index":93,"seed":"CGJYUGFASIVLPNCAWYKEACOPBFTMAMBHSBADHLARFBJGKGF9UJFKGBWMTHNKVNWBJJYQOSEAKAEODHOUP","address":"MDHOQUCYHXXGTIGPSBDCIDIWHHXXPOFGOQM9UOVXIE9BVLEUUHZJE9TRNRFAXK9ICUOHIZHXIPVO9ZJEW","optimalPurchaseTarget":-100,"optimalPurchaseTargetScore":-100,"availablePurchaseTargetList":[],"optimalSaleTarget":-100,"optimalSaleTargetScore":-100,"latitute":"52.419640","longitute":"0.052363","amountDemanded":"3","pricePrefered":"15","distancePrefered":"13","energyTypePrefered":"2"},{"index":94,"seed":"QQII9HNSBPPMYAXGMYEFKDDFHAUVAOSFCIMOVNWWJMLBMCLGXNWPNKMXPXLVRBUDKGROADDWDMKWRHNKV","address":"KUP9QZVIYBGVIFKANFCBMAD9WATZTCJXOUXIOBEIIG9SSQFQKGNIHODSSDJSMXFMGRKSADTMNDPXDVYUY","optimalPurchaseTarget":-100,"optimalPurchaseTargetScore":-100,"availablePurchaseTargetList":[],"optimalSaleTarget":-100,"optimalSaleTargetScore":-100,"latitute":"52.061458","longitute":"-2.108851","amountDemanded":"5","pricePrefered":"15","distancePrefered":"11","energyTypePrefered":"3"},{"index":95,"seed":"JDVHNOQRNILRNSTQ9UQAVUNJKOQYJRVKANWUYYILIX9PRNFNKL9EDCFUEHWHCWSVMRMTWNLUMKEKTMXMT","address":"FXQYCMHIVKDLN9BEFJLRUMBHKLFRNOG9JGDFKRCSGIAWMVVEJBYPHNV9IAKRKLDX9AOKDCIAOACEQOZHD","optimalPurchaseTarget":-100,"optimalPurchaseTargetScore":-100,"availablePurchaseTargetList":[],"optimalSaleTarget":-100,"optimalSaleTargetScore":-100,"latitute":"52.270018","longitute":"-0.915879","amountDemanded":"2","pricePrefered":"14","distancePrefered":"11","energyTypePrefered":"2"},{"index":96,"seed":"ITYA9RMFGKDAEHGVSSDJLMMREPXIDFTISIMOWER9VNPYCHVALKBDFPWWNROHRQUNJNSURRMFY9EWIPDSF","address":"VXZPNVCNLCIFWPZDWMSMCIBHYAVCKTLVEJHTSN9PQQUNM9LNTNOEHONKREVZPAMTHNDNRYILBQB9FIKDW","optimalPurchaseTarget":-100,"optimalPurchaseTargetScore":-100,"availablePurchaseTargetList":[],"optimalSaleTarget":-100,"optimalSaleTargetScore":-100,"latitute":"51.467192","longitute":"-0.432546","amountDemanded":"3","pricePrefered":"15","distancePrefered":"13","energyTypePrefered":"2"},{"index":97,"seed":"TJXIFOLBQSUMFHSNXBWCCTMGQDEQMWKPNANJECVHYUB9FIHTSXFGOCNMYDPFHPNPUPHWLMI9NH9YTROQA","address":"YOWPR9WXDIPIDXXED9YZIOBJHQRW99O9JJJMWEYSTYURBAOVWPXRJBNBCKG9KZRBWBOTFVHF9XV9YKJB9","optimalPurchaseTarget":-100,"optimalPurchaseTargetScore":-100,"availablePurchaseTargetList":[],"optimalSaleTarget":-100,"optimalSaleTargetScore":-100,"latitute":"51.160291","longitute":"-1.102235","amountDemanded":"3","pricePrefered":"15","distancePrefered":"12","energyTypePrefered":"0"},{"index":98,"seed":"BAKTECUGTMUC9J9FNYDWXBEMXGSQTTHJTVDYLAIGAUWFOIGCYYJXFARIULVMNBCCIIWHL9LEKQYTKVXPH","address":"ZVXCPMQPG9APCGANSBKDIED9FTXSJGLFYCDHLAGCLSRXPVQOIK9YPFF9UOPZAGUESXMFGMKQVEZTCELAY","optimalPurchaseTarget":-100,"optimalPurchaseTargetScore":-100,"availablePurchaseTargetList":[],"optimalSaleTarget":-100,"optimalSaleTargetScore":-100,"latitute":"52.248642","longitute":"-0.215897","amountDemanded":"4","pricePrefered":"16","distancePrefered":"13","energyTypePrefered":"2"},{"index":99,"seed":"QBLCCMUASKVHFKEXGIXCYHREHYLE9EOHDQVIIPCCB99HHYLRDBXXSUYK9IKTD9OEJPSCVHXREKAVRRTJM","address":"ODCSMIZJPQSZEUJUQPGGJRHBJQYCSZE9TXLPXHONLUXSJLQXGSCEQAALVZEWTECGOVHGMISIIBEFQJSOW","optimalPurchaseTarget":-100,"optimalPurchaseTargetScore":-100,"availablePurchaseTargetList":[],"optimalSaleTarget":-100,"optimalSaleTargetScore":-100,"latitute":"52.017597","longitute":"-1.225872","amountDemanded":"2","pricePrefered":"14","distancePrefered":"12","energyTypePrefered":"1"},{"index":100,"seed":"FM9YYYSMBIFJKELQKTSYJEM9CTVEWNGJQSNVSRAPKWXDXFJTBFMODWALTBBQLXAHEXP9ANDJRDTVSTHVR","address":"OKZEXNINAXLHQOBNRCBPMRAZ9KIXACESBUMSDZKPGCUNXOCIAUYYICMRPVGGDYACQJGJYLLXKFUFGZJWX","optimalPurchaseTarget":-100,"optimalPurchaseTargetScore":-100,"availablePurchaseTargetList":[],"optimalSaleTarget":-100,"optimalSaleTargetScore":-100,"latitute":"51.854064","longitute":"-1.309932","amountDemanded":"5","pricePrefered":"14","distancePrefered":"14","energyTypePrefered":"2"},{"index":101,"seed":"SXMHH9TIJO9UNBDUCXLKJP9HWO9KV9HRKJRKPTJVIIXINVFUWDXBUJDWALYAQVISUCCNSXAJBKVSEWCUW","address":"CWBJCDPRBGBQRGSEBFEFLRBHXQZLVGZHIXDIRIPXHTW9MOUZJVWOTKYFMOBGKNZKEUHZ99OIGE9XA9JBC","optimalPurchaseTarget":-100,"optimalPurchaseTargetScore":-100,"availablePurchaseTargetList":[],"optimalSaleTarget":-100,"optimalSaleTargetScore":-100,"latitute":"51.840872","longitute":"-1.085984","amountDemanded":"3","pricePrefered":"14","distancePrefered":"15","energyTypePrefered":"2"},{"index":102,"seed":"WT9MKJEFV9NOBUBRDHKPCPNSOSUQSKWIYH9MOCBSGGRPIE9NVGGRICSQBD9XDTBJY9VWGNCCB9NKCIDMX","address":"YAUDBPOWWGBHGOJLDMPIEZRPECXVUEXJECCHCQWU9JWVTIKSRXLATARHTUJ9UCJIWNXM9GGNGKVFHMHED","optimalPurchaseTarget":-100,"optimalPurchaseTargetScore":-100,"availablePurchaseTargetList":[],"optimalSaleTarget":-100,"optimalSaleTargetScore":-100,"latitute":"51.092928","longitute":"0.257713","amountDemanded":"2","pricePrefered":"14","distancePrefered":"15","energyTypePrefered":"3"},{"index":103,"seed":"CAVXY9ISCJEMR9IPYHSDNIVAUCIECYHPPNCQJAYYNEQDJBXOA9XFOKEUIHXNUNVBBJLJYVDWDAYDGIWUO","address":"OSUREELWFPEPEUGQ9ACWZRWILUHGSVHUYZWVUCZZOZZCUUM9PMUDARGMQTCXRQXBCMVDYFJGGSTEPNETD","optimalPurchaseTarget":-100,"optimalPurchaseTargetScore":-100,"availablePurchaseTargetList":[],"optimalSaleTarget":-100,"optimalSaleTargetScore":-100,"latitute":"51.684641","longitute":"-1.825422","amountDemanded":"6","pricePrefered":"15","distancePrefered":"13","energyTypePrefered":"1"},{"index":104,"seed":"MHX9LYLX9XTEIAX9PPWNRXCLOJCQPVDATA9BDIKSWFLSPAIGQEEBWOPWCAFLLDCHYQOLX9B9APICB9XNL","address":"DRYVINWCRONZWYOMUIHYEABFPKXOUUQIHDJOSCEERTFJCUZYVOKVCLZWX9UKVNNLRQYFFDS9M9FXJEOTD","optimalPurchaseTarget":-100,"optimalPurchaseTargetScore":-100,"availablePurchaseTargetList":[],"optimalSaleTarget":-100,"optimalSaleTargetScore":-100,"latitute":"52.309877","longitute":"-0.668391","amountDemanded":"1","pricePrefered":"15","distancePrefered":"13","energyTypePrefered":"1"},{"index":105,"seed":"CKRIUGPGSFYX9QNVMMPMKATCGAN9HBODKCVIAADQCVGWGWAWFYCRGXMRKIYYEJJFH9KWAKIGNFGJRKQFV","address":"EZDEDCLOXWMVIHRXNFTEEQDLMPZNNPEHGXAQAMIDLYOLSCNCFLFGPNKYWQHQPKCVYIVNPETNHOTRKPYG9","optimalPurchaseTarget":-100,"optimalPurchaseTargetScore":-100,"availablePurchaseTargetList":[],"optimalSaleTarget":-100,"optimalSaleTargetScore":-100,"latitute":"51.533099","longitute":"-0.062421","amountDemanded":"4","pricePrefered":"14","distancePrefered":"12","energyTypePrefered":"2"},{"index":106,"seed":"FC9GATN9DFUG9OPFNIIJQLWSGIEECCDQIATMNRYFLU9IQAOBWLHCKOKVLQPNPVBFYULCFWKJDMWUDWL9W","address":"QFRAW9JJXHNRRIJGBOHSTGLLQWGHDQCDZGWLMOCL9BPWETQBWIZU9GWSZDLETVKRERL9VMYVUTMPJKBFX","optimalPurchaseTarget":-100,"optimalPurchaseTargetScore":-100,"availablePurchaseTargetList":[],"optimalSaleTarget":-100,"optimalSaleTargetScore":-100,"latitute":"51.776895","longitute":"-0.160202","amountDemanded":"2","pricePrefered":"15","distancePrefered":"10","energyTypePrefered":"3"},{"index":107,"seed":"LLFSWUURIPUY9ATHCPIUCPSFFIGAJTLEVELDGOISOEPXVDBFLPPPFTYRO9IYLRHEGEYLURFU9WASOKPIA","address":"OVBGLEIZITVIVB9HRGDNJXABJQRQYTQCVIBCYYFG9PSQYCBQMKSPNAFECSOPJICMJMDPUKSTJRNGQBFNB","optimalPurchaseTarget":-100,"optimalPurchaseTargetScore":-100,"availablePurchaseTargetList":[],"optimalSaleTarget":-100,"optimalSaleTargetScore":-100,"latitute":"51.837201","longitute":"0.000553","amountDemanded":"3","pricePrefered":"14","distancePrefered":"12","energyTypePrefered":"3"},{"index":108,"seed":"QFTQFUBBM99YTURWJTQNGDMKNMPJNXTLHIYAIIOUIDTWUGWNCENUYGULDGFASWQMUESDJP9YNUR9BFAJY","address":"DB9SCRZ9VLAX9ISEUWUQOARISMZJRNPTH9SXAPYYCBXAWCWIIJH9ENMWOWBBKE9GWGLWUGRVTWRJUEOKD","optimalPurchaseTarget":-100,"optimalPurchaseTargetScore":-100,"availablePurchaseTargetList":[],"optimalSaleTarget":-100,"optimalSaleTargetScore":-100,"latitute":"51.870881","longitute":"-2.247919","amountDemanded":"2","pricePrefered":"15","distancePrefered":"12","energyTypePrefered":"0"},{"index":109,"seed":"RSYYKDDSCBCJKIIGCFIQ9PSWCJWC9IJWBXP9QUBBG9JOVDE9FYQPSVTBHYTPCQJNWRACVQWASGFAMMWWK","address":"TGTJTGPYPMNT9GTQPN9ASPSYTHWLSWD9IMKXTQQUNOLJOTLSZJKQG9RYSIVKTI9WFOLJZHPXZVMCBATMW","optimalPurchaseTarget":-100,"optimalPurchaseTargetScore":-100,"availablePurchaseTargetList":[],"optimalSaleTarget":-100,"optimalSaleTargetScore":-100,"latitute":"51.271316","longitute":"0.189652","amountDemanded":"5","pricePrefered":"15","distancePrefered":"11","energyTypePrefered":"3"},{"index":110,"seed":"OKD9WBTAXASHYXTPMFUYYDHXCWNTBAGENXVBXQBDSIUHATBQYPUBRNPDBDGURCEWXQXAOTIRXDBTYOUDV","address":"QTMAFZSMGDLFYDQLINYQKPQSDAJHYOIFYLRLNCOQJOKF9CUFOKAARDYGNTW9XVMVGJAHYGRPY9U9EIBYY","optimalPurchaseTarget":-100,"optimalPurchaseTargetScore":-100,"availablePurchaseTargetList":[],"optimalSaleTarget":-100,"optimalSaleTargetScore":-100,"latitute":"51.783997","longitute":"0.198531","amountDemanded":"4","pricePrefered":"14","distancePrefered":"12","energyTypePrefered":"2"},{"index":111,"seed":"OANHGY9FDLMAERCIQ99TCGCQOOUPUOOAQ9RMYSKUSTQENYXRYPKBNNGEJJCRSCXXJCXJULEEJSTYHINYG","address":"9PSMPPOHUDBXCXVINCRMYPLGUVGMB9PTVAXQFSODKYKJG9PCIHXZONXCFB9QOONGXTVSRCKBNNLO9ASMC","optimalPurchaseTarget":-100,"optimalPurchaseTargetScore":-100,"availablePurchaseTargetList":[],"optimalSaleTarget":-100,"optimalSaleTargetScore":-100,"latitute":"51.901711","longitute":"-0.064204","amountDemanded":"3","pricePrefered":"14","distancePrefered":"10","energyTypePrefered":"0"},{"index":112,"seed":"PAQKCLOWHBGTXFMXBJMAPUSETOPOEWQPIKAW9UGLNYDPU9INGUHYMLPQYWTOAOVBYCYJVTFFNDLAUBXUD","address":"JZLTJSLU9RWFYIZLMETXJPNGEVNLJGLPDDZQUICDOAGXUWRUNCLBVGBYSPOWIXAHDFDTXCOXNUXBBJUKA","optimalPurchaseTarget":-100,"optimalPurchaseTargetScore":-100,"availablePurchaseTargetList":[],"optimalSaleTarget":-100,"optimalSaleTargetScore":-100,"latitute":"51.480207","longitute":"-0.670960","amountDemanded":"6","pricePrefered":"15","distancePrefered":"11","energyTypePrefered":"3"},{"index":113,"seed":"UDLFUBKJYGXXS9JAHGICGDRCYGKQFDL9IICTORHDRFVWGEDKNMU9DNTUECNLDFCMRP9KQTOQDMBTFVWXG","address":"ZEVBCJOKWYHTGCFV9RGE9GQGJJJIYIDGGQAEYIMEPWJGZMVCSCROH9NPMBVSXLYBYCABAGHLGDYZUHLRY","optimalPurchaseTarget":-100,"optimalPurchaseTargetScore":-100,"availablePurchaseTargetList":[],"optimalSaleTarget":-100,"optimalSaleTargetScore":-100,"latitute":"52.330095","longitute":"-2.129786","amountDemanded":"4","pricePrefered":"15","distancePrefered":"10","energyTypePrefered":"3"},{"index":114,"seed":"ARSET9BKIGHGSOITLQTYDLOGUEETFMDQMYATHJESTVFJQGXKUONGMOIPSQUAKXLJFTOKCQFXMPMRC9FKQ","address":"9ZFFYYWJYRW9JJ9DLRDQGMGYXQECMXRBXNOYHLCQDYVOKYMANJSEIFI9VCZZLG9CJIPBOBOCJZAPFCZWB","optimalPurchaseTarget":-100,"optimalPurchaseTargetScore":-100,"availablePurchaseTargetList":[],"optimalSaleTarget":-100,"optimalSaleTargetScore":-100,"latitute":"51.719141","longitute":"0.215858","amountDemanded":"5","pricePrefered":"15","distancePrefered":"11","energyTypePrefered":"2"},{"index":115,"seed":"XAOKKHXMBFV9FCUEST9OFLQXJX9WFEXNMJNIWWPROGQAWTMQWLSHONCXRHJGBGMKWNIDLKXHOGSHNCQJP","address":"TWWDVXXWHCBDOAPJISGKAAKLIRKUAOOTMTGNNMYCACWARNXCCKWDXNSJDKVVKYXZYQPHJMSKTEJEAP9SA","optimalPurchaseTarget":-100,"optimalPurchaseTargetScore":-100,"availablePurchaseTargetList":[],"optimalSaleTarget":-100,"optimalSaleTargetScore":-100,"latitute":"51.189878","longitute":"-1.008904","amountDemanded":"2","pricePrefered":"14","distancePrefered":"15","energyTypePrefered":"0"},{"index":116,"seed":"NNAKJ9PODQAOXKSWGDYJNPKCWNQJRKBDTIGINNUJIUCRGYCKJUCSEILEYTXEFPYMTTKVLPGAGDBOCBCDR","address":"RZFMCP9NFPUAIHJPLYQYUWKOCYODIGBYHVIWADQEVPTDRVNEFNBVDSVXILOYKZRCIVODTJ9ANELZKQVND","optimalPurchaseTarget":-100,"optimalPurchaseTargetScore":-100,"availablePurchaseTargetList":[],"optimalSaleTarget":-100,"optimalSaleTargetScore":-100,"latitute":"51.348787","longitute":"0.246083","amountDemanded":"3","pricePrefered":"15","distancePrefered":"11","energyTypePrefered":"1"},{"index":117,"seed":"COBCMPVXBDQJMMPEIAXJRBBVFQJBVITIED9RI9LHITHYXDHUFBFRNYJLHQJCXSULPFOUDFHCFPWORSGRG","address":"GRNOEAGSTCIZNSLHIBZLSUQJMYTABXUZH9XF9EUEITHQYTWZSVILBREBFANOQOYPIAIAOQBBRVVKZGFSC","optimalPurchaseTarget":-100,"optimalPurchaseTargetScore":-100,"availablePurchaseTargetList":[],"optimalSaleTarget":-100,"optimalSaleTargetScore":-100,"latitute":"51.636508","longitute":"-2.101207","amountDemanded":"4","pricePrefered":"16","distancePrefered":"12","energyTypePrefered":"3"},{"index":118,"seed":"OPBUTGOMUXHTQG9XJBLSIMRVRBFCHWVYDYIWPMMERORKHGJRIXBQ9IIPHWTVMUNJKNMRUMPFPSNROCUDD","address":"QKDPAPNOINAMRWXCXVZJUMO9JYOJBHHTYZNYTLCHMYOMQGNKAYWKTEBUNOWKNQVNOBZHDOGIPQHIIZ9U9","optimalPurchaseTarget":-100,"optimalPurchaseTargetScore":-100,"availablePurchaseTargetList":[],"optimalSaleTarget":-100,"optimalSaleTargetScore":-100,"latitute":"51.540622","longitute":"-1.810967","amountDemanded":"1","pricePrefered":"15","distancePrefered":"11","energyTypePrefered":"3"},{"index":119,"seed":"FVJF9NBEUFMQBGMTSEQLLHBBTRIED9YMLBHKLHMUGBUCCS9MTRDICVBOIMHDDSCQCWYSLDGHAFNH9EXTQ","address":"TZZDIFSOXSMBBBUDH9ZHZTPS9WEB9UXWWARHBZJBEKVKWVJZTCBCQITKLIMJLP9LTJNWFHEGDCKZY9LDD","optimalPurchaseTarget":-100,"optimalPurchaseTargetScore":-100,"availablePurchaseTargetList":[],"optimalSaleTarget":-100,"optimalSaleTargetScore":-100,"latitute":"52.008334","longitute":"-0.867652","amountDemanded":"5","pricePrefered":"15","distancePrefered":"11","energyTypePrefered":"1"},{"index":120,"seed":"P99BKBTXCBAIEVJMOWSBLGUYCTQCQCTQXHMOBNXVIPRTCYLF9HFUVNDCIJNGKMIWWYJXRLWDOS9SHTDFF","address":"TIIYTWVMGLFADAWD9IHRLFVDQQBQUYY9VXZNUDECKEWZULIH9QPEJJLI9YNIELZWGPXJXZTL9WSFXUBHX","optimalPurchaseTarget":-100,"optimalPurchaseTargetScore":-100,"availablePurchaseTargetList":[],"optimalSaleTarget":-100,"optimalSaleTargetScore":-100,"latitute":"51.361473","longitute":"-0.418401","amountDemanded":"2","pricePrefered":"15","distancePrefered":"12","energyTypePrefered":"4"},{"index":121,"seed":"DFULXAG9AEHPBKNEHETLPSFKCIWDCATTDUDI9YIO9ESDOEOWVVQSVRS9QI9SVUYVBSOPLTLGNHXQGPMNR","address":"OFIHFXBEXTJREQBIMGDAUATBJJCDYKAGQIXXLYRVYLNLJHGQKTWCQR9NDFHBFSRLOACHYHQYFDCRYEXSX","optimalPurchaseTarget":-100,"optimalPurchaseTargetScore":-100,"availablePurchaseTargetList":[],"optimalSaleTarget":-100,"optimalSaleTargetScore":-100,"latitute":"51.094217","longitute":"-0.399774","amountDemanded":"4","pricePrefered":"15","distancePrefered":"11","energyTypePrefered":"2"},{"index":122,"seed":"JEFTENTBTJFSDXSLBHEIMBYWFBIXGWSXSAIVOCAR9FUYPGTWNJHUX9EHYMCRXPDMJOXSGAXKDJYDVKTHA","address":"OZBGSMUEHBPZQFVOUHAPIUBBFUMIDKXLZPSRHONUIPRDKNKKBFUNRHLKKTOUDSSYILZGRSCFBXPBIMTTZ","optimalPurchaseTarget":-100,"optimalPurchaseTargetScore":-100,"availablePurchaseTargetList":[],"optimalSaleTarget":-100,"optimalSaleTargetScore":-100,"latitute":"51.093946","longitute":"-0.728664","amountDemanded":"2","pricePrefered":"14","distancePrefered":"10","energyTypePrefered":"0"},{"index":123,"seed":"IXFSHCXXWHLNNQFINMNSQPQMVRDFYBFGVWWXVEOHRSUFXLETHBBNDJEPKTBVCHCGUIVPFITCJ9VTRJKLS","address":"RKFDHACJNYBWVOKJXYFTDELHTLUGCWMMTODVDCCPCLJAEGJHBQMOIXCKPUNROYJQSXMRHGKRH9FBG9CZD","optimalPurchaseTarget":-100,"optimalPurchaseTargetScore":-100,"availablePurchaseTargetList":[],"optimalSaleTarget":-100,"optimalSaleTargetScore":-100,"latitute":"51.815923","longitute":"-0.833010","amountDemanded":"2","pricePrefered":"16","distancePrefered":"14","energyTypePrefered":"4"},{"index":124,"seed":"RGNKJPWPPTDRTVFTTJLCOFEECWJMDVKIF9AAVHYNOXSNFIKEARTRGDXIFRCC9XII9VIDMLWRSQCJUSQTO","address":"OITXDBUNQTP9YSUMWOZXGGUPWKXZSGQJSDODHZHUZBLLOHTROEAOLFKQWELGOMHPSDHFYFUWLPBGQQYAX","optimalPurchaseTarget":-100,"optimalPurchaseTargetScore":-100,"availablePurchaseTargetList":[],"optimalSaleTarget":-100,"optimalSaleTargetScore":-100,"latitute":"51.584334","longitute":"0.263142","amountDemanded":"3","pricePrefered":"15","distancePrefered":"14","energyTypePrefered":"1"},{"index":125,"seed":"HGNMTQSYJIWFSHQCITU9NNBRHF9X9IFQODNFDSBKRFAJMXNDYEUUWEDXFXVDHEDUFPKCQBBLUQNNEJUDC","address":"TRWMCRCOMZMFYPKCNMPSSUFIDEN9XCEELGVPXWICROTVUANTYJYKKROSGXUPZVPWLFRWTOWPOVLUW9RGD","optimalPurchaseTarget":-100,"optimalPurchaseTargetScore":-100,"availablePurchaseTargetList":[],"optimalSaleTarget":-100,"optimalSaleTargetScore":-100,"latitute":"51.697764","longitute":"-1.016994","amountDemanded":"3","pricePrefered":"14","distancePrefered":"14","energyTypePrefered":"4"},{"index":126,"seed":"YAKVCMGGHPQLVDXVQXBFAQYJSFLYRKWERMDBQPPFQIWVVQBYQSOTIFNDTHHPDJATARLSVBSKEVIWGYVC9","address":"RAKSD9QLHKIKNCABTBEMVUUKMUCCZNA9AXRPQWCCXRCCGEZQHJ9QNCJLICNAUQYPENXYDMPBM9UQHFWLA","optimalPurchaseTarget":-100,"optimalPurchaseTargetScore":-100,"availablePurchaseTargetList":[],"optimalSaleTarget":-100,"optimalSaleTargetScore":-100,"latitute":"51.217662","longitute":"0.184661","amountDemanded":"6","pricePrefered":"15","distancePrefered":"14","energyTypePrefered":"3"},{"index":127,"seed":"INLPBULCDWMJWUTM9R9AICLOOMTSORBHS9WJSRHUWJFFHHNSCXXAMTJVGGFYDKQCQDTMGTBGBK9KCJIKY","address":"OCHAFVNZJIAGCBQYHAOGDOIYPFIEMNAGMGXJBQIUWICCRTNQXVGLZNNBZGOMXYSFUWVJJORZLJ9OQT9OX","optimalPurchaseTarget":-100,"optimalPurchaseTargetScore":-100,"availablePurchaseTargetList":[],"optimalSaleTarget":-100,"optimalSaleTargetScore":-100,"latitute":"52.016343","longitute":"-0.022605","amountDemanded":"4","pricePrefered":"15","distancePrefered":"12","energyTypePrefered":"0"},{"index":128,"seed":"REATHIBFQRKNEYUV9TRMNTKJMMMHNSBAETCPFC9VNYCURRGOQXBSFIWKNUJNKTKJFKOSBJKJNDOCIGKWC","address":"QADCVHVOJQ9ORDVLYEVGY9XIOPTPULTOAIIDZDMHXXIAAZQQQZNHBVRELGUMKHTDNSVSWXTCJJYBGYODC","optimalPurchaseTarget":-100,"optimalPurchaseTargetScore":-100,"availablePurchaseTargetList":[],"optimalSaleTarget":-100,"optimalSaleTargetScore":-100,"latitute":"51.422211","longitute":"-2.333718","amountDemanded":"2","pricePrefered":"15","distancePrefered":"13","energyTypePrefered":"3"},{"index":129,"seed":"SIMMUBOXWJTWHCRCYNCTRQKJMUFVTKPFCOINRPAW9Q9IQNVHRIUVDQS9YAPCKKQM9PJAINFNLCVRAWASF","address":"CWTTTQMNHREEPEKRDIQPJPUVQUYGBDZISCGDFWHLMPEPOJUMINCOJZMZNZIVNXTO9LXVAUASKEWLHVKKD","optimalPurchaseTarget":-100,"optimalPurchaseTargetScore":-100,"availablePurchaseTargetList":[],"optimalSaleTarget":-100,"optimalSaleTargetScore":-100,"latitute":"51.127323","longitute":"0.243575","amountDemanded":"5","pricePrefered":"15","distancePrefered":"11","energyTypePrefered":"4"},{"index":130,"seed":"BGNN9VCCOP9FNBHIPPQGSCEABHSCBUXXVCMGQ9NNXFPBORVNV9T9NLM9IJVAG9FBFMGURMKTNDVCWXND9","address":"DGCZSCLFLJSSZLFZPBDGRABDOTCZYGJGXEOAJV9LSJSIRMHTA9AXNIFEMRQCDXDV9AEWJXXORKOETNPT9","optimalPurchaseTarget":-100,"optimalPurchaseTargetScore":-100,"availablePurchaseTargetList":[],"optimalSaleTarget":-100,"optimalSaleTargetScore":-100,"latitute":"51.932608","longitute":"-1.275631","amountDemanded":"5","pricePrefered":"14","distancePrefered":"10","energyTypePrefered":"2"},{"index":131,"seed":"GDXCWQGRUPRVQIRHKARTYVMDM9SJHMGSNC9VBDWYTJVFSDM9AIKSS9PYCEMBDVJVEGQXBKWNINNTMHBJB","address":"ATNWA9PP9MFNIRUUUNWLNEOKZJODWMHGVQGOAQ9G9CDNQHAE9IVZFQLKFWLGNPFR9YWDFKFIHMIOCMAWZ","optimalPurchaseTarget":-100,"optimalPurchaseTargetScore":-100,"availablePurchaseTargetList":[],"optimalSaleTarget":-100,"optimalSaleTargetScore":-100,"latitute":"51.159046","longitute":"-0.860192","amountDemanded":"3","pricePrefered":"15","distancePrefered":"10","energyTypePrefered":"1"},{"index":132,"seed":"QFCGLVSSBHAQOPGCJUFRNCMOABPEEPATKW9JPOI9FJRPCLOFRTPE9WNWHIGADUMMIPQRL9MYVUHBOPPSS","address":"ZC9RZVPKCOLESIZSG9HIXMNFYUFXISRDESNQV9I9NHBBWREYKXNILEOEYEBXPZMISIUWQUZHKLAMFIPDX","optimalPurchaseTarget":-100,"optimalPurchaseTargetScore":-100,"availablePurchaseTargetList":[],"optimalSaleTarget":-100,"optimalSaleTargetScore":-100,"latitute":"51.538339","longitute":"-2.223191","amountDemanded":"3","pricePrefered":"15","distancePrefered":"11","energyTypePrefered":"1"},{"index":133,"seed":"ECAVOD9EDHOSNREHEPPXOVGJ9VSTPMBEJLRF9RNBBGXLSHEXXYOHNQCGULYSVVIQEJ9BGWJOJRANMJVVG","address":"XMYSVELQTYKDYP9QNYBIXXSLOIRMOKZEEVESQYPBORYXFFFHVVZAZUCEAYESHJRFFSNSQZC9DIHHTIKEC","optimalPurchaseTarget":-100,"optimalPurchaseTargetScore":-100,"availablePurchaseTargetList":[],"optimalSaleTarget":-100,"optimalSaleTargetScore":-100,"latitute":"52.328398","longitute":"-2.348873","amountDemanded":"4","pricePrefered":"14","distancePrefered":"13","energyTypePrefered":"3"},{"index":134,"seed":"RXCYAULHQFUPUIXIDGNUAWSAKSAAQETUSXFUVWRXPQBFEBBDLBEGENMXTBWFUFHJPRXCBYPDYAP9IDSSL","address":"YUPCECNMUYE9PRCPYO9XGNRPRG9F9KPWIKNSURPDDIUWKGPFIEZQWVVIJCACEDLETNIDGP9MFVLGHZGFD","optimalPurchaseTarget":-100,"optimalPurchaseTargetScore":-100,"availablePurchaseTargetList":[],"optimalSaleTarget":-100,"optimalSaleTargetScore":-100,"latitute":"51.155411","longitute":"-1.777173","amountDemanded":"4","pricePrefered":"15","distancePrefered":"14","energyTypePrefered":"1"},{"index":135,"seed":"VRGFKRKWDTBWCFKBKYKLQWMARWCJMLNPORQLJOEPIYIWOIPRMEWDMTAEJX9LBQUBBWRQNVRSWVWGPWSGI","address":"IVGLWVOGSJLAJMWNZREJ9AQLRVHLYBUGMOSFYKWDLEORLWFACUAKBJHMKFEBDPRFEEAN9MRFFTHI9GVXX","optimalPurchaseTarget":-100,"optimalPurchaseTargetScore":-100,"availablePurchaseTargetList":[],"optimalSaleTarget":-100,"optimalSaleTargetScore":-100,"latitute":"51.630126","longitute":"-2.032432","amountDemanded":"1","pricePrefered":"15","distancePrefered":"11","energyTypePrefered":"3"},{"index":136,"seed":"WOPFKN9C9VTGNAHUXBFXSRXHE9PSEAHGVAJBBIHHCTCMIGFBMXVHOSEJXEFANMOSDLT9DDNACMEHEUTNE","address":"AXTQBVEAZCJSHUQORD9LJBRFHNBLJ9XUBZDPUUHZFVDOXYOEXIUBJXMNVUJBEOFAWWXMFTNFKGLCDFBOD","optimalPurchaseTarget":-100,"optimalPurchaseTargetScore":-100,"availablePurchaseTargetList":[],"optimalSaleTarget":-100,"optimalSaleTargetScore":-100,"latitute":"50.986787","longitute":"-1.306442","amountDemanded":"3","pricePrefered":"14","distancePrefered":"11","energyTypePrefered":"3"},{"index":137,"seed":"LGWHMAROPU9QCHTGHUXLFNSOOBSPNVGGDYFLJPXKBTJ9ITEBLMQAP9LTCJSPWHJSCFVHPQCWMCECMHNNI","address":"QJPTWNUVJETYZRNPQYAFRAZDV9ZTMFFEKLOETMUC9JWEQUHJDYVXZGSLCEEGHLPNNF9CPXLWEDDJELHVY","optimalPurchaseTarget":-100,"optimalPurchaseTargetScore":-100,"availablePurchaseTargetList":[],"optimalSaleTarget":-100,"optimalSaleTargetScore":-100,"latitute":"51.658874","longitute":"-0.493003","amountDemanded":"5","pricePrefered":"14","distancePrefered":"15","energyTypePrefered":"0"},{"index":138,"seed":"NGPWQSJRCFBSSSANBSIOPKRDPRDHNSTPONFUVWDNOTPOYQPOTXOTUOYDTKNQTMRHWDAWRROSUT9R9V99O","address":"BBQIGCHRQZLTZTTNPLCUUXVBDRRCHNURQMNNUUKXCLTDNNDO9AZPZYTTLXZJFCXZEBAXWEYCLDOZMWQD9","optimalPurchaseTarget":-100,"optimalPurchaseTargetScore":-100,"availablePurchaseTargetList":[],"optimalSaleTarget":-100,"optimalSaleTargetScore":-100,"latitute":"51.324247","longitute":"-0.247681","amountDemanded":"4","pricePrefered":"14","distancePrefered":"11","energyTypePrefered":"1"},{"index":139,"seed":"CMRPIGTR9EXUMQIJGDDCJQL9QGQEXQMBJSXYRLIFAIQCADYGUPKJCWDKRLBSYWFEDLXBTXVM9EJKNTVNT","address":"HJCBRMFWLRHQBLSQGWEHKGOTDBKAWYBUZZHZVAOKJKLVWXJTATYYSM9YEITWPIIBGTEKEOEEDXSRMRVNX","optimalPurchaseTarget":-100,"optimalPurchaseTargetScore":-100,"availablePurchaseTargetList":[],"optimalSaleTarget":-100,"optimalSaleTargetScore":-100,"latitute":"51.914520","longitute":"-1.679076","amountDemanded":"2","pricePrefered":"15","distancePrefered":"11","energyTypePrefered":"1"},{"index":140,"seed":"TU9HOQQYUCWXYISAABMUVXRNNJENMDSEOMYRNOFUCXWTW9BWLWKMVXPBFYSNTRILTJLTDL9ELRIJVESWO","address":"PKRRTRSDCITBRZPZYCWJLRKREDBBOOCAGHLKQIL9VXK9YBOVF9DFEFNXAWH9RYAVLZTQZEGRHBPTVMUHW","optimalPurchaseTarget":-100,"optimalPurchaseTargetScore":-100,"availablePurchaseTargetList":[],"optimalSaleTarget":-100,"optimalSaleTargetScore":-100,"latitute":"52.365444","longitute":"-0.475520","amountDemanded":"5","pricePrefered":"15","distancePrefered":"15","energyTypePrefered":"0"},{"index":141,"seed":"VUSQVMCCFYPPMVOKNHNRXERYAACAGAKHWVIANKCGLOXLEWGEDNMWKICSPJCABPQLKARSBNAURDFIOOWUN","address":"ELZ9DKWKIFGLSGJQEEGDVCGPK9LCQORVTEO9MWJZAS9RQSJHZEEZASR9SSNCTJUJRHQRDAVPWNDCQRHSD","optimalPurchaseTarget":-100,"optimalPurchaseTargetScore":-100,"availablePurchaseTargetList":[],"optimalSaleTarget":-100,"optimalSaleTargetScore":-100,"latitute":"51.201880","longitute":"-0.562839","amountDemanded":"2","pricePrefered":"14","distancePrefered":"10","energyTypePrefered":"4"},{"index":142,"seed":"AHERYBAHPYQWYRKAROVSUSLKJGHS9XDSLROSXXLTIHXSILDTUOGJYDRLHPXMXGMSNQJHGYUOXQFIATLWU","address":"HEWMJUOOYNMDCBMLJZMCNNBB9CNMCQQQHXGLFOXIFOVTXXXAHAXNUWOADZV9PJRIEPYDOHNVYBSOK9MSX","optimalPurchaseTarget":-100,"optimalPurchaseTargetScore":-100,"availablePurchaseTargetList":[],"optimalSaleTarget":-100,"optimalSaleTargetScore":-100,"latitute":"52.402704","longitute":"-0.012240","amountDemanded":"2","pricePrefered":"15","distancePrefered":"11","energyTypePrefered":"3"},{"index":143,"seed":"VOGGVJFIPL9SLONGMPHRHKVEAAROJRGPALYEFTKDYSXELYPMHBSDPUAYGQSVWKJO9TJGPSMGQWIUVEISK","address":"YYLAHUUHQLGGTGBRY9999ALNTWKGSGBUJDGGELSQQ9EMHGUPGOGVROOIDYXNVRGBGVBGRUREIHQAVBGTW","optimalPurchaseTarget":-100,"optimalPurchaseTargetScore":-100,"availablePurchaseTargetList":[],"optimalSaleTarget":-100,"optimalSaleTargetScore":-100,"latitute":"52.428601","longitute":"-1.244510","amountDemanded":"4","pricePrefered":"16","distancePrefered":"14","energyTypePrefered":"4"},{"index":144,"seed":"DEFO9LXBFXRBWNCDVPGNXOOHPLDJADWQEXABPWSDFFGDYM9XFFWMOXDORFFNUWPXFSDOYKEFMRGVGCNSP","address":"XAASJRMTSXCU9N9YEIO9UABSVEFTIMCFN9YLQIKL9BIFBU9UMCBRE9ZDZKRZTG9LPOSGQNQTEMONQDXAC","optimalPurchaseTarget":-100,"optimalPurchaseTargetScore":-100,"availablePurchaseTargetList":[],"optimalSaleTarget":-100,"optimalSaleTargetScore":-100,"latitute":"52.176710","longitute":"-1.485799","amountDemanded":"4","pricePrefered":"15","distancePrefered":"13","energyTypePrefered":"3"},{"index":145,"seed":"9IJJPVIYITWDF9WPEJR9TJ9FCKKXHK9YHXQABHNAVFDDTYHPGXFSUTC99IYBVWOIIWGLATLJVUNBSFIVG","address":"G9FJAFWAPATQPSLDSHGOMSW9UGUFBHWNQADNGSIKDHYQFBKUNNVVXSQHRHET9II9STWMVJOBQ999TQIMB","optimalPurchaseTarget":-100,"optimalPurchaseTargetScore":-100,"availablePurchaseTargetList":[],"optimalSaleTarget":-100,"optimalSaleTargetScore":-100,"latitute":"51.393961","longitute":"-1.933592","amountDemanded":"5","pricePrefered":"15","distancePrefered":"11","energyTypePrefered":"0"},{"index":146,"seed":"PQALUGPDMPQRDDKMEEMPJNOB9RVPAUIDCYMTPEGUET9QKDIKSMMPUOFBRTEYVOAL9GVOOURAY9SBN9IIF","address":"CHJHIPPSIBUZJACVVYCPODBZQKHOQKCLADUCBRFZJDFBQOCMYUIJIHBENZNMBEIINCXGD9LNNPSEYYXEW","optimalPurchaseTarget":-100,"optimalPurchaseTargetScore":-100,"availablePurchaseTargetList":[],"optimalSaleTarget":-100,"optimalSaleTargetScore":-100,"latitute":"51.816687","longitute":"0.279768","amountDemanded":"4","pricePrefered":"15","distancePrefered":"14","energyTypePrefered":"0"},{"index":147,"seed":"BRSPBDHSTEIQSJXFDLCSWJKSHFFCSCKQP9IEMCPIWMJMSNVAUKHUJGXXJXNQPURCXTDHDLDEWJTIXNNVT","address":"VXBECNKJXFMXPYAUKHZRFUI9OBPADVPBCBXO9UPXLHXHUOMFCGGNQLGOYNFRRUE9TZOYQPGSZMSHAIFCC","optimalPurchaseTarget":-100,"optimalPurchaseTargetScore":-100,"availablePurchaseTargetList":[],"optimalSaleTarget":-100,"optimalSaleTargetScore":-100,"latitute":"51.948175","longitute":"-0.727958","amountDemanded":"2","pricePrefered":"15","distancePrefered":"11","energyTypePrefered":"0"},{"index":148,"seed":"XULJTXSETGTYHFAMWYCXYOLU9Y9H9ADAKPJUEBPOXPUFDJWNWQTIRYKHYHFIYRTJIY9LFTVCPTOGYM9XP","address":"PHBPFBJHJAEUKG9IJ9ARCNFJYJQKOJPXEEHYQGDJLFVEZXILZKYMWCRUWNLGLA9GBJOF9LMDPQFMKCTNX","optimalPurchaseTarget":-100,"optimalPurchaseTargetScore":-100,"availablePurchaseTargetList":[],"optimalSaleTarget":-100,"optimalSaleTargetScore":-100,"latitute":"51.090714","longitute":"-0.144373","amountDemanded":"5","pricePrefered":"15","distancePrefered":"10","energyTypePrefered":"0"},{"index":149,"seed":"XHMTYPTBKGHN9VOVEDGUMVMPYNTUMFBKRMCAFAGFUMJVBQFCSQSOXDSFIDLIYYTQ9HRJRSPNBGXXQNVEU","address":"KUMCSHKWXPTKCL9PKJAAYUWMMIWSAJ9UYOYOVOIBVDHFTQMPHIDLGXGPWXWJEFLDQPPSOCWHJVFW9DQS9","optimalPurchaseTarget":-100,"optimalPurchaseTargetScore":-100,"availablePurchaseTargetList":[],"optimalSaleTarget":-100,"optimalSaleTargetScore":-100,"latitute":"52.340346","longitute":"-2.191988","amountDemanded":"3","pricePrefered":"15","distancePrefered":"12","energyTypePrefered":"4"},{"index":150,"seed":"QHUPNATUQOHRXXFMSLHHTDSK9FWPABRIWQKSMMSTJKFDXUAABFSLDDSMGHMPKGAXXASFBVQPOUXOPUJER","address":"MFB9YNGGPYELKOTWZYQJFPU9VSBNC9DLXOEYUQGVVBVZDNBPJNREATIDHIGRI99OC9IYRXMEZMZGMTQZW","optimalPurchaseTarget":-100,"optimalPurchaseTargetScore":-100,"availablePurchaseTargetList":[],"optimalSaleTarget":-100,"optimalSaleTargetScore":-100,"latitute":"52.251346","longitute":"0.137439","amountDemanded":"3","pricePrefered":"16","distancePrefered":"11","energyTypePrefered":"2"},{"index":151,"seed":"UMFSTBGLCNGMBKGADGPFHT9UWW9RLRCRXNVNQXN9KGQDCXCENJOHVWNLCYH9JOPMSKMFHMJX9EVTHFUVN","address":"MPTJNVEYTWDFSYAXNJ9AKAGYSORRDDQPXR9KKVMKPEAR9IVEUQIGIZWLDXDJINYCZJGVVRLHJJKVVCIYW","optimalPurchaseTarget":-100,"optimalPurchaseTargetScore":-100,"availablePurchaseTargetList":[],"optimalSaleTarget":-100,"optimalSaleTargetScore":-100,"latitute":"51.583841","longitute":"-0.915501","amountDemanded":"4","pricePrefered":"15","distancePrefered":"11","energyTypePrefered":"3"},{"index":152,"seed":"GCQKVMBCMUFHOMIHAOTLGETGFRNWISOWKNUSYFWLAAFPTSGOHBCDLQFLJJTGYMCHIFUKLSKCDHCAOTEEW","address":"DUKWRUVGQLZUTWKUITHWHPBPADFBILFENYBFZRKGNWPYBVTWJYXZXSJMTKFHWCOYRWKBCISGUOZNOHXZW","optimalPurchaseTarget":-100,"optimalPurchaseTargetScore":-100,"availablePurchaseTargetList":[],"optimalSaleTarget":-100,"optimalSaleTargetScore":-100,"latitute":"52.110803","longitute":"-0.323345","amountDemanded":"1","pricePrefered":"16","distancePrefered":"15","energyTypePrefered":"3"},{"index":153,"seed":"UECAFBYSCJBXCLCNRIABTL9ORXOFJEYQVLGCRRAEGYORRHTBAVRDB9ITNSKSL9JUYMVGHBHXQUPNBDLJF","address":"HLHZYYAIPNBDSIB99IGCLUUFZXAWDLEMCHCDFJG9PTKEZSONANCPSVLXTHMSAZXHXEOMFHRFIVCQRURPX","optimalPurchaseTarget":-100,"optimalPurchaseTargetScore":-100,"availablePurchaseTargetList":[],"optimalSaleTarget":-100,"optimalSaleTargetScore":-100,"latitute":"52.149070","longitute":"-1.890773","amountDemanded":"3","pricePrefered":"15","distancePrefered":"12","energyTypePrefered":"0"},{"index":154,"seed":"VHCTCEGYIMEFKYFDS9FNOGCUKREO9YRWNSKKGLOIXRSGNJTUKJDDVDSMHMH9TTJJGJJJGIXEKAKGSJXGY","address":"SNGXMOFTUQVI9VKEDOZZZFMIYRWXXABGRNHOCYUOWTPLTIPSFXWQFWAZOGFD9DICPYJWEEABGM9BWAQWA","optimalPurchaseTarget":-100,"optimalPurchaseTargetScore":-100,"availablePurchaseTargetList":[],"optimalSaleTarget":-100,"optimalSaleTargetScore":-100,"latitute":"51.707716","longitute":"-2.042155","amountDemanded":"5","pricePrefered":"15","distancePrefered":"13","energyTypePrefered":"1"},{"index":155,"seed":"OGWEY9VHMTQIPCYCSFPKPNOBENAKTWQNGATTPXHCXJHBWLOOWXHYVQPPVKPAAHWKUUDLKXQKDKR9GGWOT","address":"SHULZQOHSVSY9ZPHDGEVJDXMBUFRCTGSSKBMCPHA9BBLEAFFYEPVFQXQMKDMDTKWEHPGXPVLFGFQBAAAC","optimalPurchaseTarget":-100,"optimalPurchaseTargetScore":-100,"availablePurchaseTargetList":[],"optimalSaleTarget":-100,"optimalSaleTargetScore":-100,"latitute":"51.189292","longitute":"-0.535777","amountDemanded":"3","pricePrefered":"14","distancePrefered":"11","energyTypePrefered":"3"},{"index":156,"seed":"I9PVSDNSXOFHQF9JTJRWWUAWPA9ETXLVWHBHCBUWDCHNEVEOQGFIPBHKWLMNCOJMCQSYIXFGQMOXBDURU","address":"KYNEVUSRSUNZJXTHJCEKXNMDFMHIUABHES9EOSHNS9ERKSHLSAJDTNDBACSVBPUZZAHHWMCNIZVKRIEMC","optimalPurchaseTarget":-100,"optimalPurchaseTargetScore":-100,"availablePurchaseTargetList":[],"optimalSaleTarget":-100,"optimalSaleTargetScore":-100,"latitute":"51.060083","longitute":"-2.099718","amountDemanded":"1","pricePrefered":"15","distancePrefered":"14","energyTypePrefered":"1"},{"index":157,"seed":"PKYISUARUTWUPHHCKRFFDFRRWWAIEEYYAJGQTGOPPAFGCTAVWGXTIOVODQNWXNGACFSRAJJQWGFVMHOFC","address":"9QRSJZELTQNXFGPGPULWLJICV9IGQZXZIAHEIMAGNRZONGMTWSXMNMCMRTLRFUQZREOWNQJIRQURRZDGD","optimalPurchaseTarget":-100,"optimalPurchaseTargetScore":-100,"availablePurchaseTargetList":[],"optimalSaleTarget":-100,"optimalSaleTargetScore":-100,"latitute":"51.516268","longitute":"-0.222270","amountDemanded":"5","pricePrefered":"15","distancePrefered":"14","energyTypePrefered":"0"},{"index":158,"seed":"NMNKPDLGTFXH9YDJQOXAMAQF9ADDVBFMXUEJBRIFDDMYEFYVAAMABWLHISLFBSERQUTRCVMEEL9VC9LBP","address":"VPKJNZWISYJDGFYKSXVZGJVNTXGTTJDQNWMOIZRTFCRXHZRVVXYASGLET9COVVDVAYNDLSZTWIQDJOAMW","optimalPurchaseTarget":-100,"optimalPurchaseTargetScore":-100,"availablePurchaseTargetList":[],"optimalSaleTarget":-100,"optimalSaleTargetScore":-100,"latitute":"51.491945","longitute":"-1.423050","amountDemanded":"2","pricePrefered":"15","distancePrefered":"13","energyTypePrefered":"2"},{"index":159,"seed":"NVBCFTBUKTMV9LTEUVBBNNQBTKVP9FFAFCK9NAASLEMXPALKKSOV9JK9IMOQHKJGBSHIRYQNYYOSRJE9M","address":"MGYKFZESD9EEUABWZYDNSFZENSCTNZEFXDVJNEOIPUBUG9JSCNJKPJW9SYPACJDFIOIXJJTPDHQQZCHTW","optimalPurchaseTarget":-100,"optimalPurchaseTargetScore":-100,"availablePurchaseTargetList":[],"optimalSaleTarget":-100,"optimalSaleTargetScore":-100,"latitute":"51.883431","longitute":"-0.199878","amountDemanded":"5","pricePrefered":"16","distancePrefered":"13","energyTypePrefered":"1"},{"index":160,"seed":"JKMGKTDDEVMGNTJVCJMRBRKFADKMNM9PRXSUOXHFNGCN9FQOWBFUODUSHSVYCDBPHSQH9VKHBRCSBETFK","address":"DLNRXQDRWQYWHEZYVBLGNWXI9ER9ISGDTCTJSGLRKRTLHCJGZBZMRGIHDQGREJ9BINZXULMNGXDZ9CJBW","optimalPurchaseTarget":-100,"optimalPurchaseTargetScore":-100,"availablePurchaseTargetList":[],"optimalSaleTarget":-100,"optimalSaleTargetScore":-100,"latitute":"52.150550","longitute":"-2.145394","amountDemanded":"3","pricePrefered":"15","distancePrefered":"11","energyTypePrefered":"2"},{"index":161,"seed":"HJN9XHOIEVOUFEXHFTWCJBLWGKWMF9LEJIXSIDEMYQN9RB9UMHOVGNKJGYMNFLB9YUBHUELJEQSELJRPQ","address":"9KOHLXEPCWGYDWLLMQEUJJGIJGOXVKTWHFAUTFCZBNXPPSMGPHYBYTRYUE9AFBRAETGELQJAIORQFCBSW","optimalPurchaseTarget":-100,"optimalPurchaseTargetScore":-100,"availablePurchaseTargetList":[],"optimalSaleTarget":-100,"optimalSaleTargetScore":-100,"latitute":"51.429551","longitute":"-0.269108","amountDemanded":"6","pricePrefered":"15","distancePrefered":"12","energyTypePrefered":"2"},{"index":162,"seed":"QLUBLLUHOMHQIWKNMPNJBRLQYGTHHUBWFGQS9VOLYROOLMTPJJOKYDM9RNWPOQXFQKWUKDESTLFYVLWDJ","address":"JONKNWFWTNWMWUGWTFXCNERUBE9CTLZUTXKEBNQCFXSSUFBLUKFENRGTMARXXDGRAKKDSRKCXD9RBCLIW","optimalPurchaseTarget":-100,"optimalPurchaseTargetScore":-100,"availablePurchaseTargetList":[],"optimalSaleTarget":-100,"optimalSaleTargetScore":-100,"latitute":"51.940510","longitute":"-1.432870","amountDemanded":"3","pricePrefered":"15","distancePrefered":"14","energyTypePrefered":"1"},{"index":163,"seed":"WPAHVVCBLUFYHYAMKJGHS9JHTPHPLTXWTACQMXOGVTAKCXNSBQBGQACCOMCGQQIRHYFXPXILQGWESTRVE","address":"SXWPLBQTMBDMIUINLEPZIJYAEYZDCKRLDVYLWYHLZSUKOFXU9L9CLJR9LORLFLFHHTMBTOXDUUNBJI99W","optimalPurchaseTarget":-100,"optimalPurchaseTargetScore":-100,"availablePurchaseTargetList":[],"optimalSaleTarget":-100,"optimalSaleTargetScore":-100,"latitute":"52.044558","longitute":"-1.908139","amountDemanded":"5","pricePrefered":"16","distancePrefered":"14","energyTypePrefered":"1"},{"index":164,"seed":"KT9HHSSIVWSKSGSVMT9VXESIHOQEHPMUKVNF9EFPFKWCPCNQ9NYGTVTYJULHQNIQRIRLALHFBYSMGYKCQ","address":"THFHFPXLENKJYHWMSOHCHQAIFQLBWD9QFUOMTHXZEEF9ZQOTAQIRDCQWQ9EJDHIYFFHEBRCFHCBYNURFD","optimalPurchaseTarget":-100,"optimalPurchaseTargetScore":-100,"availablePurchaseTargetList":[],"optimalSaleTarget":-100,"optimalSaleTargetScore":-100,"latitute":"51.849284","longitute":"-2.165978","amountDemanded":"1","pricePrefered":"15","distancePrefered":"11","energyTypePrefered":"4"},{"index":165,"seed":"HGATVCXEOULODKYJOQFRDENWIEWPPNTHQXOXTVRJHRFBOXOHAJUDELBMNQB9BGESQUKWLUWYUEYEIJCIF","address":"GEGHXO9PATRCWOPWQUONNVRBDGYRAEIAHQAMOSEQJQDGAFAXYMMRJWZE9XDOGNNNFKCYJWVEYCQME9RSZ","optimalPurchaseTarget":-100,"optimalPurchaseTargetScore":-100,"availablePurchaseTargetList":[],"optimalSaleTarget":-100,"optimalSaleTargetScore":-100,"latitute":"51.604931","longitute":"-0.582756","amountDemanded":"6","pricePrefered":"16","distancePrefered":"14","energyTypePrefered":"3"},{"index":166,"seed":"UJWIUBCAYHTRRIIOLJFNPG9UQLVTSJKKNPIIYBFQNTE9OLOEXXGDHWSFWTAJKWNQLAMUYDU9V9ETCBQRN","address":"9FDLLPEJGHQXLKU9UU9LOCF9QROKUEZEJJT9ZGWMGIEDCOKUFNDQPS9PBGZGWLM9YORWZOTUAEBGVEZSY","optimalPurchaseTarget":-100,"optimalPurchaseTargetScore":-100,"availablePurchaseTargetList":[],"optimalSaleTarget":-100,"optimalSaleTargetScore":-100,"latitute":"52.345893","longitute":"-1.557768","amountDemanded":"2","pricePrefered":"16","distancePrefered":"14","energyTypePrefered":"2"},{"index":167,"seed":"DLYDFPPCOPIGDLCPIE9NDPPNEDPWWOVIMRTUKDOPOGLL9OBLHDMTFTYHWIESDXB9ILIUOCMYVXJMHUOOH","address":"CYC9NCMCMYHSVKYEJTPJIHTQCRAV9XQFT9KCNBSSNNDGIY9AZDBVVDWEKEIZWBSKNNNNFEAQYHC9HMWWW","optimalPurchaseTarget":-100,"optimalPurchaseTargetScore":-100,"availablePurchaseTargetList":[],"optimalSaleTarget":-100,"optimalSaleTargetScore":-100,"latitute":"51.722789","longitute":"-1.327551","amountDemanded":"4","pricePrefered":"15","distancePrefered":"14","energyTypePrefered":"2"},{"index":168,"seed":"YCRFKJLJGPRRUHQNYRGBGUKXKFMGIREXIONBQGYLPRUMBYOLRYALJUNCJHAAJVYFWWHQVRCSGQKGUVJLO","address":"XKBCNDN9VOLQQHTTQMEGAZI9X9TSHDVHZHRMXQRVWIQ9HJFFARPJVORNEIMZUUYCQCLRXUDHVXXQLPFJ9","optimalPurchaseTarget":-100,"optimalPurchaseTargetScore":-100,"availablePurchaseTargetList":[],"optimalSaleTarget":-100,"optimalSaleTargetScore":-100,"latitute":"51.004151","longitute":"-1.482051","amountDemanded":"5","pricePrefered":"14","distancePrefered":"14","energyTypePrefered":"0"},{"index":169,"seed":"DUXGCOS9YKKIUCDLQHTYQOBTJXH9MWWJSOFGUTMUVY9YGXAHIHJITUAA9QYWUJMNKCLRBKSQCOLE9XCUD","address":"CVFVFTMNHFSHTKMJANXPJCCRDA9ZLVQGVUK9QVX9WCIZGSGDTOWZKMGD9WHQRZYTYWPEBCBECWFQMJMHY","optimalPurchaseTarget":-100,"optimalPurchaseTargetScore":-100,"availablePurchaseTargetList":[],"optimalSaleTarget":-100,"optimalSaleTargetScore":-100,"latitute":"51.725824","longitute":"0.277340","amountDemanded":"4","pricePrefered":"15","distancePrefered":"15","energyTypePrefered":"2"},{"index":170,"seed":"YBUURNQLCTTIJ9XEHQSHLBRSBPTJUCGDEHOJEWPFHINRXAUIVSWEMFT9FUMWLUFGIJIAFSGCNPRMSVVPF","address":"KDDBXHCADOAJJVHB9ZEYZVYSXFFN9NNOKCJMYWIECLJEOLQFO9JIYHUWDR9HSUUCQZRPDHSVAIGADZKFA","optimalPurchaseTarget":-100,"optimalPurchaseTargetScore":-100,"availablePurchaseTargetList":[],"optimalSaleTarget":-100,"optimalSaleTargetScore":-100,"latitute":"51.658461","longitute":"-0.235157","amountDemanded":"3","pricePrefered":"15","distancePrefered":"12","energyTypePrefered":"2"},{"index":171,"seed":"UAMIHWFLQETXJOVNJCTPESOADHYAKW9VBPAMJDIBAOYDUNIPASCJLPBFEWTLCBJGAQDRHEANFETXTFFBO","address":"LHWDQJSWFZWDNSWPNISEPD9LMYWQYBV9AYGMYJYGLPWYT9DKHYHRFGTBMWXTVPCXIPZAEVKUUOTLDBSGC","optimalPurchaseTarget":-100,"optimalPurchaseTargetScore":-100,"availablePurchaseTargetList":[],"optimalSaleTarget":-100,"optimalSaleTargetScore":-100,"latitute":"51.568905","longitute":"-0.580834","amountDemanded":"4","pricePrefered":"15","distancePrefered":"14","energyTypePrefered":"4"},{"index":172,"seed":"ENXBXDTTSMRPXUKHDWB9FGLVXP9LCGP9OPU9LUBCDOHLMRU9GXKUTGVCAHYRXMYGFSXTUUCRLGVLPJDQQ","address":"SF9RPIK9STURLETFRZSPXDBXZAHCAQOYGQQT9FNHXHSCDXAROCLHZPEYVXXNZLWYUPLLPIEHMNVUVFEHW","optimalPurchaseTarget":-100,"optimalPurchaseTargetScore":-100,"availablePurchaseTargetList":[],"optimalSaleTarget":-100,"optimalSaleTargetScore":-100,"latitute":"51.689067","longitute":"-1.043136","amountDemanded":"2","pricePrefered":"14","distancePrefered":"11","energyTypePrefered":"3"},{"index":173,"seed":"HN9PRLWHKCIAQVYDTCX9WQLLTXLQMWPDFVXGUHGQREFDEKRGYIFXVLSMPXXHALDOLBQSHEY9RIYGGSWOE","address":"FSXWMOGMZBOSBHBPTGQ9SXUPGSU9TLCIWMAOSJWSZ9VQRYQEMRWEKFMFZYN9YQN9SXNOLIXO9VXOFULXY","optimalPurchaseTarget":-100,"optimalPurchaseTargetScore":-100,"availablePurchaseTargetList":[],"optimalSaleTarget":-100,"optimalSaleTargetScore":-100,"latitute":"51.445569","longitute":"-0.467413","amountDemanded":"5","pricePrefered":"15","distancePrefered":"15","energyTypePrefered":"1"},{"index":174,"seed":"FKTRLYIIVFALIOUCRBFGPORTFWLEYWCLIRGLVGPDKCJLNSX9DTOMDIWSCRDOMJGAM9ATYAMWISGAFUDEL","address":"YCIKUG9VPEPRDYTFDCAJPESAIA99SWTOQBUGORRBDESMWCACNYBJOHJUTGIJMBYWNWTTMCSWZENODAYLC","optimalPurchaseTarget":-100,"optimalPurchaseTargetScore":-100,"availablePurchaseTargetList":[],"optimalSaleTarget":-100,"optimalSaleTargetScore":-100,"latitute":"51.702839","longitute":"-0.496751","amountDemanded":"2","pricePrefered":"15","distancePrefered":"11","energyTypePrefered":"1"},{"index":175,"seed":"NQHYMAECWWLRLBJSFROSKMSLJGYJXCTKDIUKAHKSAQUIPSGHFPVJQIVPLNHYRLWCGQIMYOOEOXK9QNSVP","address":"VWTTSSGDY9XBZLBF9WBKTQVPSYFLXBIIIYG9W9HDYMXGHGWXHUXNAFTVJFPQ9RSH9Q9PTBIQXWDCPJDAY","optimalPurchaseTarget":-100,"optimalPurchaseTargetScore":-100,"availablePurchaseTargetList":[],"optimalSaleTarget":-100,"optimalSaleTargetScore":-100,"latitute":"51.296840","longitute":"-1.384971","amountDemanded":"3","pricePrefered":"16","distancePrefered":"12","energyTypePrefered":"2"},{"index":176,"seed":"BOURYUROOLXRGFRJSEXNCEROUCCQPETPLHTBRFDYMXVKFRQVKLLSOAGNGIRXLURQLCWML9SOMGOHEFGOI","address":"RMOCEYWXAEBRYKRMJIJDPNOHQZIAMPHTIGCFUXNEMZUKAPVXLHBSVHBYEE9IAOJUILEJGFURLRNVM9AOC","optimalPurchaseTarget":-100,"optimalPurchaseTargetScore":-100,"availablePurchaseTargetList":[],"optimalSaleTarget":-100,"optimalSaleTargetScore":-100,"latitute":"52.100387","longitute":"-0.137124","amountDemanded":"6","pricePrefered":"16","distancePrefered":"15","energyTypePrefered":"4"},{"index":177,"seed":"UMTGAIDRNJMUN9YEWQPWIRSTXXHNKXAVKUOVGCQHOFHIGXBQNVOOFOAYGCQFOVIDMCCHCTOFNQ9COSOHE","address":"TCXPLJCWOZWALHBMHHCYCXVNCCNURGZLMVGSIXLDAJCUEVYVDSXCQTUIGFK9WUGG9DGQUDQWYWW9NZW9C","optimalPurchaseTarget":-100,"optimalPurchaseTargetScore":-100,"availablePurchaseTargetList":[],"optimalSaleTarget":-100,"optimalSaleTargetScore":-100,"latitute":"51.520206","longitute":"-0.861349","amountDemanded":"3","pricePrefered":"14","distancePrefered":"15","energyTypePrefered":"2"},{"index":178,"seed":"UGFMMSQCGQABROAH9KRITSUCIVPGVVYKYERGSHVLPOGVBBIMCLEYMRENHULWIJUF9HLLCTODOFUKF9JTM","address":"IVYHA9QSKPRPEREZFSUOINX9RPUQEZO9UVOFYSHAQRTBELFNLASWZPUZNSQCBVGSQPGJPUDPCEQBZGEXC","optimalPurchaseTarget":-100,"optimalPurchaseTargetScore":-100,"availablePurchaseTargetList":[],"optimalSaleTarget":-100,"optimalSaleTargetScore":-100,"latitute":"51.691720","longitute":"-1.708364","amountDemanded":"1","pricePrefered":"14","distancePrefered":"14","energyTypePrefered":"0"},{"index":179,"seed":"LNXTSELCTHMQBQFVHMNQHMRLPFCDVPAQRINGFDOIXSQFRNWNLCIEDFIGUFHMEBPWDLVUNEWNBQOWCFFKC","address":"PCJMOHTC9DPVDQKNUGVTVJLRFBBQWVVJFHNWIURWJGOISTPSIGUIPTXAEK9ZIXHOBMMIFFPHO9KIZCRFC","optimalPurchaseTarget":-100,"optimalPurchaseTargetScore":-100,"availablePurchaseTargetList":[],"optimalSaleTarget":-100,"optimalSaleTargetScore":-100,"latitute":"51.097881","longitute":"-0.183226","amountDemanded":"4","pricePrefered":"16","distancePrefered":"14","energyTypePrefered":"4"},{"index":180,"seed":"FJFCJUBFDQTNXKQBOVTIVL9YUHLQKKRHXPTKVITNAOYLIAATTAHVETKHTT9WDUAVYSFGYFFLDNPGQDGGB","address":"CKKDR9XYMEWUYLUOVAPLAROIWDGZTUJWBLPUY9VFMZLIQAXOSFF9GOELGEEAZVHMGOQDABAQYAPULOOJY","optimalPurchaseTarget":-100,"optimalPurchaseTargetScore":-100,"availablePurchaseTargetList":[],"optimalSaleTarget":-100,"optimalSaleTargetScore":-100,"latitute":"52.262741","longitute":"-2.021898","amountDemanded":"2","pricePrefered":"14","distancePrefered":"11","energyTypePrefered":"0"},{"index":181,"seed":"TWTPTBVFYHFPDWUNWT9YPS9MLOGEYCVSSNWUATYXDSMFNUC9QTSVRCPKUTNYESKTPWW9WECTTGWU9XYUI","address":"TUDSYSG9MFYCDFXIRKQBGBYVBOSUSUMCVKVZDIYIMHMKWYVKVCIXMBVVIQBSLCJIIUJHSHP9ZPPGNRKCD","optimalPurchaseTarget":-100,"optimalPurchaseTargetScore":-100,"availablePurchaseTargetList":[],"optimalSaleTarget":-100,"optimalSaleTargetScore":-100,"latitute":"51.999756","longitute":"-0.862210","amountDemanded":"3","pricePrefered":"15","distancePrefered":"10","energyTypePrefered":"4"},{"index":182,"seed":"TKCKYDIDV9DMPGFVCLYPMFHJDB9OTSXSACQMDFLVVYQSOKI9KQUOHAPUUPKLRORAUSCL9LIP9IWUATJSL","address":"LRYSIOZQKOMWCUCZPOANTIJSKEUYDMPXRFZVFRCJBACZ9V9OUTRBTQJGBWGXI9OGJKKJM9HYLODG9YDLD","optimalPurchaseTarget":-100,"optimalPurchaseTargetScore":-100,"availablePurchaseTargetList":[],"optimalSaleTarget":-100,"optimalSaleTargetScore":-100,"latitute":"52.035245","longitute":"-1.832361","amountDemanded":"2","pricePrefered":"15","distancePrefered":"10","energyTypePrefered":"3"},{"index":183,"seed":"HGRXLOHDJSLSIWIYRRJFGXOBHDNLYNQVNVWWAXWERYDE9MUKAUPQHJWLAM99PARWQTRTRQDNG9OUCPGTU","address":"HIPROIZVDBN9QCLAGQZOFQNP9CKIYASQTGUJTDTBFURPAPMXFADFXGIVTFVGGPSSIYUUDHGLFLL9NCSBC","optimalPurchaseTarget":-100,"optimalPurchaseTargetScore":-100,"availablePurchaseTargetList":[],"optimalSaleTarget":-100,"optimalSaleTargetScore":-100,"latitute":"51.394487","longitute":"-1.040232","amountDemanded":"4","pricePrefered":"14","distancePrefered":"14","energyTypePrefered":"3"},{"index":184,"seed":"QSYCWUGETXULHMSJKRVJXMWIDVCCMGWGCI9CHWPVDUNPLOGR9FBUJCIYRINVWMQUW9AWRPU9FVNPLMIGG","address":"HNGKNTFXTXHSDAIAMRVJCEUXWSSGEFU9ZWCQBBCGEGBMKXMFVCFOHHD9SOJEIQTCGAZ9SQ9WASRFLUPQY","optimalPurchaseTarget":-100,"optimalPurchaseTargetScore":-100,"availablePurchaseTargetList":[],"optimalSaleTarget":-100,"optimalSaleTargetScore":-100,"latitute":"51.001550","longitute":"-0.189191","amountDemanded":"6","pricePrefered":"15","distancePrefered":"11","energyTypePrefered":"2"},{"index":185,"seed":"MGHOQEHJWVOAGSWHPXFNLQSJGSICKYFEACYSNIQPFQXKXXOSHERQMCVMPMWJUEOQVLSADIFYVXAOEVDQA","address":"EMICLCJVKVPAHOKHK9IRFCR9ZKFLEJXMRHADSCOWEXJUTUYPOCQRZAFTD9KWQLKYPYUOXAMWVLROORAGW","optimalPurchaseTarget":-100,"optimalPurchaseTargetScore":-100,"availablePurchaseTargetList":[],"optimalSaleTarget":-100,"optimalSaleTargetScore":-100,"latitute":"52.217067","longitute":"-0.895913","amountDemanded":"5","pricePrefered":"15","distancePrefered":"12","energyTypePrefered":"4"},{"index":186,"seed":"NPXIAWBBHRXESHQJIIMCECWSOYSNLEVIEVKUDXDBRP9UFHKCWCYUJEYAFKMPNVQIOSOLPC9VNJIRJL9KS","address":"MITNZSPGDB9WFNQTXMROUTIYHCQWBAPRBAKHDUCAWDRPQUPEQXJGTFKOPIKVYGU9M99WQNEUTHACGTGEW","optimalPurchaseTarget":-100,"optimalPurchaseTargetScore":-100,"availablePurchaseTargetList":[],"optimalSaleTarget":-100,"optimalSaleTargetScore":-100,"latitute":"51.329615","longitute":"-0.134024","amountDemanded":"3","pricePrefered":"15","distancePrefered":"12","energyTypePrefered":"2"},{"index":187,"seed":"FACFVUIBI9FDUPYL9IBJFPWODF9CSFHAIAOTCEON9MPYLIEOCDLLFONVFBAAMRVRCWGBSYQMQMAWCWWAP","address":"AGIVO9YCGM9JSDQEGAOQICHITHIUXTMUXFMRNODQVHOBRMJ9MGQYRKASOHSDHTYESUSYALMFPJWHIRQQ9","optimalPurchaseTarget":-100,"optimalPurchaseTargetScore":-100,"availablePurchaseTargetList":[],"optimalSaleTarget":-100,"optimalSaleTargetScore":-100,"latitute":"52.209080","longitute":"-1.548013","amountDemanded":"5","pricePrefered":"15","distancePrefered":"14","energyTypePrefered":"3"},{"index":188,"seed":"ACWPYGBAXNHKAMBFSOCO9OGMQXPEMMJLBLFTLUTEWAQ9LOBDNNHBGDPGCUKPFYU9APDXYWNRXWPMPORSI","address":"BYCHW9EFENBHZIHTCYETTPNFPYYUXYQWDTBVCUEYLTYEERZVSXEOOVOFQQOZTNQDPXQJSRYRLLFAVCQLY","optimalPurchaseTarget":-100,"optimalPurchaseTargetScore":-100,"availablePurchaseTargetList":[],"optimalSaleTarget":-100,"optimalSaleTargetScore":-100,"latitute":"52.343178","longitute":"-1.035112","amountDemanded":"6","pricePrefered":"14","distancePrefered":"14","energyTypePrefered":"1"},{"index":189,"seed":"YKISVDTYOFUAGQRHUJJHCLYQHGXTYEHJJYCFICTDWDNEWMH9USOYLYOXFVIIG9AWLGQWCRSGNGVCOFNJY","address":"HNEWQSNWVCTY9ZIWIC9MCWWTCUFUJMVVNDSBODUMPPQXYUPGHXSGHLRDGMN9TMAGRMAJZZCM9EHYTFQNX","optimalPurchaseTarget":-100,"optimalPurchaseTargetScore":-100,"availablePurchaseTargetList":[],"optimalSaleTarget":-100,"optimalSaleTargetScore":-100,"latitute":"51.351306","longitute":"-0.502100","amountDemanded":"3","pricePrefered":"14","distancePrefered":"12","energyTypePrefered":"2"},{"index":190,"seed":"SAJDXJTGHMXLPLCVVVA9TWJTVGCUHADNDWBQPLJTBWNQAKRMBS9W9QWEJFLOJNMXHCRTGPCLQWYDOPHPM","address":"NTFPRQJFTKTVLDOCQXSJUA9ICLWKXCHCJDKIEJONPFOFOFLPODIIDYQJIPFCFNKKLHIWEEIUUQDGCFBTC","optimalPurchaseTarget":-100,"optimalPurchaseTargetScore":-100,"availablePurchaseTargetList":[],"optimalSaleTarget":-100,"optimalSaleTargetScore":-100,"latitute":"52.010912","longitute":"-1.569432","amountDemanded":"3","pricePrefered":"15","distancePrefered":"12","energyTypePrefered":"3"},{"index":191,"seed":"AMMH9TWYKYIC9WLMAOHVEUNUU9DLWQAHNKKGBUBUUYSSYWCAXQTCWJSIWBOUXTFQCOBXHMJAEVJXJFOTI","address":"Z9CQEQNQDYUQLSFJSORLBIXWZDTGOLEXWBIHNGT9GCLLE9QDCKGNZDHFAE9FMFWESANJVVGYLTUCWGVSW","optimalPurchaseTarget":-100,"optimalPurchaseTargetScore":-100,"availablePurchaseTargetList":[],"optimalSaleTarget":-100,"optimalSaleTargetScore":-100,"latitute":"51.091066","longitute":"-1.657904","amountDemanded":"2","pricePrefered":"15","distancePrefered":"13","energyTypePrefered":"4"},{"index":192,"seed":"TOFGCYLJYTMM9AYSISNPUAPHJJCPJDVANYYTXQAYLGSSFNUECHKMYNFXIHRQNATWAJSG9Y9TNDTKSADBW","address":"PKHCNWNMXPLR9IKPQBKKEJIK9WOIGZUALN9F9I9HSQWGAALOZQANUAFWYPXGPEAWUSUDYUNDBJXURAZE9","optimalPurchaseTarget":-100,"optimalPurchaseTargetScore":-100,"availablePurchaseTargetList":[],"optimalSaleTarget":-100,"optimalSaleTargetScore":-100,"latitute":"51.366386","longitute":"-2.226082","amountDemanded":"3","pricePrefered":"15","distancePrefered":"14","energyTypePrefered":"3"},{"index":193,"seed":"YBSJJQQMGKCEFUQVCH9DXOQFHUUCSPGIRN9FR9AJOXBOWFBXUPRVK9KOGHUVDBSYDWOJJYBXSYMWRUUWU","address":"MGRDDGZRGGYCLKQDMIDYERDWKIV9JQMZBIQCCUSMOBBBFXA9HSWEWHEDIBWUTHVN9BZQFW9CXAVKCWOQX","optimalPurchaseTarget":-100,"optimalPurchaseTargetScore":-100,"availablePurchaseTargetList":[],"optimalSaleTarget":-100,"optimalSaleTargetScore":-100,"latitute":"51.464717","longitute":"-1.501570","amountDemanded":"4","pricePrefered":"15","distancePrefered":"12","energyTypePrefered":"1"},{"index":194,"seed":"RLCYCNXJEWKVTUVPMFN9NEKXTLXIMADDIJFRGKUKKRJTAXSOKYJWSILUJTQHKTYMYEGETILFQCCCQKSDV","address":"DCCFSYZHABAKMIFZE9YXADAOXAQQCFHKBEDKKWXSNJXCVTRHGHCGMG9OIJBZKXGLORMETGGKTFNNCKJAW","optimalPurchaseTarget":-100,"optimalPurchaseTargetScore":-100,"availablePurchaseTargetList":[],"optimalSaleTarget":-100,"optimalSaleTargetScore":-100,"latitute":"52.214752","longitute":"-1.166736","amountDemanded":"3","pricePrefered":"15","distancePrefered":"14","energyTypePrefered":"3"},{"index":195,"seed":"MVXGOFIWULCNDVBFG9GWVQJILC9BTALQUFCKINXJNYTXXCPAJGIAVCMYRCGPWMKC9ALBDRAGNYAPXSTJL","address":"QWUWRCHIRVNHXTAJOQWSDIILDSCGXWVJLG9OVNCDXG9EHCJD9MAVTRHOQJSEYLXVFRDIJBXQFDUMNMRJY","optimalPurchaseTarget":-100,"optimalPurchaseTargetScore":-100,"availablePurchaseTargetList":[],"optimalSaleTarget":-100,"optimalSaleTargetScore":-100,"latitute":"51.423595","longitute":"0.218052","amountDemanded":"5","pricePrefered":"16","distancePrefered":"12","energyTypePrefered":"1"},{"index":196,"seed":"DGNIBHPLHLVJOWLGEGQSJQMMSGWWHXVTYCIPPM9TUXLFTI9DQAKENQUAXTKEAGKEOSIGQSRSEYF9CBCB9","address":"GJAVHQCLBLTFRHRFLXOZSHXFWVXPBBIHZBNHZQOUKQGEFVKVIKVJHAUEIRVJHBHYHHVD99GTEXNZCYRL9","optimalPurchaseTarget":-100,"optimalPurchaseTargetScore":-100,"availablePurchaseTargetList":[],"optimalSaleTarget":-100,"optimalSaleTargetScore":-100,"latitute":"52.060387","longitute":"-1.009589","amountDemanded":"2","pricePrefered":"15","distancePrefered":"13","energyTypePrefered":"4"},{"index":197,"seed":"HWRYGJHSSYFBDEXYYEHFGIIECJPUELCKARBLOCDHXSDFYRXVCCRWIICDMUAJAVIQPWHTYVUJMWWAPCEBB","address":"C9CO9NNYGUNCHVW9JIZINWUBOFCHUUPOJZNLU99JFNHXUCGBZFFR9SLTBOXQKVAUAKSRIFWYZFNR9IGSB","optimalPurchaseTarget":-100,"optimalPurchaseTargetScore":-100,"availablePurchaseTargetList":[],"optimalSaleTarget":-100,"optimalSaleTargetScore":-100,"latitute":"51.316179","longitute":"-1.066947","amountDemanded":"4","pricePrefered":"15","distancePrefered":"12","energyTypePrefered":"1"},{"index":198,"seed":"VARODXRNIETXUQKFVG9JHRFEMPRAPWHFQOVNSOJNUSKYGICRWAPSVRFHS9UIMUFEIWA9LGYSQNLNBHWVJ","address":"DHNZBLCYDJRFYDXCTOIXTQIMGOWQDNUAYBLSCMI9FJVMR9UYGKYZPTMYAFBGJTOYEQVNVADLJTHXUIPFZ","optimalPurchaseTarget":-100,"optimalPurchaseTargetScore":-100,"availablePurchaseTargetList":[],"optimalSaleTarget":-100,"optimalSaleTargetScore":-100,"latitute":"51.721852","longitute":"-1.322308","amountDemanded":"2","pricePrefered":"16","distancePrefered":"13","energyTypePrefered":"2"},{"index":199,"seed":"DMWWHGFPUNGCJFXCKIFTUCIWTTFUAOSCUOBBLYM9NEKHMCEDHOPGVUEKGLMLEYRELHKQNPRXHJQYWISDW","address":"ESQCHKVEPZNQKPQUGZVCUIEIHTKJSHTRUPDEONYJEBYLKZEFKXWASOZGNAWZLDTWJGIWNZNOCJEVJYEPB","optimalPurchaseTarget":-100,"optimalPurchaseTargetScore":-100,"availablePurchaseTargetList":[],"optimalSaleTarget":-100,"optimalSaleTargetScore":-100,"latitute":"51.157602","longitute":"-2.334762","amountDemanded":"6","pricePrefered":"14","distancePrefered":"14","energyTypePrefered":"3"},{"index":200,"seed":"9LOVHQQSTYQRPMLWDVYWREHJUXJUFQHOABQM9MDLIJCGKKLSNSMNOJVUAYWVCJTEMWDU9ARQ9LHEGEEWK","address":"CNZTCEPLUCF9HNU9SFEJXPBXNTKUWQQBBNPFMERISWSQLKKFYEQDGNFAADY9WYSPFPTJVFDA9YCJXXXYD","optimalPurchaseTarget":-100,"optimalPurchaseTargetScore":-100,"availablePurchaseTargetList":[],"optimalSaleTarget":-100,"optimalSaleTargetScore":-100,"latitute":"51.251983","longitute":"-1.429556","amountDemanded":"6","pricePrefered":"16","distancePrefered":"10","energyTypePrefered":"1"},{"index":201,"seed":"HUNRSHRUYSOHJIFTDVTCV9QXMUCVNSVGWILIJIGREGRCKPACYXERMPMMJPEJQTKEARDHTEQP9FUTASDRB","address":"PUSOHUEIVGPLOQHZCOCSDHN9CLCWGKPNOQQBTLERZFCOOVFCDDLXNK9FTBAZDIURSXPSBCVYDBATSDDLD","optimalPurchaseTarget":-100,"optimalPurchaseTargetScore":-100,"availablePurchaseTargetList":[],"optimalSaleTarget":-100,"optimalSaleTargetScore":-100,"latitute":"51.880272","longitute":"-1.054546","amountDemanded":"3","pricePrefered":"15","distancePrefered":"11","energyTypePrefered":"1"},{"index":202,"seed":"XCPCLDL9PPP9LUMTQHQFBDIWKRGLACEG9BCWY9JUVUNVYUDTTYOPXTYPHVHOKLILVGFCTLESEJSSIGQBD","address":"SCKGKUMCZFBZWGWZ9FZXKYOWUWEVSSLCCEJCAPASWASIVQNDDFCIBPBIICBIRYAOTC9TCLDAPPHFBNXAC","optimalPurchaseTarget":-100,"optimalPurchaseTargetScore":-100,"availablePurchaseTargetList":[],"optimalSaleTarget":-100,"optimalSaleTargetScore":-100,"latitute":"51.565497","longitute":"-1.817783","amountDemanded":"2","pricePrefered":"16","distancePrefered":"15","energyTypePrefered":"3"},{"index":203,"seed":"POKSQVSGEEYAWRR9SCCYPWAXDCAUTKHFUJQKMCHSGYYEAIUMIWWVDSUVIEDQVSKDMMDAQNIXNVYKMEBXW","address":"DOLAWWKIGAHUYCIALGCSWFFJFQDFSJ9DBGGZWUBEMRJJLUJUPHQGPYSRUEBEBVLN9B9WIT9ZHOTEYMV9D","optimalPurchaseTarget":-100,"optimalPurchaseTargetScore":-100,"availablePurchaseTargetList":[],"optimalSaleTarget":-100,"optimalSaleTargetScore":-100,"latitute":"52.007795","longitute":"-1.244746","amountDemanded":"2","pricePrefered":"16","distancePrefered":"13","energyTypePrefered":"3"},{"index":204,"seed":"KWCVPYWVNJUISDAPGIVSKOQPMRVOPWDFGRCEQJUOKCQKNVENIEDVWMUFVSSORHBIDHVMCDHAFHRJOVUKH","address":"9OFLMSGJTDG9YUYKMMNXMTQWNFRVPEEHYHHRFMBOVDACXQANGMVSGQSLZBECJQLUNAHKUT9SSLHTBGWRD","optimalPurchaseTarget":-100,"optimalPurchaseTargetScore":-100,"availablePurchaseTargetList":[],"optimalSaleTarget":-100,"optimalSaleTargetScore":-100,"latitute":"52.196117","longitute":"-0.616982","amountDemanded":"2","pricePrefered":"15","distancePrefered":"13","energyTypePrefered":"3"},