[{"index":0,"seed":"WWTSMGWLGE9TEOLXSHYEBQJW9WRWCFNJWGCGKEENQWXY9UUQUKKFOT9CGNDWKQ9NUXUXAUUMJWPHYTFKY","address":"IAPFBWRPYSNHVLNFURNCGINHMJOBSVLONSXLKYVCTCMOWEWKJQHBDHGEJTNXYAKVFJURUPCPQ9RWIFRHD","optimalPurchaseTarget":-100,"optimalPurchaseTargetScore":-100,"availablePurchaseTargetList":[],"optimalSaleTarget":-100,"optimalSaleTargetScore":-100,"latitute":"51.547420","longitute":"-0.567654","amountDemanded":"3","pricePrefered":"16","distancePrefered":"10","energyTypePrefered":"1"},{"index":1,"seed":"QNP9RSQAYWO9SCCKLTEBVVRCGPKBPYTIUMUHMHFYDQYXMLBORASVRYWHVCUDJIXAIIYNMEEFJFXNUDNFA","address":"WVLVKTHJYALXRTMSUXVKP9ICZRRVSSFRUZEGGPB9MGQZCFKXTIBD9NIWHWEH9NZBEL9UQRNEZYJJHOPFC","optimalPurchaseTarget":-100,"optimalPurchaseTargetScore":-100,"availablePurchaseTargetList":[],"optimalSaleTarget":-100,"optimalSaleTargetScore":-100,"latitute":"51.126132","longitute":"-1.904628","amountDemanded":"5","pricePrefered":"14","distancePrefered":"15","energyTypePrefered":"0"},{"index":2,"seed":"VVSVOAPEFTTSSELSAPTOUGJEQSBPGEQVJMYTSQWNKPBCENEYUPNVLUETNTRPWPTUHKSRN9HCRSBMIATBT","address":"MATIDRNMPGNOPEDYQUHYJYVPBKNVSPPNVLBOFL9EE9UQOEKLMUSSOWQDGD9TTUMOWSQEHJYVHPQXFNUXD","optimalPurchaseTarget":-100,"optimalPurchaseTargetScore":-100,"availablePurchaseTargetList":[],"optimalSaleTarget":-100,"optimalSaleTargetScore":-100,"latitute":"52.051262","longitute":"-2.051693","amountDemanded":"2","pricePrefered":"16","distancePrefered":"11","energyTypePrefered":"2"},{"index":3,"seed":"Y9SASEDUXXVJX9SJNNJBIVDKKTSBUBVDDFBXCCPJOJHWBHL9DUWHGCWSY9RKWNAVFSIW9ODEPSSQJJYIT","address":"FDOBELRVVPMXJJCNVKBKYUCGSCHTKVRCBDEUFHDZC9EVQWXMBBOPGBXZLMSHXXNTEMWEIHPBRBXSQBKFD","optimalPurchaseTarget":-100,"optimalPurchaseTargetScore":-100,"availablePurchaseTargetList":[],"optimalSaleTarget":-100,"optimalSaleTargetScore":-100,"latitute":"52.084492","longitute":"-0.428094","amountDemanded":"4","pricePrefered":"15","distancePrefered":"11","energyTypePrefered":"1"},{"index":4,"seed":"HKSLJWEKNVPTKXYPCDMLXSEQL9LJEPJIPRAEBSWM9HAYMYRBDRJTGGWBUBAGXSJVIQSUCCMNCFJO9UNUG","address":"AGSNSJRV9QYIUVG9DSYGBZOODSWHFLKVBATSVUGGIZMCVZYUKXKLHHMCHDLOU9ULSXRFHERRFOLLOIEX9","optimalPurchaseTarget":-100,"optimalPurchaseTargetScore":-100,"availablePurchaseTargetList":[],"optimalSaleTarget":-100,"optimalSaleTargetScore":-100,"latitute":"52.178721","longitute":"-1.725507","amountDemanded":"3","pricePrefered":"16","distancePrefered":"14","energyTypePrefered":"2"},{"index":5,"seed":"ALVEACNEWOQVX9LTQYJFXYPKECTELJVOXLBGM9XHRAMHHVVRKTVYKHQ9QNVXQJBD9CMPHGPPSWTMLUMUD","address":"GDPRXWIVCDQAUKINYATNFTSINIUXNGPXTVIWRUSGLP9EAUBJJSRLLCSP9MIYVEQCVXBUZBVVBPQEWMGWY","optimalPurchaseTarget":-100,"optimalPurchaseTargetScore":-100,"availablePurchaseTargetList":[],"optimalSaleTarget":-100,"optimalSaleTargetScore":-100,"latitute":"51.042005","longitute":"-0.923845","amountDemanded":"3","pricePrefered":"15","distancePrefered":"13","energyTypePrefered":"3"},{"index":6,"seed":"MDRFNL9BVFJPRMQFSSYHSTIFTQASASXHWDGVISNYYXGJAKNDEJXURXCOYSRXW9GWMYFHFP9KIEENIYHRP","address":"GYWTQYRQ9ASPPCVNJYBKKDMWE9JTTPTTPQJFRPRZTNLQUGLGVYRQVPOLDTMHLSWJHGQFS9MUJWKZAYTZW","optimalPurchaseTarget":-100,"optimalPurchaseTargetScore":-100,"availablePurchaseTargetList":[],"optimalSaleTarget":-100,"optimalSaleTargetScore":-100,"latitute":"52.249894","longitute":"-0.936504","amountDemanded":"3","pricePrefered":"15","distancePrefered":"15","energyTypePrefered":"4"},{"index":7,"seed":"TBES9BACLAUVFCKTLYPSFCSFPAJ9XMQJWXHUFCJNFRNBIQHEROYYWXWDOTOLLAOEONMJTKAJOCDGFPAYY","address":"UWOECQKDPUDCOYLKXNTWEH9EXUYRLHILKXYPZNVTYJYKAZZPR9SNFHCIFSQRK9PDIVGRJJNFMUDWURZPY","optimalPurchaseTarget":-100,"optimalPurchaseTargetScore":-100,"availablePurchaseTargetList":[],"optimalSaleTarget":-100,"optimalSaleTargetScore":-100,"latitute":"51.853590","longitute":"-1.601608","amountDemanded":"3","pricePrefered":"14","distancePrefered":"15","energyTypePrefered":"1"},{"index":8,"seed":"VONWREKILWNCJOCUMLJNXDJGSN9QOKPACLPVFCQKMQRIVJVXNKAUBBDQRNOGRXW9UHMIGJIIDGXWKHXDJ","address":"ELUJUKUMCTSRLFNGTLZMKLIYEANPXADFAJFND9EHYTZROQ9HSCWUHMNIMHQGIFAPHTTUVAP9WPJQUGTVX","optimalPurchaseTarget":-100,"optimalPurchaseTargetScore":-100,"availablePurchaseTargetList":[],"optimalSaleTarget":-100,"optimalSaleTargetScore":-100,"latitute":"51.088901","longitute":"-0.027213","amountDemanded":"6","pricePrefered":"14","distancePrefered":"13","energyTypePrefered":"2"},{"index":9,"seed":"NWAKPIPRRPKEEDLGXSAEPBQKFCYYLJPYCDYAYIVDBXOYVYPQQHXHUPIFOHGGSEUHEBGUGGAGOQGNOBRWC","address":"RBECHZPZFOPBATYLZQSYURCNKOAVJCZZWPSCGVJMLTT9AKYVONSWGANWWRXYHW99PBRX9FHOBWX9ETM9B","optimalPurchaseTarget":-100,"optimalPurchaseTargetScore":-100,"availablePurchaseTargetList":[],"optimalSaleTarget":-100,"optimalSaleTargetScore":-100,"latitute":"51.924056","longitute":"-0.857765","amountDemanded":"3","pricePrefered":"15","distancePrefered":"13","energyTypePrefered":"1"},{"index":10,"seed":"9LR9AQNPDDDYBEYTN9JQOSYUOSILHOKIUPC9MRRHTUXHMFEDRUTDKBCWWUFKPJVCKIBBPUCYVPROUFCCG","address":"YYQVYOHXALQAVL9TYOZWLUFALSTSBOUUDHV9LCLUVNCG9AUGBUZLBRPDXZZTRVIVHXGCUUZNIXXWIWDEC","optimalPurchaseTarget":-100,"optimalPurchaseTargetScore":-100,"availablePurchaseTargetList":[],"optimalSaleTarget":-100,"optimalSaleTargetScore":-100,"latitute":"52.256290","longitute":"-2.032978","amountDemanded":"5","pricePrefered":"16","distancePrefered":"11","energyTypePrefered":"2"},{"index":11,"seed":"FT99MRVPGXIWUTOTAIOGHDDNSMJXAK9EJCBH9QYCYQJQWRMJIAWERISLXSVINMWFTAUIIIBQXTWDK9TGX","address":"E9RPZYXIEPGVZVWKVXUEY9DRYYRUWAPGBHVXYKIS9KHXTLOTKFRQRRYPDEFPPGMFWEAHPGZQZISJKAWYC","optimalPurchaseTarget":-100,"optimalPurchaseTargetScore":-100,"availablePurchaseTargetList":[],"optimalSaleTarget":-100,"optimalSaleTargetScore":-100,"latitute":"52.171308","longitute":"-0.559953","amountDemanded":"1","pricePrefered":"15","distancePrefered":"13","energyTypePrefered":"1"},{"index":12,"seed":"GMGXRMLSDTWPKMPVWKPV9OLYJRUR9CSNYRMRUXGLRRKTCUBNXBHBLPAWDHRTBROHGJCNLQNDYE9SHYHEM","address":"AGVUWVLV9US9XRGPZHIWRIR9JJVLJKGOLRY9ZYQUOQABKGDBUKJZANWZNXRLKRRRZFIX9RXGUTJBSPYHD","optimalPurchaseTarget":-100,"optimalPurchaseTargetScore":-100,"availablePurchaseTargetList":[],"optimalSaleTarget":-100,"optimalSaleTargetScore":-100,"latitute":"50.997937","longitute":"-0.947493","amountDemanded":"3","pricePrefered":"14","distancePrefered":"12","energyTypePrefered":"3"},{"index":13,"seed":"9MDOUVOIANLJFXNURXERULAMTGLTNPHWFVWY9Q9GLSKHRYUXNFWSKVYNTWV9YXTLJRFWMP9KGGPXOYACA","address":"EJQNOCSYUQDF9DQFOIVQTXYMOHLCNQVHZELFDHTFZHICJTYHBWTQKRTXTSYCWFYEV9PRJOHIAXQNINRCZ","optimalPurchaseTarget":-100,"optimalPurchaseTargetScore":-100,"availablePurchaseTargetList":[],"optimalSaleTarget":-100,"optimalSaleTargetScore":-100,"latitute":"51.065001","longitute":"-1.379232","amountDemanded":"5","pricePrefered":"15","distancePrefered":"12","energyTypePrefered":"1"},{"index":14,"seed":"FPRLAEYSNCPNWYNOMWNAX9NHMLIIFVNNTTBKVWDWRSSQWWICRCFGAKT9EN9LXVTQJVWLEPTTNKQ9AJTTQ","address":"CSXTYVZGPVVUIGLWHXQVV9HLJ9MPTELOSBHHPGXGCMDTTRUGZWDGMJRHRYLSEDZFIUXDSYII9WZKHFWSZ","optimalPurchaseTarget":-100,"optimalPurchaseTargetScore":-100,"availablePurchaseTargetList":[],"optimalSaleTarget":-100,"optimalSaleTargetScore":-100,"latitute":"51.531391","longitute":"-1.223559","amountDemanded":"1","pricePrefered":"15","distancePrefered":"12","energyTypePrefered":"2"},{"index":15,"seed":"IDPHAGDGPNSSJYYYUUBXDUWOUWEPYQIKESSWI9LRGJHOXLCLMKSEHNIFCSTXHFTLJX9YI9PMXABNBQMPT","address":"GSRUWVYIJKWNHSBFNYQGIJUJ9FFZCKYILEWOPLGDX99DMGHYMMG99FYC9DHVNJBAVK9JYYQKINJNDU9XX","optimalPurchaseTarget":-100,"optimalPurchaseTargetScore":-100,"availablePurchaseTargetList":[],"optimalSaleTarget":-100,"optimalSaleTargetScore":-100,"latitute":"51.914285","longitute":"-1.777191","amountDemanded":"2","pricePrefered":"15","distancePrefered":"14","energyTypePrefered":"3"},{"index":16,"seed":"MCDYMKHKHIVOMAGMIVWHCCQMEGBARMJF9XNN9OOLTFPCJPAIGBUC9JCSQDYSSIWDXSQOMRUAOWVG9CMTL","address":"NGOH9XIXSOIGHVLSSDDQQSCPXIOZTDHJVQFASUUFSHQCIUZZMTVEGSAJUYNISCCSBAILWCCDEQEULJILD","optimalPurchaseTarget":-100,"optimalPurchaseTargetScore":-100,"availablePurchaseTargetList":[],"optimalSaleTarget":-100,"optimalSaleTargetScore":-100,"latitute":"51.060764","longitute":"-0.317877","amountDemanded":"4","pricePrefered":"15","distancePrefered":"14","energyTypePrefered":"2"},{"index":17,"seed":"RHWUV9STJHLFSTDWNCUGKMRIFQCXUVUMWSAXXVSPVSLOEVXWTHDYJRHULUWHJ9UMRNWMVSBTQUFJKLHXG","address":"HAXUCJCBIUXTFPGCXTVONXMROLNEDIEWAHGBIANICFDWARDFXFLRMLMHHFBHFCVRVOGDALUPNDMSTHDHB","optimalPurchaseTarget":-100,"optimalPurchaseTargetScore":-100,"availablePurchaseTargetList":[],"optimalSaleTarget":-100,"optimalSaleTargetScore":-100,"latitute":"52.056303","longitute":"-2.282590","amountDemanded":"2","pricePrefered":"14","distancePrefered":"11","energyTypePrefered":"3"},{"index":18,"seed":"OVOIJWNHOTLNNCGLGCNHVEXMFLXVFQ9HHKYXKINSXJFRCFXRPLPINAONQBEIMPL9BVYBAUTLOMCYNMJLM","address":"KGGRUECCUUELYSLCUGAKUYLVWXWDCNKYRZJBNVIHMFBGRCHHWBQXALL9SHRRZS9RCSNLTBXSINVDVCWJ9","optimalPurchaseTarget":-100,"optimalPurchaseTargetScore":-100,"availablePurchaseTargetList":[],"optimalSaleTarget":-100,"optimalSaleTargetScore":-100,"latitute":"51.974749","longitute":"-1.278296","amountDemanded":"4","pricePrefered":"16","distancePrefered":"11","energyTypePrefered":"3"},{"index":19,"seed":"HUUNOQLQJSQUNKGDBIJVNPUQYFKNUQDDNYQWHDWWNFYDPHQKAIMTTEGAAICQOUSK99XCYPKWWTNGILTHK","address":"WSNZJ9TQPSKSIPHEWINOLVBIERPJVHRUTJQ9CJNWFZDUOTVZTVHRJFDPQ9JNCMYICRQXBFNKUIAVKVQXW","optimalPurchaseTarget":-100,"optimalPurchaseTargetScore":-100,"availablePurchaseTargetList":[],"optimalSaleTarget":-100,"optimalSaleTargetScore":-100,"latitute":"51.022130","longitute":"-1.873085","amountDemanded":"6","pricePrefered":"15","distancePrefered":"14","energyTypePrefered":"3"},{"index":20,"seed":"RKXQEGLDVOWDITHKFWBVAXWMYSYNEJQXFDKHBHB9HXDSRILUILESQHDNRYQQPCSCQCUNKHXPHBO9HCAJX","address":"KGL9OVELPJAETCGVCUGQMOBLVPYOPNM9CZJJNPW99QGUPIDBEPDJJPIDM9LIWKIKAHOGZBNILIGYPYTSD","optimalPurchaseTarget":-100,"optimalPurchaseTargetScore":-100,"availablePurchaseTargetList":[],"optimalSaleTarget":-100,"optimalSaleTargetScore":-100,"latitute":"51.644082","longitute":"-0.931737","amountDemanded":"5","pricePrefered":"16","distancePrefered":"13","energyTypePrefered":"3"},{"index":21,"seed":"LTGPYMYBGMNSGNRPYFDWGCIGCMMJFKPJPIPVVWVXEBPQHY9EYVAHNEKG9SWHLT9FACEFWBPQWPMXRJDTC","address":"HTCFLXFHDPTKPMXNLJJIHPAGEVIQLUM9RITF99QYNDRLTRQWIHQRVEPDRXHVJRFIWZVNXEJWVQAULALLC","optimalPurchaseTarget":-100,"optimalPurchaseTargetScore":-100,"availablePurchaseTargetList":[],"optimalSaleTarget":-100,"optimalSaleTargetScore":-100,"latitute":"52.124934","longitute":"0.087271","amountDemanded":"3","pricePrefered":"16","distancePrefered":"12","energyTypePrefered":"3"},{"index":22,"seed":"RDLOSQ99KWBMNGEYBV9SIFLPFUFUNBDNDPCJRFUPBFKFPPHPBCPDCCTHWYYFAKTQTQSHQDKEOCKRJQWBC","address":"PVISUHBALLVXUFAFNBYHREFYVZBCZWQOSYWHNNK9DCOUSNZW9RJIGWMDHQNWSDWWCVTLAOJKUHAWPPNLD","optimalPurchaseTarget":-100,"optimalPurchaseTargetScore":-100,"availablePurchaseTargetList":[],"optimalSaleTarget":-100,"optimalSaleTargetScore":-100,"latitute":"50.978180","longitute":"-2.245378","amountDemanded":"2","pricePrefered":"15","distancePrefered":"10","energyTypePrefered":"4"},{"index":23,"seed":"COYP9DRCHACEJY9B9FILDMABOTYJUQIHMNMC9QIMYDICKGACYYQLASQFPOOKCAFTPYVJHGXLPTMU9FL9V","address":"FVKRNHQJ9UZRGNSSGDFKTQKQBUEBILHYJCZMZIACVFZBBVDRGYQXWZTSRAHHMQWQUFVKVINTTQTTJUFYZ","optimalPurchaseTarget":-100,"optimalPurchaseTargetScore":-100,"availablePurchaseTargetList":[],"optimalSaleTarget":-100,"optimalSaleTargetScore":-100,"latitute":"51.052290","longitute":"-1.807990","amountDemanded":"5","pricePrefered":"15","distancePrefered":"12","energyTypePrefered":"0"},{"index":24,"seed":"CQWEW9DBPHDBOWFVJMURHDQGKRSFKWQ9EOOUDTBCPCDNVTKCDUBQAKFCCNTFKYOJ9QKADGKENVKNMAOFF","address":"OQTPKOWAX9NWV9KIORSRMVPJIDAGZMJMRVVFBBHILAWIPEMRHVJ9CDNNNASSKLUQIW9ODGIYJGPWI9RZA","optimalPurchaseTarget":-100,"optimalPurchaseTargetScore":-100,"availablePurchaseTargetList":[],"optimalSaleTarget":-100,"optimalSaleTargetScore":-100,"latitute":"52.055417","longitute":"-0.884546","amountDemanded":"1","pricePrefered":"16","distancePrefered":"13","energyTypePrefered":"3"},{"index":25,"seed":"EMCSLRGGYJYNFPLMQXVTLYKJOVSLHUVDTLCJOJDFKMPHCQXOPVLBVBGJTLCX9YQYKFHTWLPRJRFHMLKUB","address":"JVHLZKQON9KZBJTDPYOKFLQUIWXYJZSNKTKXXEURDHGANYMPHFWBAFQZRJJRXXBALOSHR9KNNQH9EFCLD","optimalPurchaseTarget":-100,"optimalPurchaseTargetScore":-100,"availablePurchaseTargetList":[],"optimalSaleTarget":-100,"optimalSaleTargetScore":-100,"latitute":"51.459638","longitute":"-1.875760","amountDemanded":"2","pricePrefered":"16","distancePrefered":"14","energyTypePrefered":"0"},{"index":26,"seed":"TERMWSHKSCQWRDIVWW9INAFRHJLT9WIQPPRD9GHIPOBODBHANBWJ9DSEPUQYCPCXLNRHMRSNHFIWSWSQV","address":"RDHHEUZRFAZNRJFCWONHVB9USHREAHFEVGZJHSQGNW9OZIAJNOZCBTFBFBGKWOPTJTMZNVF9KRF9ALRUW","optimalPurchaseTarget":-100,"optimalPurchaseTargetScore":-100,"availablePurchaseTargetList":[],"optimalSaleTarget":-100,"optimalSaleTargetScore":-100,"latitute":"51.760467","longitute":"-1.021352","amountDemanded":"5","pricePrefered":"15","distancePrefered":"12","energyTypePrefered":"1"},{"index":27,"seed":"NVEFRSNAXGELF9BUCLFS9ALPUUEXBLNVYIPUWNQWLEMBQIDLTIOACARLTUCHFHWDB9JHSFTKBXPKQDWOW","address":"BGPBRFTCUMBRSRJLYPMXFZTUGAZXWQBKKNY9VUJDKR99YNGLPTEDFNJMOEFGAJDAXEAMAHVNMRLPCTLUX","optimalPurchaseTarget":-100,"optimalPurchaseTargetScore":-100,"availablePurchaseTargetList":[],"optimalSaleTarget":-100,"optimalSaleTargetScore":-100,"latitute":"52.410316","longitute":"-2.321795","amountDemanded":"6","pricePrefered":"15","distancePrefered":"14","energyTypePrefered":"2"},{"index":28,"seed":"CWSFBMRCVJMRHAVMNRWYMYNE9UTNIJTMSMPNWKIIJMPTDCVEFAOXNVAESVGEBUAOCVOJTKUN9LT9FGUHT","address":"VNGSM9RYVJVUHUHIBHJISIXIZTQD9XIIHIQCQRYTRAMAAZFGQKWLITLULQBEQYBHAPSEFETEZHRIJADDY","optimalPurchaseTarget":-100,"optimalPurchaseTargetScore":-100,"availablePurchaseTargetList":[],"optimalSaleTarget":-100,"optimalSaleTargetScore":-100,"latitute":"52.034824","longitute":"-1.242514","amountDemanded":"2","pricePrefered":"16","distancePrefered":"14","energyTypePrefered":"2"},{"index":29,"seed":"JIDSF9RXMLKETSTTQXAVQORS9URVK9SUSIDOOPIWLOEIQNQKWCGABJUAW9DML9BWTOYQGEPWSFHIKDGQT","address":"JSGHIQDWHCWMCKNHOY9LTVKJRWU9BNHJPSIALX9TNIBNTNQWJLSSUCXQXLGMLVV9PEHNVLTRXRBXKPXUA","optimalPurchaseTarget":-100,"optimalPurchaseTargetScore":-100,"availablePurchaseTargetList":[],"optimalSaleTarget":-100,"optimalSaleTargetScore":-100,"latitute":"51.744370","longitute":"-0.331091","amountDemanded":"3","pricePrefered":"15","distancePrefered":"13","energyTypePrefered":"1"},{"index":30,"seed":"CRCJJVWRFLOFJANFDBJHMUYLGUTUJJH9FKLXDWBY9RBIOKMEGDDGYWUHBEBOYATCJBCJIYWUOKSYGJNXG","address":"ADYXBFPSFZHNZ9GSO9PNPIWVHMCNUVBBLYUKKYRPWRRFWCRIBWWOVANNMPTGBUARFURNXVAMAEMJXHWEW","optimalPurchaseTarget":-100,"optimalPurchaseTargetScore":-100,"availablePurchaseTargetList":[],"optimalSaleTarget":-100,"optimalSaleTargetScore":-100,"latitute":"51.732049","longitute":"-0.626873","amountDemanded":"3","pricePrefered":"16","distancePrefered":"13","energyTypePrefered":"3"},{"index":31,"seed":"PUIRITXJPWFTPSHRFCAJDTTBQQWKGHMK9KPASUMNPQCDNYQAYDABNIFPMPIRGIE99YIHYEKGEEKUVTBVR","address":"LEBNTKCYPVICYKXPSNEYSCTWORKSDQASHL9UJXTECUUL9NGKIAXYIEXJASKGXLPSLHQEDDTUXVTADRTRA","optimalPurchaseTarget":-100,"optimalPurchaseTargetScore":-100,"availablePurchaseTargetList":[],"optimalSaleTarget":-100,"optimalSaleTargetScore":-100,"latitute":"51.341146","longitute":"-0.628642","amountDemanded":"3","pricePrefered":"16","distancePrefered":"12","energyTypePrefered":"3"},{"index":32,"seed":"RMJGVC9MUBHFJWH9HDVIDXKXKTVSMTEXXNC9JLEGPLUPHJGPSXWUGVWEJOIHQMHMATKTUPIICLHDLDEUH","address":"9NGHEBGIU9FWMNRJPXZPXVSLSDIIWPHMZIRIYVJXOAYALIJFBKSRCLTLMJJPLMINW9YNYZHAXZPDYVGUA","optimalPurchaseTarget":-100,"optimalPurchaseTargetScore":-100,"availablePurchaseTargetList":[],"optimalSaleTarget":-100,"optimalSaleTargetScore":-100,"latitute":"51.404935","longitute":"-0.005482","amountDemanded":"4","pricePrefered":"15","distancePrefered":"10","energyTypePrefered":"3"},{"index":33,"seed":"9HGMKEBKMNVGN9OYWVQKFFQXEHEIRHKUANHRNJTUDBIUT9AS9CFJKYELDCOC9HOQSUPVTGLHNLRFNRYWK","address":"JD9HYHNXIFACHRKCGKULJSDKCUUXCUSVEWNYMLDFQHZSJGHYLBVYSBCMFQWGILSSSYTQCEXCZWZFQWCVY","optimalPurchaseTarget":-100,"optimalPurchaseTargetScore":-100,"availablePurchaseTargetList":[],"optimalSaleTarget":-100,"optimalSaleTargetScore":-100,"latitute":"51.549996","longitute":"-1.579289","amountDemanded":"3","pricePrefered":"16","distancePrefered":"11","energyTypePrefered":"1"},{"index":34,"seed":"GAKNDKADTQKTWSCVFYIQJHDVVYLNOQPFRQIGYDVNQLWUH9XHMLLNNRQFTRSXPJLLICISEBDXCSXTO9TPT","address":"AHORKRAGQPXFEEKRQYRFWVHGLMFQARVZVR9GVFEP9GQRSARUI9PXIDVX9MGPMFJRMURHVBWQD9SKULMVB","optimalPurchaseTarget":-100,"optimalPurchaseTargetScore":-100,"availablePurchaseTargetList":[],"optimalSaleTarget":-100,"optimalSaleTargetScore":-100,"latitute":"51.093911","longitute":"0.152542","amountDemanded":"4","pricePrefered":"15","distancePrefered":"14","energyTypePrefered":"2"},{"index":35,"seed":"MDBIRWVSE9OPQUNUCMALCUXNQOJHBI9PCE9YHRYFSNAATEHSK9IANHIWDJNUYPHHGTGVGOXQTHII99AXU","address":"AMOGCPRRGMVICVOWDNLJZYJFREOBVBOBMQGXIPEMZJCDOZP9UNTXRS9DCSJKTZMI9FIUOL9VPSGQMORCX","optimalPurchaseTarget":-100,"optimalPurchaseTargetScore":-100,"availablePurchaseTargetList":[],"optimalSaleTarget":-100,"optimalSaleTargetScore":-100,"latitute":"51.723604","longitute":"-0.856271","amountDemanded":"3","pricePrefered":"15","distancePrefered":"14","energyTypePrefered":"0"},{"index":36,"seed":"IMBBPDLSWJSUIOPUDOSXKSHFGTVISWHSPSTWTY9NFKGOVPCKCEVIEWSTR9VARSB9SKGHQDIWUFVHXBIBE","address":"VOYLUYMFQDCOYENEATISBQSFFOUB9BNKXNBFDFDTSHTRYBGJNVYEUJXWTLVBWIF9YLDBZLDP9CTVQCVFC","optimalPurchaseTarget":-100,"optimalPurchaseTargetScore":-100,"availablePurchaseTargetList":[],"optimalSaleTarget":-100,"optimalSaleTargetScore":-100,"latitute":"52.273914","longitute":"-0.289617","amountDemanded":"4","pricePrefered":"14","distancePrefered":"12","energyTypePrefered":"3"},{"index":37,"seed":"QHYEYOQAPWQDWUQYSQRJVJVOCOSIKOJVK9OFET9QOLTLXLRDGRGRS9TTGOAVKCTIMFJHDUBAIVRSOMNIS","address":"SEJKNHQNXBOIPXMZAQLXDXI9HWVXIAJIEVZPDR9TEHASFGYSQKRQVSBLMBWHFUVXREPIPAVAIANYZOQ9Y","optimalPurchaseTarget":-100,"optimalPurchaseTargetScore":-100,"availablePurchaseTargetList":[],"optimalSaleTarget":-100,"optimalSaleTargetScore":-100,"latitute":"51.294671","longitute":"-0.501608","amountDemanded":"1","pricePrefered":"15","distancePrefered":"10","energyTypePrefered":"3"},{"index":38,"seed":"JTTGKYPEFRXURPCXYPGGNSTLGLESPIPWLSUDIWHHBNRVYNFMJASB9DRFEKD9FBRB9EJD9YPMPOTPTNEE9","address":"BPQFOMREDTC9IWHFLRH9SMCQKUEVUCYVQQQHLDZBTNFA9EWZDB9OWNKXNULELDQHWPYLJAJZXVXSYDLXC","optimalPurchaseTarget":-100,"optimalPurchaseTargetScore":-100,"availablePurchaseTargetList":[],"optimalSaleTarget":-100,"optimalSaleTargetScore":-100,"latitute":"52.102018","longitute":"-1.041208","amountDemanded":"5","pricePrefered":"15","distancePrefered":"14","energyTypePrefered":"2"},{"index":39,"seed":"PVRHFYKYFUQQQNGNXXETUFNAQUWDSJLMFWHHU9AW9PXXDLHFYQRNSOAAOSTYLIFYXEHVMAFYGJU9FVBGM","address":"AFGRQXDJRVRO9RKMBJWLIIRBUVFXZI9JXEYVJLBTTIVKZ9GCTFPGATBUOQTLLFEQJOF9QPZXPGIPFBUCA","optimalPurchaseTarget":-100,"optimalPurchaseTargetScore":-100,"availablePurchaseTargetList":[],"optimalSaleTarget":-100,"optimalSaleTargetScore":-100,"latitute":"52.375245","longitute":"-2.119636","amountDemanded":"5","pricePrefered":"15","distancePrefered":"12","energyTypePrefered":"3"},{"index":40,"seed":"SDIECQQDWHICQV9NECGCWKCOYHBVKLQDUYHWIJBAPWJLE9GLLLEUCPWK9KWNBXKWNIAKFGMMBLJEJQMSB","address":"YMABXPVHSPQYGUEZUFMCREVLCX9ITOKOIRVK9RC9JLVSS9U9DFXEBJLTAMXHTIXEZCQ9CJSIH9ZFHNJNW","optimalPurchaseTarget":-100,"optimalPurchaseTargetScore":-100,"availablePurchaseTargetList":[],"optimalSaleTarget":-100,"optimalSaleTargetScore":-100,"latitute":"51.636639","longitute":"-1.246617","amountDemanded":"4","pricePrefered":"15","distancePrefered":"13","energyTypePrefered":"2"},{"index":41,"seed":"CJBLBILYWWYSJIDTLJXJDHETFRTIXFONPTOEKBOFCDDWBTELYNUTJLBGPDUDJKIXOSJNVCNGJF9KDECCK","address":"GGUVGUAUMELFMGFKTOSUCIOGFGVLGNHJ9JFASGFGEMVZFXRHHMPQMOWCDGOYWKUECYRRDBKKA9REXNPQY","optimalPurchaseTarget":-100,"optimalPurchaseTargetScore":-100,"availablePurchaseTargetList":[],"optimalSaleTarget":-100,"optimalSaleTargetScore":-100,"latitute":"52.321738","longitute":"-1.081470","amountDemanded":"6","pricePrefered":"15","distancePrefered":"12","energyTypePrefered":"4"},{"index":42,"seed":"EFVDQYIUITXCUAIPAQFM9RU9KWUVUHTPU9RCMWWLOBJ9IHSRIUQRTSQEO9VKFY9WGSPLMCLDMQLF9QF9M","address":"OVTBXMNXSBPLGLZAFXELQJKEUJBQDFRATCPTOQEIPJDRGFRAFDGOFBHWCOVCOKYHYMAUO9NONCKMATHAA","optimalPurchaseTarget":-100,"optimalPurchaseTargetScore":-100,"availablePurchaseTargetList":[],"optimalSaleTarget":-100,"optimalSaleTargetScore":-100,"latitute":"51.427149","longitute":"-1.291319","amountDemanded":"2","pricePrefered":"14","distancePrefered":"13","energyTypePrefered":"1"},{"index":43,"seed":"PGUTKIBAPFQCQGHNSQDSPLJRBKLEYMRKFNJFBMW9FKWLRCOKPJVQQJMNBYESVMVCLUOYEXWQPNT9AKVMJ","address":"CL9FOFGYDYFGERCOUULQFCSEJKLOZKXSJMNEJYYBAXCWKTRNNBXGQKVHXWJAWGRMOUDND9ZLVJFLWVQEW","optimalPurchaseTarget":-100,"optimalPurchaseTargetScore":-100,"availablePurchaseTargetList":[],"optimalSaleTarget":-100,"optimalSaleTargetScore":-100,"latitute":"52.342538","longitute":"-1.377454","amountDemanded":"4","pricePrefered":"15","distancePrefered":"14","energyTypePrefered":"3"},{"index":44,"seed":"AQQNAUXEMF9SOGYFYHRGVBVVNCNFUXXDPC9TIJBCLUUSHQMDGGGPETHDVEXPYTTQMUGJJLGAVIKUADYVC","address":"UOVUOZKUXRBMLANVJYMXLEARXEBOJJDWLJMTMATCGQYAAREFWZXGMQQYOCZTZKTMYINLWOE9ZABFESUIA","optimalPurchaseTarget":-100,"optimalPurchaseTargetScore":-100,"availablePurchaseTargetList":[],"optimalSaleTarget":-100,"optimalSaleTargetScore":-100,"latitute":"51.237042","longitute":"-0.944938","amountDemanded":"4","pricePrefered":"16","distancePrefered":"15","energyTypePrefered":"3"},{"index":45,"seed":"DIB9AVV9Q9LKEGDPXDPHSKYQOLPHXEQNJTVAJMLHMMDAUPKQAKVTGSXIJNUVIRPMWXUGYMKCBEFPUCUAD","address":"ACMXDSPYKJFBTELTXZFMSLVVQDENLVJASZRBPEVUSMABFGFHZSWLP9SAIHQIBSOUHBKUQPUWMNMNYBIYD","optimalPurchaseTarget":-100,"optimalPurchaseTargetScore":-100,"availablePurchaseTargetList":[],"optimalSaleTarget":-100,"optimalSaleTargetScore":-100,"latitute":"51.415523","longitute":"-1.368830","amountDemanded":"3","pricePrefered":"16","distancePrefered":"10","energyTypePrefered":"2"},{"index":46,"seed":"QSI9HXAXSYFCY9WNV9NGJIAREUDLECXRYUFGNBLHQGHOXICJONCKLLXCTHWYDOFQDYEUT9ECURTVLUFAM","address":"TAJSXPT9NDEAVNMEBYTWQETSEHPVCBPFXCKGEISRNYYJGNIWMPJQXNORTPN9KJYIORTRHSIU9DZRKMCKW","optimalPurchaseTarget":-100,"optimalPurchaseTargetScore":-100,"availablePurchaseTargetList":[],"optimalSaleTarget":-100,"optimalSaleTargetScore":-100,"latitute":"51.083879","longitute":"-2.329497","amountDemanded":"5","pricePrefered":"15","distancePrefered":"15","energyTypePrefered":"3"},{"index":47,"seed":"YPPSSXXRJJRLEUUDDRCAYQTBDOHKKRVLWMVFCCTMMALMRLXVTCEHYKOGAVHJWKRBAUY9AJRBNVSFDWVJS","address":"VHZUWJFUBAFLEFV9MLZPMQQCZPQRIRDRYSIE9YDZXRYSHRAIGEGCIMROMCIIDPFBMSPHBLWGIKCLAZFRA","optimalPurchaseTarget":-100,"optimalPurchaseTargetScore":-100,"availablePurchaseTargetList":[],"optimalSaleTarget":-100,"optimalSaleTargetScore":-100,"latitute":"51.730239","longitute":"-1.211261","amountDemanded":"2","pricePrefered":"15","distancePrefered":"14","energyTypePrefered":"3"},{"index":48,"seed":"UGDUXUCVQJANYHQSYVKYXXDTJNLXMJSWJQTSXYYPOAUOLWBNLQYCWYFHNKNMGVKJGNLDHNHIBFVWIFKJT","address":"SDSTWTVGKXVBBNAUWSRZLFVWIYCOHCE9NZOZIAK9EPLJSAVFLEFKUWTGTYADOGXRAYEPAFRNIKRYTL9AC","optimalPurchaseTarget":-100,"optimalPurchaseTargetScore":-100,"availablePurchaseTargetList":[],"optimalSaleTarget":-100,"optimalSaleTargetScore":-100,"latitute":"51.252958","longitute":"-1.584822","amountDemanded":"4","pricePrefered":"15","distancePrefered":"12","energyTypePrefered":"1"},{"index":49,"seed":"LIROKDQBDTQQXRCWWDYPEHLVIWIR9HNCTYDYYMNWMROWJCMEC9MQLPOBHDIJEPJUAMBGWQOEUTROAJKQD","address":"BMPFNHZXYZHYPPQINARUYWWRCYJFSDKCFIEFPWJUXSMQXKHVOWVPCSLMK9JCKQGXBZUMRPWOQWAPOBFTW","optimalPurchaseTarget":-100,"optimalPurchaseTargetScore":-100,"availablePurchaseTargetList":[],"optimalSaleTarget":-100,"optimalSaleTargetScore":-100,"latitute":"51.382165","longitute":"-1.040888","amountDemanded":"2","pricePrefered":"15","distancePrefered":"12","energyTypePrefered":"3"},{"index":50,"seed":"IRYLK9QDCCYVUKRJVULAKLSXEWKTYFVSWEYBEIMMQGIJMFXRJYUFCBKDGTMXUMM9OJPIHCTMOAHRJKXIA","address":"QYKAXNXJDJXFSTTENBZMFTGVYFJIMPYLEEQTTDPAKLPRAPGCQSBTCMZTBRBZUOPKAIZDRJULOTDMPRQQW","optimalPurchaseTarget":-100,"optimalPurchaseTargetScore":-100,"availablePurchaseTargetList":[],"optimalSaleTarget":-100,"optimalSaleTargetScore":-100,"latitute":"51.341555","longitute":"0.273076","amountDemanded":"2","pricePrefered":"15","distancePrefered":"11","energyTypePrefered":"3"},{"index":51,"seed":"ERKDUYUGBYUTANYEYYMHCUJRRQKI9UY9JLNKSGOGUDCRJVM9BEVHNAFNHGQFMONAVPDTWDRKLAAFVIEGC","address":"EUFDQRIXUGTGDIPUFXYKD9RRCWIYGUCICIHIOTLZIRFD9ZHMGBBOCPF9TBUCDI9GZTLCTPXQEEDOHVCKD","optimalPurchaseTarget":-100,"optimalPurchaseTargetScore":-100,"availablePurchaseTargetList":[],"optimalSaleTarget":-100,"optimalSaleTargetScore":-100,"latitute":"52.396064","longitute":"-2.340857","amountDemanded":"4","pricePrefered":"15","distancePrefered":"13","energyTypePrefered":"0"},{"index":52,"seed":"OGTQICYDMPCOYTJRCUGBQLBKMXAYHLRTJJYH9NOSLSAULLJJIVEUPCWIKOCKPXKQXJUNLKRPBPDDEYHOR","address":"XDMXHMH9RAPGZVJEFSVD9DJGLKUIJYWVZDGQIYMWEZOAPAJJGPL9FALBGNONAVKKCUNNOCPGXS9OJLVGY","optimalPurchaseTarget":-100,"optimalPurchaseTargetScore":-100,"availablePurchaseTargetList":[],"optimalSaleTarget":-100,"optimalSaleTargetScore":-100,"latitute":"52.328274","longitute":"-0.243257","amountDemanded":"1","pricePrefered":"16","distancePrefered":"11","energyTypePrefered":"1"},{"index":53,"seed":"NJDIFHTVMHRUSWVHKCSA9QQBWDOKYCLVEGHOR9DPHYRQYNR9EIC9SICRMDJYOGMNYSFIIFCPBLAGMDCRV","address":"BPQVINBBZZ9MFYMAFBDPKHTEBIIQIYPJPUJUJKKTTS9JFXBYKFRYYLWTAQDIXIUMKAENY9CGBEZURBTRY","optimalPurchaseTarget":-100,"optimalPurchaseTargetScore":-100,"availablePurchaseTargetList":[],"optimalSaleTarget":-100,"optimalSaleTargetScore":-100,"latitute":"51.076698","longitute":"-1.598744","amountDemanded":"5","pricePrefered":"14","distancePrefered":"13","energyTypePrefered":"1"},{"index":54,"seed":"NMQQDERRHEIXA9KUTQUAVIMNBNLITVJHUGEH9BWFEVHCTUQXQHAARJCANPGRRVEILSIOGU9KXMOOPQQQN","address":"IKQ9XLAIZIEGOEJKLIRMTPS9UAVPWVGZMAVKKSBDWFZEDZPNDPLEZCDSKLO9FQ9QOSTQVYKMXOKXOTKEC","optimalPurchaseTarget":-100,"optimalPurchaseTargetScore":-100,"availablePurchaseTargetList":[],"optimalSaleTarget":-100,"optimalSaleTargetScore":-100,"latitute":"52.294314","longitute":"-0.453530","amountDemanded":"5","pricePrefered":"15","distancePrefered":"11","energyTypePrefered":"1"},{"index":55,"seed":"QVXAQPJEDUYDDDNVPAC9ITLACDBSBL9VQUKSSCCMJXUCLLCMKMMNPRPEJOQJVGYFOJITJFBXNSTTPUMBG","address":"VOWUSPTEDTGPAYTUEIQEOAOBKIJNSSWXTHOY9FTSEFGJOFPXQUDNUGFPOMCVXZIMTXSYLZEJZATZIGSID","optimalPurchaseTarget":-100,"optimalPurchaseTargetScore":-100,"availablePurchaseTargetList":[],"optimalSaleTarget":-100,"optimalSaleTargetScore":-100,"latitute":"51.746126","longitute":"-1.933801","amountDemanded":"4","pricePrefered":"15","distancePrefered":"12","energyTypePrefered":"2"},{"index":56,"seed":"ICKYMJEWVDSINNMPSBITFRXCTDGWFI9MGTMHBKKYIYRVLGBWYRMVLDHXDICMOJIIDXFTQGLQVGPKUVXTJ","address":"LYSOHSH9XMCSFUG9ZJZKB9LKRTMSDHAOFGXRCCWTWJXHWYVXKVOMMVCJXANKJKNPIG9NKIWOUWZMECQYX","optimalPurchaseTarget":-100,"optimalPurchaseTargetScore":-100,"availablePurchaseTargetList":[],"optimalSaleTarget":-100,"optimalSaleTargetScore":-100,"latitute":"52.398608","longitute":"-1.422929","amountDemanded":"4","pricePrefered":"16","distancePrefered":"11","energyTypePrefered":"3"},{"index":57,"seed":"VCBPFVP9MKCMVVOWHDWAPVUHCBHESAMXQKJROUOULRFIKNAACCYOWCQWXQECKWDRQDTTTJRBSSFMGOKUI","address":"LWSXNSAZDRBDVYMNVKFQKBYRBWLZXWSYFJFEBPRRDKGNOWUSTMSFRQTFLVSNTFWGVORWAYYLEYVYR9JD9","optimalPurchaseTarget":-100,"optimalPurchaseTargetScore":-100,"availablePurchaseTargetList":[],"optimalSaleTarget":-100,"optimalSaleTargetScore":-100,"latitute":"51.427378","longitute":"-1.896044","amountDemanded":"4","pricePrefered":"15","distancePrefered":"12","energyTypePrefered":"1"},{"index":58,"seed":"OAXSFMWJMSTKMUFROFONGOCBCBGJLI9LUMTXXBVFBAKWPFRFHIISEXRJEGRXJTNOSSAVJHVMH9VFYFMEC","address":"XBCTSPKRTNOIZXSLOUWVLJYISYJCOLSGDQ9GEJXOJQLQFYFNICETHBJVCIEBUNKHWZQAHCQFAFZ9GUQUW","optimalPurchaseTarget":-100,"optimalPurchaseTargetScore":-100,"availablePurchaseTargetList":[],"optimalSaleTarget":-100,"optimalSaleTargetScore":-100,"latitute":"52.162232","longitute":"-1.445246","amountDemanded":"1","pricePrefered":"15","distancePrefered":"11","energyTypePrefered":"2"},{"index":59,"seed":"DKMAWXQCXVXDYNSYMIHHQRFOFBIY99T9GKBIKDCBSTXOSMIEOMHVEQFDOBXADBV9TOUUVDGUSTNQJWXQJ","address":"BZVVPZHKEZTZZSPDVRTMHLWMJXBLNMVYJBZQLOJOINULFTEFVWSAGJTBORGLSRLSYHNCO9TDYPFCVEGFX","optimalPurchaseTarget":-100,"optimalPurchaseTargetScore":-100,"availablePurchaseTargetList":[],"optimalSaleTarget":-100,"optimalSaleTargetScore":-100,"latitute":"52.352586","longitute":"-1.922943","amountDemanded":"4","pricePrefered":"16","distancePrefered":"12","energyTypePrefered":"3"},{"index":60,"seed":"IMFN9PJBCWYYLEFYGMET9EFCRUXT9DPUVEWTSQJHIJUTRVUVNVJTXNC9LU9ICJWHXX9IO9RDWDKKLULWH","address":"FMDANANKIBORPLCOAFJITBEAGDAGB9VZGTAFUPQHRDCTEMOPLCDWBOOWDKTAFS9BVTSIDHQYUKKFDOWN9","optimalPurchaseTarget":-100,"optimalPurchaseTargetScore":-100,"availablePurchaseTargetList":[],"optimalSaleTarget":-100,"optimalSaleTargetScore":-100,"latitute":"52.305611","longitute":"-1.674518","amountDemanded":"4","pricePrefered":"14","distancePrefered":"13","energyTypePrefered":"2"},{"index":61,"seed":"LFSUEHWUDHQHV9XGSNIXEXDHTATTFMUFODANJLPOWJMUUHAWWCTMXQEOGCFPWNRSCVWHBDVXHBDARWQXY","address":"FPTKKSSPIJVZSXHPZAUMTQVYUZFADJNPGS9NFHDZHEYJBFYTKLZQUJBOKNOLPAQHIAAFOJUHTRSZCJZUA","optimalPurchaseTarget":-100,"optimalPurchaseTargetScore":-100,"availablePurchaseTargetList":[],"optimalSaleTarget":-100,"optimalSaleTargetScore":-100,"latitute":"51.357967","longitute":"-1.916006","amountDemanded":"2","pricePrefered":"15","distancePrefered":"13","energyTypePrefered":"1"},{"index":62,"seed":"PGOVTWVHC9CTFVYBGPRNOFVNIYKQQKASVJ9CJABKIOMKHOVXBVHRYBHHVRW9HABFNBWIYRFXLLYVHAPDX","address":"SFMVZUYZJTPTBPPYVCLYEFLIMLMRKZTVFVWLHQYZKFVBRFNTQKOVKJPWWKASWHLLASGLBYF9BFTGRUNVX","optimalPurchaseTarget":-100,"optimalPurchaseTargetScore":-100,"availablePurchaseTargetList":[],"optimalSaleTarget":-100,"optimalSaleTargetScore":-100,"latitute":"52.259589","longitute":"0.160053","amountDemanded":"1","pricePrefered":"14","distancePrefered":"13","energyTypePrefered":"1"},{"index":63,"seed":"NTSTXXCPPBNVWBBG9FMY9UFMSVE9PSNLBPTAT9HPJT9FPMYCVVARBEAMUKUOEUUIIQEASGLMSURMXSQKQ","address":"JILMMTOEVRJBOPSWTPSEG9KI9ZENDZZJZYJMXEYQXE9OXSVTACBS9UQ9ONE9LKHPXQGGFHXMMQQWMG9UD","optimalPurchaseTarget":-100,"optimalPurchaseTargetScore":-100,"availablePurchaseTargetList":[],"optimalSaleTarget":-100,"optimalSaleTargetScore":-100,"latitute":"51.794181","longitute":"-1.474548","amountDemanded":"5","pricePrefered":"15","distancePrefered":"12","energyTypePrefered":"3"},{"index":64,"seed":"FRDCKUPPUUCDFTACWIRSOLMNONFGEQDMINYJQAXEF9JNMHVAV9CUWNWKEMEKCJKDQROJV9FQRGUWHAAEA","address":"CZEXAMQQNAHFZSWYDYLKDGAX9YILLABSIUOBMFUATOOSGHFKJSADH9BKVUJHLHW9HPONHUIOLN9WAQGBX","optimalPurchaseTarget":-100,"optimalPurchaseTargetScore":-100,"availablePurchaseTargetList":[],"optimalSaleTarget":-100,"optimalSaleTargetScore":-100,"latitute":"52.017241","longitute":"-0.318112","amountDemanded":"2","pricePrefered":"15","distancePrefered":"14","energyTypePrefered":"2"},{"index":65,"seed":"AHOUVNFGBXHJF9YMMYLFJHAQMFFERPBFHQ9MOMCEIUM99DPXVFBPQHMWJDAFCSEVDC9PXQCSHYKQSORKD","address":"CLHNURZXPLXOUIAXHTZVFFHOVW9NJRAQPEIEIKIISFWPWQBDZNYBKWZUOBLBTZZHHQOBGIUZBZQFVSHHW","optimalPurchaseTarget":-100,"optimalPurchaseTargetScore":-100,"availablePurchaseTargetList":[],"optimalSaleTarget":-100,"optimalSaleTargetScore":-100,"latitute":"51.171720","longitute":"-0.100063","amountDemanded":"6","pricePrefered":"15","distancePrefered":"12","energyTypePrefered":"1"},{"index":66,"seed":"KFNEK9XBQAEMRKQOEAIQQBXLSYQPXIQDTOGLXXJCNOXMTCS9QQPPCMKJIXANORBIOKTXPQMUDCQTOUGLX","address":"XTQPCUXPHBELIODRXGGZB9RHSNPKAEPSKQPEXNVOUKYW99YPUEWEUZXLPHZAWCY9HQX9BZAQNEMDTECRB","optimalPurchaseTarget":-100,"optimalPurchaseTargetScore":-100,"availablePurchaseTargetList":[],"optimalSaleTarget":-100,"optimalSaleTargetScore":-100,"latitute":"51.380002","longitute":"-0.347544","amountDemanded":"6","pricePrefered":"15","distancePrefered":"15","energyTypePrefered":"3"},{"index":67,"seed":"MRYBTOOHFPIQDE9QXHXTPHBSJS9CHWYKAWPTHYWELCNXDC9QTURF9QYN9USREONOPLIJGRXNUQJBBVVKR","address":"BNZYN9KUFFWMIFFWBHNQWLYTXFZHXHVNJGKFOPOLEDTVVWNPC9UDDZPDPPOMVWKHSFFTDLNPEITAMFEZX","optimalPurchaseTarget":-100,"optimalPurchaseTargetScore":-100,"availablePurchaseTargetList":[],"optimalSaleTarget":-100,"optimalSaleTargetScore":-100,"latitute":"51.980434","longitute":"-0.411630","amountDemanded":"4","pricePrefered":"16","distancePrefered":"12","energyTypePrefered":"1"},{"index":68,"seed":"OISDW9LRQNKFTW9U99YRUBOLAWJX9YPVHASCDSHJQENEVQEBFLW9FJXODKVJFYOWYQDA9POUQOQHAJGWC","address":"CJICMLYGP9FISHNMGAVIVQEPNLCYAACPDMZASUCHBJKYJXOCXDNJYQFWHRJXQTQBVTHX9UFQRBSQNSMIW","optimalPurchaseTarget":-100,"optimalPurchaseTargetScore":-100,"availablePurchaseTargetList":[],"optimalSaleTarget":-100,"optimalSaleTargetScore":-100,"latitute":"52.235716","longitute":"-0.453727","amountDemanded":"5","pricePrefered":"16","distancePrefered":"15","energyTypePrefered":"2"},{"index":69,"seed":"RHMFLFDDPDHDJJWVSUWINMC9NGN99WGC9BSY9NLKYRJWPHHLJHWGCNDSOXCQOTXENROE9NJHUABJDNN9V","address":"RWSRRVUCSUCPNQKSLMDGQIDTYNQZWON9QBKEJJT9LRQZJYQBRCGAZIXSCLAMRCGLPSSOSUCTMCOC9OBUA","optimalPurchaseTarget":-100,"optimalPurchaseTargetScore":-100,"availablePurchaseTargetList":[],"optimalSaleTarget":-100,"optimalSaleTargetScore":-100,"latitute":"51.740469","longitute":"-0.506478","amountDemanded":"6","pricePrefered":"15","distancePrefered":"13","energyTypePrefered":"1"},{"index":70,"seed":"XSYHDATHJEYKCPO9IHEBWCUPNEPLPMYJLWODHYOP9HOAOYONYSNALVQTVHFVJDVGRXXDNTXVQJUFRXOHT","address":"ISUN9YOANEPOPHXIQGYIEONBTACIEVHHHKTQJHTTTHHOTAYKDUNSLYD9VXUC9OMQRERNPKCYWTMIJHNJC","optimalPurchaseTarget":-100,"optimalPurchaseTargetScore":-100,"availablePurchaseTargetList":[],"optimalSaleTarget":-100,"optimalSaleTargetScore":-100,"latitute":"51.844866","longitute":"-0.328537","amountDemanded":"6","pricePrefered":"15","distancePrefered":"14","energyTypePrefered":"4"},{"index":71,"seed":"RWRBKOVLPHOBSTYJPCNBUHKMXTJTCDEXHNXNCUOLLHDHFINGV9JOJYJMLRRLEMWUPIHSOEYDMWRT9XK9U","address":"KGNPDA9YROKHZJPKQXG9QENSPTNLJRDTKLEUSSANTQGUJHNXLOXRRABEUPQMLTEOE9OAXJYEGUYRUVYAD","optimalPurchaseTarget":-100,"optimalPurchaseTargetScore":-100,"availablePurchaseTargetList":[],"optimalSaleTarget":-100,"optimalSaleTargetScore":-100,"latitute":"51.944155","longitute":"-0.687907","amountDemanded":"3","pricePrefered":"14","distancePrefered":"12","energyTypePrefered":"2"},{"index":72,"seed":"DPRJHXJDSRWBOOSXXVRVCTAIMDDLXMAUMLK9CWFWKYGOLXVYJLOF9L9RJMVEDGOVVBUOV9PBSTSWGMVNK","address":"9D9YLJHVGBP9MIWWX9ASTSQHZ9LHLQZIBMTMUDMZWLSPXTYZGRQHCC9JK9ZYRAENHTEIM9OEPAPECNR99","optimalPurchaseTarget":-100,"optimalPurchaseTargetScore":-100,"availablePurchaseTargetList":[],"optimalSaleTarget":-100,"optimalSaleTargetScore":-100,"latitute":"51.958150","longitute":"-2.158801","amountDemanded":"3","pricePrefered":"16","distancePrefered":"14","energyTypePrefered":"3"},{"index":73,"seed":"WUVFJJXXDFAKPBRXLMDNSLATXDLEOXXFRQCRIMJXJIMQTUDSCS9YNGAVVMUCTTQFOQDGVDH9L9VMRJOKX","address":"KQZM9L9FM9FEUZLMKKPOXSREGAQ9BURMTXPYAMXMPQEBGWQWBQKPNCSCNARUIPFIIZCVYGJDEOQPZERWX","optimalPurchaseTarget":-100,"optimalPurchaseTargetScore":-100,"availablePurchaseTargetList":[],"optimalSaleTarget":-100,"optimalSaleTargetScore":-100,"latitute":"51.936585","longitute":"-2.375447","amountDemanded":"1","pricePrefered":"14","distancePrefered":"14","energyTypePrefered":"2"},{"index":74,"seed":"VCPTDQDNODSHNGCPUQTQQWXSKTBDITSVBJBHKMNAWYTHOBMSDCJKPLOIJXCDRNCAGQETPWU9BQIDKETFS","address":"JADIGUTYLNLQBBUU9BZRDXYQBMZQUHMXKPHTIYCYFXTKHBSXULPJO9KHELYBRGOABTIOZTJIFJAMWZBTA","optimalPurchaseTarget":-100,"optimalPurchaseTargetScore":-100,"availablePurchaseTargetList":[],"optimalSaleTarget":-100,"optimalSaleTargetScore":-100,"latitute":"50.959587","longitute":"-1.405936","amountDemanded":"2","pricePrefered":"15","distancePrefered":"12","energyTypePrefered":"0"},{"index":75,"seed":"PFKAC9JLSRKAHYWNAVNDXHOCFPLNWVTHFMEQYN9NALKKWJGOWTTFYKMXNMNUIEIOBPLDTORXJDI9DRNFJ","address":"CXJTLRGTBENGAUFBWWEZMVYHTDZGTOKDJDYHHCHURSAONBOFYCYHSJ9WXNLAFLKALBRCALOMMWJQPBSQA","optimalPurchaseTarget":-100,"optimalPurchaseTargetScore":-100,"availablePurchaseTargetList":[],"optimalSaleTarget":-100,"optimalSaleTargetScore":-100,"latitute":"52.335197","longitute":"-2.027227","amountDemanded":"6","pricePrefered":"16","distancePrefered":"14","energyTypePrefered":"2"},{"index":76,"seed":"VFXJXDPKOMA9QOXRUCI9SSGMXDPMKOJMWLCREUWONSPMTGLJYHASLAWPIAREMTUQ9IVBAOOLTAAWXRJWT","address":"PQTJFTMARNCQSEBXJYKPLYRLDQWOAXRWWOHHNSJTOLPCEYEKWK9FRIBMHH9TG9BLLBVHUFVOUADPXHKGX","optimalPurchaseTarget":-100,"optimalPurchaseTargetScore":-100,"availablePurchaseTargetList":[],"optimalSaleTarget":-100,"optimalSaleTargetScore":-100,"latitute":"52.338627","longitute":"-2.383461","amountDemanded":"5","pricePrefered":"14","distancePrefered":"14","energyTypePrefered":"4"},{"index":77,"seed":"UVLQTWYQNQNVREPWKHQGGSUD9RIDLPFLVSGSOXAWDL9XIFNTJEA9MTYPR9G9OBVPWGKEBKIDSCWRXNFQW","address":"KCELSCWDRLTVPHEIOVDETAWAOGRJHSMNSVZVGMPAYCDNLNGNFXMOCLRMUZENFKNIFEWCNG9DZNOEYMWKD","optimalPurchaseTarget":-100,"optimalPurchaseTargetScore":-100,"availablePurchaseTargetList":[],"optimalSaleTarget":-100,"optimalSaleTargetScore":-100,"latitute":"51.855295","longitute":"-1.061669","amountDemanded":"4","pricePrefered":"16","distancePrefered":"14","energyTypePrefered":"0"},{"index":78,"seed":"QYUISF9DJVBVQYXWSDGUCWMAMSDJUCMFNRGQURIRJGCKQDM9LGTD9XVCBJRVRXBVITAOEQXNDYDJLAXVC","address":"EWKPJGGUWAMCU9LZDWVNTWPJOUJCFIPIOENHNULRMNDHQH9UGNLGZAHE9IXSH9HYOCIMRNFHCJDJQATED","optimalPurchaseTarget":-100,"optimalPurchaseTargetScore":-100,"availablePurchaseTargetList":[],"optimalSaleTarget":-100,"optimalSaleTargetScore":-100,"latitute":"51.664520","longitute":"-0.922485","amountDemanded":"4","pricePrefered":"15","distancePrefered":"12","energyTypePrefered":"1"},{"index":79,"seed":"QWUIAKLSICHHLJFPBLSAHGUQKK9N9MYJPBDDRQUJANSUXUOPVEKT9BBKMYDGESKIOMGYSBSB9YOMRYPWR","address":"EMNOFRFLIXDPEPUENZ9LMQYUTNEBTTTXEYGUEQQVUQHJWXGIXBKW9DEVITHJZMGHSPLKYCOOLJZXFTZFZ","optimalPurchaseTarget":-100,"optimalPurchaseTargetScore":-100,"availablePurchaseTargetList":[],"optimalSaleTarget":-100,"optimalSaleTargetScore":-100,"latitute":"51.484299","longitute":"-1.702148","amountDemanded":"4","pricePrefered":"15","distancePrefered":"14","energyTypePrefered":"3"},{"index":80,"seed":"VRHWTJLMMIHSJEVKKFANUWMNVXICGWRUPJE9ULPANDXFIHRNESYVIMKR9SB99OCUQVWASUJCUACKONLMN","address":"OGWDMOZQEVLA9XJTMAXKICTZJZREWBXTQKISOGYGSDHTIODZPMNLVAORKK9MM9GWPADKPOSZMBINOQRV9","optimalPurchaseTarget":-100,"optimalPurchaseTargetScore":-100,"availablePurchaseTargetList":[],"optimalSaleTarget":-100,"optimalSaleTargetScore":-100,"latitute":"51.394510","longitute":"0.248425","amountDemanded":"5","pricePrefered":"16","distancePrefered":"11","energyTypePrefered":"2"},{"index":81,"seed":"YRWSBTQXVKJRUEAGUPEKAVUCGURCQWUEKNHNAORTFMEWLYTLHIOKR9LJOUPHOKS9PFOMJNYFKNDVBWTWY","address":"DMLTXOZCIRTVNZJEPSWTMYQLPBMB9MNDEDIJPBXMGAWIN9WVQTSEHXNHNXJUANZAYPUCRNYJRTRLU9PYX","optimalPurchaseTarget":-100,"optimalPurchaseTargetScore":-100,"availablePurchaseTargetList":[],"optimalSaleTarget":-100,"optimalSaleTargetScore":-100,"latitute":"51.806755","longitute":"-2.064583","amountDemanded":"4","pricePrefered":"16","distancePrefered":"12","energyTypePrefered":"3"},{"index":82,"seed":"TAIJMHKYHUTJBBNBDCOTNMSRODCSICVPMEMVLHEMH9KPQJFCVJHDQKDBDGNMH9RSBQTMHTIVVVOXIBSDL","address":"SCILQQYAYLGZDTUKNUNFVRVVRKPZXLOKPMXTQLCFHEJNHVJTUUUBGYHYOANZN9OUBBVLWP9UCFQVMEGMZ","optimalPurchaseTarget":-100,"optimalPurchaseTargetScore":-100,"availablePurchaseTargetList":[],"optimalSaleTarget":-100,"optimalSaleTargetScore":-100,"latitute":"51.937678","longitute":"-2.104037","amountDemanded":"3","pricePrefered":"15","distancePrefered":"12","energyTypePrefered":"3"},{"index":83,"seed":"Q9VKKTHQH9CTMQDAKWNWCCBGIYCNCPDHTUMCBTSG99BBHAPUWMUWJOVWGGCHQTSFUNATTQDMNFD9FJAUA","address":"UDVTHXPIZSELDNUENYRMMBVNWWMPXJPWKGBQFPAXVQDVNCNWTEYJODCPUDRFBMJXNVFMUDA9BJUPWPWWB","optimalPurchaseTarget":-100,"optimalPurchaseTargetScore":-100,"availablePurchaseTargetList":[],"optimalSaleTarget":-100,"optimalSaleTargetScore":-100,"latitute":"51.271426","longitute":"-0.021012","amountDemanded":"2","pricePrefered":"16","distancePrefered":"12","energyTypePrefered":"4"},{"index":84,"seed":"RRGLCJULW9DJFDQYPSIX9HY99BRTKFYRRQHLMYLXWFLTHIHPGDQWPOJOB99C9ROWFWJXPYEYOSPESVGRT","address":"JS9MUWWSLRBNLKABGLDPRGUROBVHCDOANEFVJNKNJRLJSIIMZPBKMJMEJYBILSUWZAMO9LUMVJIMGV9BW","optimalPurchaseTarget":-100,"optimalPurchaseTargetScore":-100,"availablePurchaseTargetList":[],"optimalSaleTarget":-100,"optimalSaleTargetScore":-100,"latitute":"51.289314","longitute":"-0.059002","amountDemanded":"5","pricePrefered":"16","distancePrefered":"15","energyTypePrefered":"0"},{"index":85,"seed":"L9UQBQLSWWACXBQHVRKEYHIOKINKAFDTALJWSGUAKVXOFVUOYEOBDMRBJPGWTIODSSWBMDVVRAIYWLFXL","address":"AJMVAIEWYW99FXIVIWOO9ZY9DMADVEAVOEXEHJVXGWXCJRVNREZVLJAYHQEBNGNPPBZIERTDXIVTNLTMW","optimalPurchaseTarget":-100,"optimalPurchaseTargetScore":-100,"availablePurchaseTargetList":[],"optimalSaleTarget":-100,"optimalSaleTargetScore":-100,"latitute":"51.545967","longitute":"-2.379809","amountDemanded":"4","pricePrefered":"14","distancePrefered":"13","energyTypePrefered":"4"},{"index":86,"seed":"RAYU9RTJNH9XAQUBENVOWJXKEFQCDOBN9XEIIXNEUMLGR9SJIRJMGCAQ9JHSXRSXJPQWF9JD9KNUMGUSL","address":"9UEOIGGYBNMSNCNICBSRAHKQSDDLPHMGDBOYYWHXDAJXXTUXESJYTUCARXFFBKPGAYUAKNEVSCXETFIPY","optimalPurchaseTarget":-100,"optimalPurchaseTargetScore":-100,"availablePurchaseTargetList":[],"optimalSaleTarget":-100,"optimalSaleTargetScore":-100,"latitute":"51.101262","longitute":"-1.333671","amountDemanded":"4","pricePrefered":"14","distancePrefered":"13","energyTypePrefered":"4"},{"index":87,"seed":"YTIGPSVLQROJFX99TUSSHFUFXMM9GXVLEYRFTEIVOLCEHUEOMNYSHVCJKBFEDOYESAUOSAJLWBISECANP","address":"SPGLHAEPUTQGKZKDAEYFVGIPPNRJCZUVUPTHYXBVKAWFHWUXYCSWOGRXCAJKLTOVNGLCUSHF9GIKNEK9W","optimalPurchaseTarget":-100,"optimalPurchaseTargetScore":-100,"availablePurchaseTargetList":[],"optimalSaleTarget":-100,"optimalSaleTargetScore":-100,"latitute":"51.657809","longitute":"-2.314409","amountDemanded":"2","pricePrefered":"15","distancePrefered":"11","energyTypePrefered":"2"},{"index":88,"seed":"DMHKBLA9UIJWEJIMXFWRSLGWRODPOIMJAYVDNVATBVA9FUYOPCGEGAQWIJCVRHHSVTHOBLOBVLLLA9YCR","address":"KERBFHG9WMDPOLACKKNUVDAUZKUHRVFOIEEQPZOBQDWLGCXHTVGUBXZBQEIAWOWRVFHGECRIBGJAXXPIW","optimalPurchaseTarget":-100,"optimalPurchaseTargetScore":-100,"availablePurchaseTargetList":[],"optimalSaleTarget":-100,"optimalSaleTargetScore":-100,"latitute":"51.012756","longitute":"-0.692729","amountDemanded":"4","pricePrefered":"15","distancePrefered":"11","energyTypePrefered":"0"},{"index":89,"seed":"CKFGWQYAWYRVOWIPNEEOSQNLWLBTAQOUVSPAQMUHAX9JOMWLOGALIXRURCFWIHWHJ9HWVIAIUOOWVTEJC","address":"QGYWBIFJATTDMCAXXWKLSQFEQDY9RPRAYTS9S9HWZR9SVABVVNYVRFBFDM9WFCPD9ACEDFHAYVWQ9RYSW","optimalPurchaseTarget":-100,"optimalPurchaseTargetScore":-100,"availablePurchaseTargetList":[],"optimalSaleTarget":-100,"optimalSaleTargetScore":-100,"latitute":"51.572635","longitute":"-2.164563","amountDemanded":"6","pricePrefered":"15","distancePrefered":"13","energyTypePrefered":"0"},{"index":90,"seed":"QHTMQBBHHAHDBJVHLL9IULYXGWKQKQC9KHXMVKSWQ9ESCAFY9B9QAAHKKJYBXDGBC9IH9GSLPVOIYINBX","address":"IWVCUZCHIHRXSFP9OQILAXRGB9VUPYTRYAJOEWTRQQFNJKILPHMPIDBRPKZKDRNVOKETNOKVSUK9HOXMC","optimalPurchaseTarget":-100,"optimalPurchaseTargetScore":-100,"availablePurchaseTargetList":[],"optimalSaleTarget":-100,"optimalSaleTargetScore":-100,"latitute":"51.364445","longitute":"-0.774411","amountDemanded":"4","pricePrefered":"14","distancePrefered":"10","energyTypePrefered":"1"},{"index":91,"seed":"NULXVPOYKSCJHBXOIKULU9WHKIPGRKNWKKEOXIOAOLNEAC9QSDENOT9YXGXOXOYWIQDUKLSTQBDGLLYCM","address":"PROAXV9SA9LMXCHVWYXRWVJYOPAXEEMEZZZBUHBOOWUDYORJXJNTTQYIWSHZTKMDPAYUGN9GJAOSBCZTC","optimalPurchaseTarget":-100,"optimalPurchaseTargetScore":-100,"availablePurchaseTargetList":[],"optimalSaleTarget":-100,"optimalSaleTargetScore":-100,"latitute":"51.218514","longitute":"0.039915","amountDemanded":"3","pricePrefered":"14","distancePrefered":"11","energyTypePrefered":"1"},{"index":92,"seed":"RYQGKITGE9VJWUMQPGFFSFURWRKEHRIAGUDTNPACAASDMVYDUF9VEXTQEIVDTA9QLKBBKA9WCDPUJNFBL","address":"HTUXUBIWUAMFVRCGPDQLENYM9PQNHCSJBRVFMJINYW9PHDJZWNZCHOXSCXEBOXOBGHMVBBE9KRIKAZFGC","optimalPurchaseTarget":-100,"optimalPurchaseTargetScore":-100,"availablePurchaseTargetList":[],"optimalSaleTarget":-100,"optimalSaleTargetScore":-100,"latitute":"51.784962","longitute":"-1.346028","amountDemanded":"2","pricePrefered":"15","distancePrefered":"11","energyTypePrefered":"0"},{"index":93,"seed":"PHGXEPPHVNGRBODGKVY9MDIGOTXVAM9X9TNH9DCUMNNIVJH9WS9AYLUXBVSJXDYPHQA9YIGRW9DRO9YNK","address":"KFKQIOG9SPWWMLRESAOGCHARNSEJWBUQROKSBUE9XUFATRBFDQISBCEQUHPPBSXJUMKYEBRTRATUUFECZ","optimalPurchaseTarget":-100,"optimalPurchaseTargetScore":-100,"availablePurchaseTargetList":[],"optimalSaleTarget":-100,"optimalSaleTargetScore":-100,"latitute":"51.205324","longitute":"0.084821","amountDemanded":"5","pricePrefered":"15","distancePrefered":"11","energyTypePrefered":"2"},{"index":94,"seed":"CP9YURFBQSYPAHALNEKRWW9RWKOTTXPVBRMDRNKDCUFTLOYTDWCVNXAYWVJBBUF9OTLVMGUNFROSADKNQ","address":"CKEAICT9IVOBRORFJREVTWNBOICNQRTGNNQHKAERWKIFUQZQYTENVQIVQKJRAXDBCOEPZYMBMFXOQNTXX","optimalPurchaseTarget":-100,"optimalPurchaseTargetScore":-100,"availablePurchaseTargetList":[],"optimalSaleTarget":-100,"optimalSaleTargetScore":-100,"latitute":"51.145776","longitute":"-1.307633","amountDemanded":"5","pricePrefered":"15","distancePrefered":"15","energyTypePrefered":"2"},{"index":95,"seed":"CBJLRNOS9DPSYMGTUQXQAVFFNIXNXSJIERJKYWUMARHMGJVXCOPELHLOLEJGBHOGNURQGYEAKPLWFYEQH","address":"CRCYBRXQFKLJSGZUOTPSUUBTYCWPRJJPPEDP9YCHVCAUFVXVHYPHIOMODYPHWDTHHFWQFDSLOKGYQBHXD","optimalPurchaseTarget":-100,"optimalPurchaseTargetScore":-100,"availablePurchaseTargetList":[],"optimalSaleTarget":-100,"optimalSaleTargetScore":-100,"latitute":"51.075726","longitute":"-0.267971","amountDemanded":"1","pricePrefered":"16","distancePrefered":"12","energyTypePrefered":"1"},{"index":96,"seed":"MTIXQCQTSCUMUVMHCQMTUVBEHJUHRYLILSNLHKSROB9RGYLVFMCOSBLFBXFSFCYPHCVDUXWA9RMBTLFSX","address":"QJMNSPS9BXOQKCYUZPK9OUGLMADDVEHAMKIYWOWZVYZVELZEANLCLBZAVSVFIQFYGRYLXBTSPCTBCSXZA","optimalPurchaseTarget":-100,"optimalPurchaseTargetScore":-100,"availablePurchaseTargetList":[],"optimalSaleTarget":-100,"optimalSaleTargetScore":-100,"latitute":"51.152659","longitute":"-2.153098","amountDemanded":"2","pricePrefered":"14","distancePrefered":"14","energyTypePrefered":"2"},{"index":97,"seed":"VX9J9QWLGXIVBFB9LJPUEEQJRSSVNSWGN9PEGCWMLEKOSSKDLGJH9UUAOPKEHUHVJIUSO9HJMCJNUGIDV","address":"L9RGLSDUALHCYEBVRJRJOGZTAFWT9YPTITMBWNTCQAFMRBCL9FMHPAOSEYXOIALJIVRSMKUGJEIMULMPW","optimalPurchaseTarget":-100,"optimalPurchaseTargetScore":-100,"availablePurchaseTargetList":[],"optimalSaleTarget":-100,"optimalSaleTargetScore":-100,"latitute":"51.894052","longitute":"-1.785094","amountDemanded":"2","pricePrefered":"15","distancePrefered":"15","energyTypePrefered":"0"},{"index":98,"seed":"MBWPKOSYGPGLFBJLBFNGNNEQOREXFVQRBWSCWAI9RWYAXLKLHBOQPSOXDLDNNCRSDRVUYKOEVQXXMAQTL","address":"ZFKDYBFLJHJBMJZCBLAWOQVWMPSVXZNCRWKKUAGTTBAQLORE9NFMMSOPVKCFSWW9GHHAWBOFCQJIYUZPZ","optimalPurchaseTarget":-100,"optimalPurchaseTargetScore":-100,"availablePurchaseTargetList":[],"optimalSaleTarget":-100,"optimalSaleTargetScore":-100,"latitute":"52.349121","longitute":"-1.815766","amountDemanded":"1","pricePrefered":"15","distancePrefered":"13","energyTypePrefered":"1"},{"index":99,"seed":"JJFRJBXAJYPOXMJRPRUCTFU9CSHCQQEMULNKAONRFMPVNRKNGCXDJDFHQWPIRYNWREPYYQWDTGJTUVRJB","address":"TVTLQXJ9QQGJHQZKOMJIEORNGSWPRXWEWMEYLBVSHBYSEYGGJPSQIMOCTNBLAURMGTWCNFNJBQEGUVZYX","optimalPurchaseTarget":-100,"optimalPurchaseTargetScore":-100,"availablePurchaseTargetList":[],"optimalSaleTarget":-100,"optimalSaleTargetScore":-100,"latitute":"51.280990","longitute":"-0.365865","amountDemanded":"5","pricePrefered":"16","distancePrefered":"12","energyTypePrefered":"2"},{"index":100,"seed":"RKGX99MUFPHAKHPHY999STARUBKNWVQWFTOMAKBQUXJABGXDPHFVNCAMYMXV9MNOJJWKCMGELKKOEUPGG","address":"YGFNDMNCMACXHMJGNXCN9FEONMQHSRLCTACHCFAQQV9BZCKJNGCMATVTJHGTCDZAHPYRGVRK9NLPTEVHW","optimalPurchaseTarget":-100,"optimalPurchaseTargetScore":-100,"availablePurchaseTargetList":[],"optimalSaleTarget":-100,"optimalSaleTargetScore":-100,"latitute":"51.470374","longitute":"-1.405477","amountDemanded":"2","pricePrefered":"15","distancePrefered":"13","energyTypePrefered":"3"},{"index":101,"seed":"XJHNAPGKPLJLJMAPQEGEL9FDPEPHBWLILGJAHHMOCJHYFBIEBNWNIOKDCELSVFBEJJDDQMPANTMDIFRNV","address":"IBDQHLCTJFVWBGGLLSA9AYTLTLUUFA9FBXKORKGZQVINGQVJENFEWCYSLCKQEONWNZHPNUDOYTLSMKYJA","optimalPurchaseTarget":-100,"optimalPurchaseTargetScore":-100,"availablePurchaseTargetList":[],"optimalSaleTarget":-100,"optimalSaleTargetScore":-100,"latitute":"51.148772","longitute":"0.225722","amountDemanded":"2","pricePrefered":"14","distancePrefered":"10","energyTypePrefered":"1"},{"index":102,"seed":"QTEEDWLXUKIKLXH9FJIVRXUQMAV9BEKANSGXHXERCTIUMQOHBUPWJQSRWNXVTESJGDVRAIBWHJPFQJSLO","address":"CKSEMOLGMGNKYUORLJCFWLUPVZYCZRKYNZUUHVP9LLMSSRMXUFMJPEPPQAIVVYCQYEDHFTQJRQWJJRSTX","optimalPurchaseTarget":-100,"optimalPurchaseTargetScore":-100,"availablePurchaseTargetList":[],"optimalSaleTarget":-100,"optimalSaleTargetScore":-100,"latitute":"51.868803","longitute":"-2.098847","amountDemanded":"3","pricePrefered":"15","distancePrefered":"14","energyTypePrefered":"0"},{"index":103,"seed":"KXPNTIPY9BJJIVYELMUABSQQJUNOHAFYXRFGGSYUFGDPRACHVXDTKSGUCGYBNIAKAHBWWBEGHPAIUUKPM","address":"JFSRUPQHPNWRHSWEEJSWG9YTPNSWUPWURRFZVXCF9UZBKHMXJA9JWDJKESYNKCULJSSFISQJTREOVXJCW","optimalPurchaseTarget":-100,"optimalPurchaseTargetScore":-100,"availablePurchaseTargetList":[],"optimalSaleTarget":-100,"optimalSaleTargetScore":-100,"latitute":"50.994625","longitute":"-1.309676","amountDemanded":"5","pricePrefered":"15","distancePrefered":"10","energyTypePrefered":"1"},{"index":104,"seed":"WSDHAVNMXJOQYNBDL9X9EVOUKFUEIBPTFYLASAFCMKJVMAKULTRTRSY9L9SKMFFARUXWTTNLJXJRCWABN","address":"BMIMNHWERBSJ9UBXAIYXN9CCHFEGXGGB9YRUVY9HPFNSMHVQLFANYGEMXBEXJIPGJXPYCNBLO9GWCNRWY","optimalPurchaseTarget":-100,"optimalPurchaseTargetScore":-100,"availablePurchaseTargetList":[],"optimalSaleTarget":-100,"optimalSaleTargetScore":-100,"latitute":"52.222949","longitute":"-0.167299","amountDemanded":"6","pricePrefered":"15","distancePrefered":"11","energyTypePrefered":"1"},{"index":105,"seed":"TE9VG9CWRJOBWAKPQKQBXIKEOXFIVFLGUQJWKMPVKB9XGYBBHEHKFVGPKNCRXDRWVXTWKABBWUMD9KQIT","address":"L9YRJDYPVNWZEVDSDNFZV9UM9EGBPJZZYCTYB9CADWPEJGUVUGXMTIILMUUFBSQLIUIKEUOUJVIFYZJPW","optimalPurchaseTarget":-100,"optimalPurchaseTargetScore":-100,"availablePurchaseTargetList":[],"optimalSaleTarget":-100,"optimalSaleTargetScore":-100,"latitute":"51.380860","longitute":"-2.247823","amountDemanded":"4","pricePrefered":"15","distancePrefered":"12","energyTypePrefered":"1"},{"index":106,"seed":"PHGLD9NPLQTWWYPNCBCJLDXDKVNIDTJSAMRGHXAFM9LMBIKAPI9DQGDHRXMVJNPTTMHVMTETGCJLNOYWJ","address":"RXHCKFFATRPYNCKILG9BLVMMEZBSNBHFMWQJDWEZDGRZCMAPY9MV9U9ZHSJUPIPJQTULHO9VNHYAJRXLX","optimalPurchaseTarget":-100,"optimalPurchaseTargetScore":-100,"availablePurchaseTargetList":[],"optimalSaleTarget":-100,"optimalSaleTargetScore":-100,"latitute":"51.511296","longitute":"-2.025383","amountDemanded":"2","pricePrefered":"16","distancePrefered":"11","energyTypePrefered":"0"},{"index":107,"seed":"COUVE9MPFOYKWQHVEMXUFGQJHGWOTHPWSTVRYLIVAI9OKLWHSKSXEIRNWTWMDK9QSGWIAJBWWQSHQFXN9","address":"VGISDKRHMYQFLQSYXVKTWTHOZAMYV9ETTTFHACKRMHSUUYURAKCDNLTWRNELUODYKLJRCYQPECJXSWS9Y","optimalPurchaseTarget":-100,"optimalPurchaseTargetScore":-100,"availablePurchaseTargetList":[],"optimalSaleTarget":-100,"optimalSaleTargetScore":-100,"latitute":"52.415895","longitute":"-0.863508","amountDemanded":"4","pricePrefered":"16","distancePrefered":"10","energyTypePrefered":"2"},{"index":108,"seed":"GPRNBRFUTXTCVHJPUIAQCPRVBNHLWKBUTNASOCKJDHPH9RQCDUN9AFUDHMMPAJOLQTJCWHDVVENBCXT9X","address":"ORCUWBKAJNEPH9EHX9XIGFA9QWRCFNEWT9KHBMHORQABZCQGTZEQYQYZPYNY9XAFLNMXHLSHHCNQCVKVB","optimalPurchaseTarget":-100,"optimalPurchaseTargetScore":-100,"availablePurchaseTargetList":[],"optimalSaleTarget":-100,"optimalSaleTargetScore":-100,"latitute":"51.436839","longitute":"-0.288129","amountDemanded":"2","pricePrefered":"14","distancePrefered":"13","energyTypePrefered":"2"},{"index":109,"seed":"KAIAY99JBTIQDCMFFUEIRDPYJWBSLED9XYYCDSCMCMBAJLMTINSKVNODMIP99UTTERSHQKMPABWERSIEJ","address":"CUUJCCZUKJYJDKALWPKIRIFTASOCBOOFKRJYYXGUYQWETKKXQQKHLYUTUWSZKAGGOIUDJDVPZHYYDAAT9","optimalPurchaseTarget":-100,"optimalPurchaseTargetScore":-100,"availablePurchaseTargetList":[],"optimalSaleTarget":-100,"optimalSaleTargetScore":-100,"latitute":"52.190737","longitute":"-0.933981","amountDemanded":"4","pricePrefered":"16","distancePrefered":"14","energyTypePrefered":"2"},{"index":110,"seed":"DSCXUPTITGDJIJLWWNESERBQGHLYLD9LYNRCRKJYKWWWWMJGLBNGXKGK9MQJBPRLHDUWMNNFI9BTGIOKE","address":"SEFX9PAPOAQWWSQWYGWBADAFFZIBFYCBCFOFGEKQQWHZRCCDCADCSIKKGGOYKGMATIBUYRXJACIKZ99GD","optimalPurchaseTarget":-100,"optimalPurchaseTargetScore":-100,"availablePurchaseTargetList":[],"optimalSaleTarget":-100,"optimalSaleTargetScore":-100,"latitute":"52.212653","longitute":"-0.600095","amountDemanded":"1","pricePrefered":"14","distancePrefered":"12","energyTypePrefered":"3"},{"index":111,"seed":"ERGUPF9JBQVMHDFRXWAGONPAPPOFUS9BSWWBLSIQKXCNYCGKQBMLSUGMGQPXPKOAFQVHTBNLRYNJFLQNN","address":"DNIFIUC9JMXVNVVCQW9LJWDKQAWUIIKZNOMRCAIXFZGPIEGNDNGIK9BHLRQZYWTOSUJSVSQNPJZTMTUGX","optimalPurchaseTarget":-100,"optimalPurchaseTargetScore":-100,"availablePurchaseTargetList":[],"optimalSaleTarget":-100,"optimalSaleTargetScore":-100,"latitute":"51.817253","longitute":"-0.954092","amountDemanded":"6","pricePrefered":"16","distancePrefered":"10","energyTypePrefered":"2"},{"index":112,"seed":"9RJPKIBUVCCGQA9RBUHNMFHSENIX9NJYEDLUADNHCCVJRNWLMJSMK9YTBJOFGT9EVVGTXTWMTILVNH9YU","address":"PFSDGT9HYIAUBUXHHEIMYRPXLGBEZEWWGQQYYNXAGBFREWLEEVQCHXBBINWXATSJGNW9IQDHCPKKFUAEY","optimalPurchaseTarget":-100,"optimalPurchaseTargetScore":-100,"availablePurchaseTargetList":[],"optimalSaleTarget":-100,"optimalSaleTargetScore":-100,"latitute":"51.660123","longitute":"-0.239920","amountDemanded":"5","pricePrefered":"15","distancePrefered":"11","energyTypePrefered":"3"},{"index":113,"seed":"DTHJFOXLRIJOURXGJCSLQWFRWORBFNMIQDYQQGAGCXBARNHGSVHJXHF9DHCDDFQDVFVXB9KIUOYJEBBPF","address":"IDWSLOWNYHDAFAHCMBFKLFUIT9HVNZJTKVMXH9TRAFIKWDTCHRYEFUEOHVXPSRNWHMCNARRAWF9NVLRDC","optimalPurchaseTarget":-100,"optimalPurchaseTargetScore":-100,"availablePurchaseTargetList":[],"optimalSaleTarget":-100,"optimalSaleTargetScore":-100,"latitute":"51.087726","longitute":"-0.707404","amountDemanded":"6","pricePrefered":"15","distancePrefered":"14","energyTypePrefered":"1"},{"index":114,"seed":"PSOLHLGALQVAJLN9BFEXNTAHBX9CFYRAEYBLCLQJVKCWCWGKOBLGDHXRXTRGFFS9BVYSLDIEMIIVJGPYO","address":"DNRBDBSOVKGZJBWGERZCBLAGNIMPQIKMSDQA9GNIBSATCIUOIJQDLRWYAHIGZ99VWGXYXMLTHCYSKINGD","optimalPurchaseTarget":-100,"optimalPurchaseTargetScore":-100,"availablePurchaseTargetList":[],"optimalSaleTarget":-100,"optimalSaleTargetScore":-100,"latitute":"52.019363","longitute":"-1.263543","amountDemanded":"4","pricePrefered":"15","distancePrefered":"14","energyTypePrefered":"2"},{"index":115,"seed":"DVYCISQCJIBXPOHJMCRGAXMVWJGYRMMLMGCBKOCWDOEBRRCGYXBBVUNJTKAWCTQTBGTKY9ISHAXLSVFKO","address":"CIOQEAWRGSFYIDZVMDUWJVBUZPMIY9NPLRFOYWYZDDYWY9LPVXARKPQVJLTKTMC9J9WQXLIWCHOVJAVCW","optimalPurchaseTarget":-100,"optimalPurchaseTargetScore":-100,"availablePurchaseTargetList":[],"optimalSaleTarget":-100,"optimalSaleTargetScore":-100,"latitute":"51.368027","longitute":"-0.396965","amountDemanded":"5","pricePrefered":"14","distancePrefered":"13","energyTypePrefered":"3"},{"index":116,"seed":"XWT9JJRSKWIXHGOOPOVXCRDGX9BW9YBBUKNCBHFLFGFWDBYOGRYUSTOHQFTRAPBOBADVKISMBGVAEHACM","address":"QHRX9JURYMOFDCSOQVEWTMKCBSIKFSNFUONWBGHDQZZMNIEYWCHYLEKZUTPWAPZXHBBCJNBTXQKWHXFIC","optimalPurchaseTarget":-100,"optimalPurchaseTargetScore":-100,"availablePurchaseTargetList":[],"optimalSaleTarget":-100,"optimalSaleTargetScore":-100,"latitute":"50.984678","longitute":"-0.550241","amountDemanded":"4","pricePrefered":"15","distancePrefered":"12","energyTypePrefered":"2"},{"index":117,"seed":"AEWIPSYYVHFLQUFXYVYYVKDAEOPDAUAYYNDUBLNM9XLPHGRCXVH9CTHKHGVPYUFEUUTSB9MO9VBPDVNLR","address":"SAVUQZOBBZZENZGSILDONSERMLSWRJ9TERJB9NEEXBBSFOSKMUNRLAWPNMESHTNEYPGLOUKV9GDFXQAFW","optimalPurchaseTarget":-100,"optimalPurchaseTargetScore":-100,"availablePurchaseTargetList":[],"optimalSaleTarget":-100,"optimalSaleTargetScore":-100,"latitute":"51.983439","longitute":"-1.007657","amountDemanded":"2","pricePrefered":"16","distancePrefered":"15","energyTypePrefered":"2"},{"index":118,"seed":"BMUNXWOPLDOQFUFUFYD9TOKIH9FYUKECWTAQ9LTFBBDUUPL9DTSKNCU9QJJTOSOLVK9IRTDPNMHGUFDHU","address":"UDRTOFMOJQWHVEVPHBQYT9EIJBYWXEHHB9GTAXNCUCPPXDIFSTTPDO9QS9XCEHJ9NMBXWRR9WFDOAHU9W","optimalPurchaseTarget":-100,"optimalPurchaseTargetScore":-100,"availablePurchaseTargetList":[],"optimalSaleTarget":-100,"optimalSaleTargetScore":-100,"latitute":"52.021212","longitute":"-0.022391","amountDemanded":"5","pricePrefered":"15","distancePrefered":"11","energyTypePrefered":"3"},{"index":119,"seed":"ODNEIWGAHHHXERKTBAJQBOAJUUPHCCUMPB9SQGICCYBBJFUQBY9PLRUTJTVSGDYCRSSVGYNPNXYCOAVTF","address":"RNMNGBTDGZTQIJLUOMVZMIZGQRCKQX9YSADSVBXGPVCXAXZWBVLI9TEJECSXOCLQFZQVILBFZ9FM9AOED","optimalPurchaseTarget":-100,"optimalPurchaseTargetScore":-100,"availablePurchaseTargetList":[],"optimalSaleTarget":-100,"optimalSaleTargetScore":-100,"latitute":"51.427629","longitute":"0.118448","amountDemanded":"5","pricePrefered":"14","distancePrefered":"10","energyTypePrefered":"3"},{"index":120,"seed":"OOYJCAEHGBOYTYAAOUBVAPLE9AJJIXFBGLEBFHCEWKKDGUG9YGRYEUWXXGFNNCHOAKCQRXDSYHTPVGWQW","address":"GQITVUXOKGURCIADNFPDNNSANHDFHOCNW9XWVRPKRGZCTHALWECXORZMJPRFXNPMTHLMPBXRIVYXNLTKX","optimalPurchaseTarget":-100,"optimalPurchaseTargetScore":-100,"availablePurchaseTargetList":[],"optimalSaleTarget":-100,"optimalSaleTargetScore":-100,"latitute":"51.420055","longitute":"-0.572923","amountDemanded":"2","pricePrefered":"14","distancePrefered":"13","energyTypePrefered":"3"},{"index":121,"seed":"HEEKNWUEKDTAKCEYWUOPQOM9CWCJWWFRCEJLRTYRABUPBPJWOVEFJRHRTUCDRRRTNIBYPCBLUQLKUMGWN","address":"AMKSFOWHBUZZEHKKUGOBIRKBCSVSH9MSBRKTNFEINKKFPEOPWPNNLWTKIINCZVLXKIXYHQBITGJU9UZMD","optimalPurchaseTarget":-100,"optimalPurchaseTargetScore":-100,"availablePurchaseTargetList":[],"optimalSaleTarget":-100,"optimalSaleTargetScore":-100,"latitute":"51.799643","longitute":"0.091693","amountDemanded":"5","pricePrefered":"15","distancePrefered":"15","energyTypePrefered":"1"},{"index":122,"seed":"QYUTCOGIVNYG9JQQOVMGJMVDBVJQJHFHDGFFBOBIQNHMRF9XWQGDYDFCOADCIIHWNIDVKUNVUJSIUBTGI","address":"NJKQADCJXPIYOHQB9LQTOCCFDEQWPR9ILQJUZMAKIIFEYPXYKGXYBNOVLLPJWZHAHCYOSUFSWXNCXGWOB","optimalPurchaseTarget":-100,"optimalPurchaseTargetScore":-100,"availablePurchaseTargetList":[],"optimalSaleTarget":-100,"optimalSaleTargetScore":-100,"latitute":"52.197977","longitute":"-0.131111","amountDemanded":"5","pricePrefered":"15","distancePrefered":"13","energyTypePrefered":"1"},{"index":123,"seed":"QKHVISDYO9HJELRCCUXDVO9MH9VQAIFWIFSSJCRAOYJGGXDBKENJGRADXJMWYYLWBPFPFIDCAIQU99U9U","address":"XBABHQITRIDQNSZFUWKAN9HAWXOKWTT9AR99SHQOQUJDYXQZRNFDLYBKFMADVKYVIXCKBNIUPWKTVPE99","optimalPurchaseTarget":-100,"optimalPurchaseTargetScore":-100,"availablePurchaseTargetList":[],"optimalSaleTarget":-100,"optimalSaleTargetScore":-100,"latitute":"52.278245","longitute":"0.246962","amountDemanded":"2","pricePrefered":"15","distancePrefered":"13","energyTypePrefered":"3"},{"index":124,"seed":"TVJA9K99IOATSDFVEVSAW9EBMIWQW9PLDEGHJOHTADODWFQWGPAPBOQPGPVLIMVXNGMEEWVVTYINWJFCP","address":"WSOSXSKOVZFJGMGJFEPUSZPIJVMAUYRZUKXPIEUOIQGWUQZKDJWNYVWQNYCFZOWCIJIIRYMYOXMT9LQGC","optimalPurchaseTarget":-100,"optimalPurchaseTargetScore":-100,"availablePurchaseTargetList":[],"optimalSaleTarget":-100,"optimalSaleTargetScore":-100,"latitute":"52.243855","longitute":"-2.279310","amountDemanded":"3","pricePrefered":"16","distancePrefered":"14","energyTypePrefered":"2"},{"index":125,"seed":"LJVGFIALLADV9WQCK9DFGMLSTWBLMTVFLROXFU9YXVIYL99WPCCKCPMTPWHSBCKUXETC99SLECCGKAKUF","address":"ZYQFBIPOXDWCQUZLEQUISIDCBB9LXDTNBO9KSWWXWYXDSTPIKFJ9HMEHSFMRRDUUHVVOVPCBIWZCYLCRY","optimalPurchaseTarget":-100,"optimalPurchaseTargetScore":-100,"availablePurchaseTargetList":[],"optimalSaleTarget":-100,"optimalSaleTargetScore":-100,"latitute":"51.181729","longitute":"-1.546894","amountDemanded":"2","pricePrefered":"14","distancePrefered":"12","energyTypePrefered":"2"},{"index":126,"seed":"NRSNEAYMUGLJYNXVEUXYGOUYIPWBUENVOINNGOYGHPBAHISDHPMDKDSOYKWGQNCRDRUQYDYJCUHFBFHPV","address":"M99HUZKFMSMYMWMAZNFXABGWOITRGEESXLHO9FTRQELXEWGHTCYRKRYKXCWYVOUVQMASACVULFQIKPLK9","optimalPurchaseTarget":-100,"optimalPurchaseTargetScore":-100,"availablePurchaseTargetList":[],"optimalSaleTarget":-100,"optimalSaleTargetScore":-100,"latitute":"52.131236","longitute":"-1.113094","amountDemanded":"2","pricePrefered":"15","distancePrefered":"14","energyTypePrefered":"1"},{"index":127,"seed":"JQSKIKASAGANJSXKFPEQWUWDCUANRJVAAYJYWVOFMKQJPYOQSMYSYEQHOQWDFCFYHGWGDHFRWY9AVICKF","address":"MPLDFNQLUUT9SBTBQ9W9QSHWAMLEIMBGWVRPXVMNBDDBRUGUOALNLDEGPFLIYLPGBKWXGRMRFSTCMOTLY","optimalPurchaseTarget":-100,"optimalPurchaseTargetScore":-100,"availablePurchaseTargetList":[],"optimalSaleTarget":-100,"optimalSaleTargetScore":-100,"latitute":"51.584055","longitute":"-2.162467","amountDemanded":"5","pricePrefered":"16","distancePrefered":"11","energyTypePrefered":"1"},{"index":128,"seed":"TQPPEOWAQKJVUWAQQOBGUIXHLXNVIWOCNKUDHNFBRDEQRGJWUFSMWWTRYSOW9GAAERLJDJSXPVWNJXCSN","address":"RLGLQERRWCUDPZWK9GNYVVFGLM9FJWMZMAKJJLZWL9WATUQ9HPDWVNXMXRMLQWBHPERFYJHD9SDNRFOVD","optimalPurchaseTarget":-100,"optimalPurchaseTargetScore":-100,"availablePurchaseTargetList":[],"optimalSaleTarget":-100,"optimalSaleTargetScore":-100,"latitute":"52.130644","longitute":"-0.605348","amountDemanded":"3","pricePrefered":"15","distancePrefered":"11","energyTypePrefered":"0"},{"index":129,"seed":"B9TYENTFXDFHMC9LMHGXUWTSROHGQ9IPWBOOBBBAESHVMMEI9EUAAU9NGNHRJLJPLHMXTSMRNRPQSHPSC","address":"UIJCDNBOAEWSGZTWH9L9QL9HCBUZRGWPIDQNRXNTGLOJVWDOYNGZY9PUMXQYXCTQQDMWLTLVKWLLGFTAC","optimalPurchaseTarget":-100,"optimalPurchaseTargetScore":-100,"availablePurchaseTargetList":[],"optimalSaleTarget":-100,"optimalSaleTargetScore":-100,"latitute":"52.275804","longitute":"0.228856","amountDemanded":"6","pricePrefered":"15","distancePrefered":"13","energyTypePrefered":"4"},{"index":130,"seed":"IAXCTFOHPMVHWMXHBIYFFUHKRGRJMDNISIVMPFATERXHBFLFGLQUTDDJXENQIHTKRPCFUWMXNQFORVF9P","address":"YDWEFGAEYUHHCU9QXAOYWIHIYBLWRIWFYEKPIPEBHEVODVLBQZOPQLHXXTARVNKKQFFRPGJDWJMRDSRCW","optimalPurchaseTarget":-100,"optimalPurchaseTargetScore":-100,"availablePurchaseTargetList":[],"optimalSaleTarget":-100,"optimalSaleTargetScore":-100,"latitute":"52.224487","longitute":"-2.268239","amountDemanded":"2","pricePrefered":"15","distancePrefered":"10","energyTypePrefered":"0"},{"index":131,"seed":"AAEKSE9VDJTKUEVGYVHRGTNENNV9J9MMVTVXFOAOHVURELGOBCYIIJMPIRQWOSVXLBEPWWXQUGNDR9JII","address":"MFJDPKNSXOXSYJAKUYGYKOC99GDHXQBYGGTPMRZCSAKNNARSMLENLLZIQIIRLTTYNSBJUKELOKLXGQSOW","optimalPurchaseTarget":-100,"optimalPurchaseTargetScore":-100,"availablePurchaseTargetList":[],"optimalSaleTarget":-100,"optimalSaleTargetScore":-100,"latitute":"51.760041","longitute":"-1.734470","amountDemanded":"6","pricePrefered":"16","distancePrefered":"12","energyTypePrefered":"1"},{"index":132,"seed":"GOLHPWYGCVITCQVQEOILYXIBEXWDKOJBS9JYYSITJCOGINMLTWKJVPFWDGLYTHKCT99I9JKHARUSSKNBA","address":"AFKYBUSFAFUSTIZFDE9ZALXDZWKMYYVLSMAZVLYRRIUPMCBAIRDVWCWOHBCW9BAYWSWVXTBOBZVYHRLAX","optimalPurchaseTarget":-100,"optimalPurchaseTargetScore":-100,"availablePurchaseTargetList":[],"optimalSaleTarget":-100,"optimalSaleTargetScore":-100,"latitute":"52.301532","longitute":"-1.516277","amountDemanded":"5","pricePrefered":"14","distancePrefered":"11","energyTypePrefered":"1"},{"index":133,"seed":"GGRCHXLOCGHRIFUPXTXVFHWGWEIIPNOP9TXHXMEBHWEJF9FXACLNTPWUBMXGHXVGEOINYUPKPCXKFMOOK","address":"QCXFUERXTGFUZQY9ATPWNQMEKAZCHJEUDFSBZFLBUOMGJ9XGHFCDPLPFTOOWMDOZNOVTRBALQVFUNCXID","optimalPurchaseTarget":-100,"optimalPurchaseTargetScore":-100,"availablePurchaseTargetList":[],"optimalSaleTarget":-100,"optimalSaleTargetScore":-100,"latitute":"52.247669","longitute":"-0.057884","amountDemanded":"4","pricePrefered":"14","distancePrefered":"13","energyTypePrefered":"3"},{"index":134,"seed":"T9HWPFKEPITOPC9TWSFFCPCESAMFTBBILXYMCQEHTYVBRPVYLQX9IYRJGLDMPTKDEGOAAYTNJAAGJOM9S","address":"XFYCDFDPU9QG9RXKEHUFUBBQHYHLGRKBSBBKHOJZQBCBSNQZLXN9CITDVFZZFXKAANKUVIQRJPPAHITFY","optimalPurchaseTarget":-100,"optimalPurchaseTargetScore":-100,"availablePurchaseTargetList":[],"optimalSaleTarget":-100,"optimalSaleTargetScore":-100,"latitute":"52.349240","longitute":"-1.001951","amountDemanded":"3","pricePrefered":"14","distancePrefered":"11","energyTypePrefered":"3"},{"index":135,"seed":"SIJTHYEFPKENKYKRPXQNQSMDW9WNEPOUUNLQMLC9ACHMBQNUDDQYVWQTUCFUPRNTRRUGQWVESRFJLRBMX","address":"PGKBJRGSGEFKIWNJYNAONZFWGCGYEZFBGNQ9JWZIHEZBMFAZUDQPLQCGSX9BOQAONCSXUDIEIEG9BSIBB","optimalPurchaseTarget":-100,"optimalPurchaseTargetScore":-100,"availablePurchaseTargetList":[],"optimalSaleTarget":-100,"optimalSaleTargetScore":-100,"latitute":"52.371578","longitute":"-1.693019","amountDemanded":"2","pricePrefered":"14","distancePrefered":"13","energyTypePrefered":"3"},{"index":136,"seed":"KADWAKMINGHCMXGEOQLALOSPWJFYUHBJCWKJSAGVYRQGAA9FYHBVF9EGICCVVSONKWVETIBRYQYGDSOGL","address":"GNGSFKGCCXYSYFHNGTYPHXPBYEBDFXKZ9CGDLUMGXTKUQSTWZTNS9Z9IIUTJQAMPYNGAIPT9ISFLPHMEW","optimalPurchaseTarget":-100,"optimalPurchaseTargetScore":-100,"availablePurchaseTargetList":[],"optimalSaleTarget":-100,"optimalSaleTargetScore":-100,"latitute":"51.013280","longitute":"-1.119411","amountDemanded":"2","pricePrefered":"15","distancePrefered":"13","energyTypePrefered":"2"},{"index":137,"seed":"DGHPWEFKGBR9WELYGYSFLMWDSQKLJUJFPPMXEVGOTRURSVUTCUPIJE9VFDLNFCHDJBTQOUTJSGVNDWTSI","address":"IOVHVPXNUMMMOIBRTBJOUIBPGUPPOBEJNQIUWLFJXRZWBAITIEBOMUNHTJRHEOCSZE9MATUU9VAOKTFTW","optimalPurchaseTarget":-100,"optimalPurchaseTargetScore":-100,"availablePurchaseTargetList":[],"optimalSaleTarget":-100,"optimalSaleTargetScore":-100,"latitute":"52.219023","longitute":"0.054174","amountDemanded":"2","pricePrefered":"14","distancePrefered":"15","energyTypePrefered":"3"},{"index":138,"seed":"FPEUVAOPKMLW9GVOLDJAMBOUWW9JCJV9VEGSHJYTXJGOMGWYGHFENJTPLXXAQAFVG9BJSWCPX9VMOAFMA","address":"SUQJZIVXMXC9JJAUGLJBSQDIISYEKHBZEWNGKJRUDDMNOUIVJKMEWNQNZ9ER9VONPYCATDPKHNUSYA9CD","optimalPurchaseTarget":-100,"optimalPurchaseTargetScore":-100,"availablePurchaseTargetList":[],"optimalSaleTarget":-100,"optimalSaleTargetScore":-100,"latitute":"51.098952","longitute":"-2.306761","amountDemanded":"5","pricePrefered":"15","distancePrefered":"12","energyTypePrefered":"4"},{"index":139,"seed":"FXLRXB9XILVMAWYVNMISEH9XEHPULBJSCCHAMQLKXMARFQTHECPGVIAY9JBYCLXXRKGRVYALYEGQNVNIO","address":"HFKOCWUERBJOGROTMPW9PMMLVCGNNEUCC9TNKFVIUBJTMRTKESMNZLRLGZUJMWQTHSZAWVZAGTBCP9JZX","optimalPurchaseTarget":-100,"optimalPurchaseTargetScore":-100,"availablePurchaseTargetList":[],"optimalSaleTarget":-100,"optimalSaleTargetScore":-100,"latitute":"52.202302","longitute":"-1.291924","amountDemanded":"2","pricePrefered":"15","distancePrefered":"14","energyTypePrefered":"1"},{"index":140,"seed":"EWBEYYAN9GMFDSQOXLQYLOQVTBGXOMACMMTLMGFSMJJITJJOAPHBQMDUBQGKJKBM9HYEPJNTQNEIILSAU","address":"ROFXDBIPNRNPJLEHUYGFMIRVTDQNFF9GZDYL9RSTODBNNTCCPSJLTCQXBZPCFVDSMCIIYDFTFQFR9USYC","optimalPurchaseTarget":-100,"optimalPurchaseTargetScore":-100,"availablePurchaseTargetList":[],"optimalSaleTarget":-100,"optimalSaleTargetScore":-100,"latitute":"51.631883","longitute":"-1.841028","amountDemanded":"2","pricePrefered":"15","distancePrefered":"10","energyTypePrefered":"3"},{"index":141,"seed":"OTXAXGGWJ9QMOPQF9TVDOQKMGFJOPUKHICLSGF9VYSOHYRBUY9GNSWDXJOENUDGQKKIWDVTXEQJO9YLCS","address":"HMOE99XIIBVUYQCNETOJADDAHQGOERCGVFVCL9GAQJMZBYYIS9XVTTHDZDBUKOTDAESXSBCPLYGLYUATD","optimalPurchaseTarget":-100,"optimalPurchaseTargetScore":-100,"availablePurchaseTargetList":[],"optimalSaleTarget":-100,"optimalSaleTargetScore":-100,"latitute":"51.580688","longitute":"-1.439624","amountDemanded":"2","pricePrefered":"14","distancePrefered":"10","energyTypePrefered":"1"},{"index":142,"seed":"CPGQ9MHASL9COHMJ9AGCKYJQVYJAIVKHLXLVJB9FLBJYNTJNOSJLYFUEDQIRCNAETQAVMXCIETYLQOTJT","address":"DPJPWDLLBFXQBLVNHVPNOFVYSMVRNCAQAJODJKJVOPWZKCTKS9ZSCIWNFYFVI9JMRTIKOIBNZKODVPRDW","optimalPurchaseTarget":-100,"optimalPurchaseTargetScore":-100,"availablePurchaseTargetList":[],"optimalSaleTarget":-100,"optimalSaleTargetScore":-100,"latitute":"51.869352","longitute":"-2.173790","amountDemanded":"4","pricePrefered":"14","distancePrefered":"13","energyTypePrefered":"4"},{"index":143,"seed":"UUG9TRNBPQKRVBEGGXRLTHPNNACED9GYPTSDRFGRXJDTUBKAGJKPUHPSRJPW9RTBSMKQD9IRADIWWLYRI","address":"HOUCAGQEZANATHHXNTJYOVHJNBKBIQ9TWVIWNUYSVCNDM9RUIRARU99DLRZPYDTXQSOFYTENBGYLURCIW","optimalPurchaseTarget":-100,"optimalPurchaseTargetScore":-100,"availablePurchaseTargetList":[],"optimalSaleTarget":-100,"optimalSaleTargetScore":-100,"latitute":"52.275198","longitute":"-0.040892","amountDemanded":"5","pricePrefered":"14","distancePrefered":"12","energyTypePrefered":"3"},{"index":144,"seed":"NE9DRCRTIHII9QSGMMHTWHICBLFBXXQQSUEUFCET9SBAXXGUSPFLLHKXXVAALFDTYR9TFUWJCBOVRHSLV","address":"WCGTM9MRLTGBRBRBUTMXTLTBWOWITOSVYKLWKNQIEPAVIACGW9NDYHRT9YUBMLEZ9QC9ENFXIVXLUAIJD","optimalPurchaseTarget":-100,"optimalPurchaseTargetScore":-100,"availablePurchaseTargetList":[],"optimalSaleTarget":-100,"optimalSaleTargetScore":-100,"latitute":"51.659528","longitute":"-0.031809","amountDemanded":"4","pricePrefered":"14","distancePrefered":"11","energyTypePrefered":"3"},{"index":145,"seed":"MUJAWPGLFFMAODMNKR9LPTEBHSVSNUQUAYAIQHVWIOMBEATARGLISSPLIGGCTPAL9EO9FGDCWRFWPDBIK","address":"FRE9E9KRUVWJRBFUSWGWIGKQWJ9UUQXOAEQTCVFXQQBWKUZSUQUAEMZNQHVAO9QV99GPQIPKQCHNLZACD","optimalPurchaseTarget":-100,"optimalPurchaseTargetScore":-100,"availablePurchaseTargetList":[],"optimalSaleTarget":-100,"optimalSaleTargetScore":-100,"latitute":"51.172415","longitute":"-0.689867","amountDemanded":"4","pricePrefered":"15","distancePrefered":"15","energyTypePrefered":"4"},{"index":146,"seed":"KFDVOHM9LPHECAERPVBGINRQFCNPUPBOCQJAG9UBMKHJUGMFJIFMG9YNFEKAPWQ9HNDTBCYVHWF9YPACY","address":"SPRGXPEATRA9LVDALAQCNMCFPPNJLAQWGLZKDUSJFYYKHBMZK9JNWUPWAVOIBYWUG9YAIHCBPCVWJBOZW","optimalPurchaseTarget":-100,"optimalPurchaseTargetScore":-100,"availablePurchaseTargetList":[],"optimalSaleTarget":-100,"optimalSaleTargetScore":-100,"latitute":"51.087926","longitute":"-0.112181","amountDemanded":"3","pricePrefered":"15","distancePrefered":"12","energyTypePrefered":"3"},{"index":147,"seed":"BAGJJUUAOQUI9R9VDKUJWHDLQHDCTNTWW9SRQHUKYIVOKJYJBTYOV9PYJBWORQXGTNTFIPGPVBIMNCJPO","address":"NDLHSUKERESHWPUJYRQBBDLGNNCLBGSWAHGVOIOHOQWERUJQBALXQOUZZVUHULRLQRBFRLMCGLTIXTDLA","optimalPurchaseTarget":-100,"optimalPurchaseTargetScore":-100,"availablePurchaseTargetList":[],"optimalSaleTarget":-100,"optimalSaleTargetScore":-100,"latitute":"51.967347","longitute":"-0.594753","amountDemanded":"3","pricePrefered":"15","distancePrefered":"12","energyTypePrefered":"1"},{"index":148,"seed":"OKOB9C9WHYSH9PFCOR9YJKWMKRRWBAJRA9MQARTDNT9GQEQMHBLDRPVVBXVXLMMNKBMPKOKRVSUXGSGDE","address":"SUURLJHNEDWZBQLJO9FMSYSFNMHVDEZGK9NBQVWIYW9ZEPMOAUPNRNNSXIYGXYKYZDHJNKCORMXSYNAG9","optimalPurchaseTarget":-100,"optimalPurchaseTargetScore":-100,"availablePurchaseTargetList":[],"optimalSaleTarget":-100,"optimalSaleTargetScore":-100,"latitute":"52.010268","longitute":"-1.694197","amountDemanded":"2","pricePrefered":"16","distancePrefered":"12","energyTypePrefered":"1"},{"index":149,"seed":"GFGOSECJSDEUBUHBYY9JATNRSTKJ9BKIPE9EPXTABPVQMOEBJGAN9PWFUSHVIWYDAILGFPLHUR9DFVSEP","address":"LNRMH9UFALGXIG9YXDCOPJFJKDEQVNNBFRSGPWHUJIROFOV9EDLOWWU9FBMKAFGTNSHVYXXCHBGBAOKDA","optimalPurchaseTarget":-100,"optimalPurchaseTargetScore":-100,"availablePurchaseTargetList":[],"optimalSaleTarget":-100,"optimalSaleTargetScore":-100,"latitute":"51.755686","longitute":"-0.995117","amountDemanded":"4","pricePrefered":"15","distancePrefered":"12","energyTypePrefered":"3"},{"index":150,"seed":"NQARBCMNCHQGFTJYYIRNMIPWXAXIEGYRGHSECEJFX9VCANGMXPOYOPXKXERJXASOBVOBQHSXINYPMHVKF","address":"BWRWZRWWYIRTMAIHTWR9ICA9HCAONNTTNDWMZRLCRA9JVPZZMQYJJGVNDDKAZMSKIJIMFDUCVXNCFOSQX","optimalPurchaseTarget":-100,"optimalPurchaseTargetScore":-100,"availablePurchaseTargetList":[],"optimalSaleTarget":-100,"optimalSaleTargetScore":-100,"latitute":"52.234171","longitute":"-0.086615","amountDemanded":"5","pricePrefered":"16","distancePrefered":"15","energyTypePrefered":"3"},{"index":151,"seed":"HTARYSRTSHDSDTKHJRCIKTK9BUDYRYDHLNEOAGULEY9PBDUO9V9VAVHCPAVVOQVHYYLQUAOLWDBUCCHEQ","address":"B9MVECOATUEDITOQPJQGN9EEHSCSM9HZJWDLXWUZYNNWUIDGDBAEJZOPPE9KLTOENBWMSK9UZMWWJJUXA","optimalPurchaseTarget":-100,"optimalPurchaseTargetScore":-100,"availablePurchaseTargetList":[],"optimalSaleTarget":-100,"optimalSaleTargetScore":-100,"latitute":"51.663983","longitute":"-1.763399","amountDemanded":"1","pricePrefered":"14","distancePrefered":"10","energyTypePrefered":"4"},{"index":152,"seed":"LDXJPFFTBEVPQSQSHWYYUIHTYYTQLWE9GAWA9VOHDILYGMRUCEBLRFBWSHDIV9DDGMGYA9CY9SIWYTQK9","address":"GFUHYDLOMQAXZKZJPTMDBTICNSDPGLJKZMCUOF9LJUPVZGWXYRZKHALESPMBKYRSEXJGHMSJGVQBSSIGW","optimalPurchaseTarget":-100,"optimalPurchaseTargetScore":-100,"availablePurchaseTargetList":[],"optimalSaleTarget":-100,"optimalSaleTargetScore":-100,"latitute":"51.563342","longitute":"0.030268","amountDemanded":"2","pricePrefered":"16","distancePrefered":"13","energyTypePrefered":"2"},{"index":153,"seed":"9O9NHGAMXSRYONGQEUYJCQOROAU9ECPGKFEB9JNOSQUQMRIYQQITPMHJDQTENECQGXVUNTFCMNEQXLOES","address":"BOS9QTXCTHNNUPOUKSEMOVVI9FYGFVKYKIHVHUYBEFVIGVUYDCNYDTNLMWMMTZEPKCYRIP9XHOWWZLBIY","optimalPurchaseTarget":-100,"optimalPurchaseTargetScore":-100,"availablePurchaseTargetList":[],"optimalSaleTarget":-100,"optimalSaleTargetScore":-100,"latitute":"52.058866","longitute":"-0.912498","amountDemanded":"3","pricePrefered":"15","distancePrefered":"10","energyTypePrefered":"2"},{"index":154,"seed":"OLTVWSPJSTABOIPKPMOFXMNLTDA9PMQVKJ9YCNTUBMWOTQJL9LJCJOMXNXH9QMHY9LCEGKHQFOBKTYIUW","address":"DLKHGDCCVOLKYCGSCU9LIFM9TVRSNEOCQYCZKMZORE9TU9IIPQXFXGOZDHWQAAQHBPJMYDCTMCLGJEQKY","optimalPurchaseTarget":-100,"optimalPurchaseTargetScore":-100,"availablePurchaseTargetList":[],"optimalSaleTarget":-100,"optimalSaleTargetScore":-100,"latitute":"51.631160","longitute":"-1.568259","amountDemanded":"2","pricePrefered":"16","distancePrefered":"10","energyTypePrefered":"2"},{"index":155,"seed":"UEPOOYKGNHBMGJKROXLMPNPRVBMCEVPIVLXBUKT99D9MSQUC9YUXLKOYBETHEJCEPUYNOTECFJUMMBNXF","address":"XXPCJWTIFJMCXYAWTFOAYJ99OZKGLUJORVUKCMCOJBSSEJQGOFTJ9FD9CXSHJQUNDEULOFSICWNNYYHUD","optimalPurchaseTarget":-100,"optimalPurchaseTargetScore":-100,"availablePurchaseTargetList":[],"optimalSaleTarget":-100,"optimalSaleTargetScore":-100,"latitute":"52.132145","longitute":"-2.323030","amountDemanded":"2","pricePrefered":"15","distancePrefered":"11","energyTypePrefered":"1"},{"index":156,"seed":"NCLHH9TEJNJHAXRABXLYJSFPXDWDTBMNSSOOYNAQXTKBMJNN9SHO9KVKHTOAJVHDIPEAETQBSQTDXGMOC","address":"PELLAKZFYHOVLHOEGAJYDWMQH99FFJZJWFSDHQB99UBEXUKYNEGEJGO9IGLYPFNMJQNEQUFJKTLNOJZAW","optimalPurchaseTarget":-100,"optimalPurchaseTargetScore":-100,"availablePurchaseTargetList":[],"optimalSaleTarget":-100,"optimalSaleTargetScore":-100,"latitute":"52.356062","longitute":"-1.598262","amountDemanded":"5","pricePrefered":"14","distancePrefered":"13","energyTypePrefered":"1"},{"index":157,"seed":"CASLACPNBJAMPEMGINCABBVKLNSRMTOMMRTXOECAFQYDTGWQEY9NCNY9WEHRDGVJYWCLYPITSPAOFVW9B","address":"XXLIZCSWWCDBIKIIIVVGTOLWBECXRDAMIMHHMHWGFUTAIHQDVVSSMUMGHIMIWVTXCWJIZRTOEXIADXAQB","optimalPurchaseTarget":-100,"optimalPurchaseTargetScore":-100,"availablePurchaseTargetList":[],"optimalSaleTarget":-100,"optimalSaleTargetScore":-100,"latitute":"52.070938","longitute":"-1.598382","amountDemanded":"4","pricePrefered":"16","distancePrefered":"13","energyTypePrefered":"2"},{"index":158,"seed":"EHNKFELXHRR9Q9LPXRCQQURLAGKYKFOX9SBLFRPKBITDLPLKFLFAUOSPDFGYLBUQMDJ9CRWNL9AYVURWR","address":"ZQTJZUJEARWEQEYT9ZYDUAPNH9WASIMMNQZQUWDYPBRHI9LWG9YDQUTDSONH9DQ9DBPFCSI99NOLQFRNY","optimalPurchaseTarget":-100,"optimalPurchaseTargetScore":-100,"availablePurchaseTargetList":[],"optimalSaleTarget":-100,"optimalSaleTargetScore":-100,"latitute":"51.908531","longitute":"-1.800124","amountDemanded":"2","pricePrefered":"16","distancePrefered":"14","energyTypePrefered":"3"},{"index":159,"seed":"EJJAQYXKKDDH9MLNTHVUHQKKXQCFOP9NFU9HJIBDYC9WOPMSBKXWJOQSGCPSGBDDAOPOFBGJMQPIUBUIG","address":"YPYOISUXWYPCECBKLNAOMLN9LSXAOBSMNHLKDBNTIPRKVDFIVFHHSPGSOQHQZTUO9GGZRUXRDEOMGZKDA","optimalPurchaseTarget":-100,"optimalPurchaseTargetScore":-100,"availablePurchaseTargetList":[],"optimalSaleTarget":-100,"optimalSaleTargetScore":-100,"latitute":"51.183472","longitute":"0.071016","amountDemanded":"5","pricePrefered":"15","distancePrefered":"15","energyTypePrefered":"0"},{"index":160,"seed":"UAGEGGVQTDSWDXYCVWKOYJANWSEBDPITGFAWLTWFSQJTSCUNQJAKMNBJNC9XLMHYJBWTSVSHKHYAPRUKA","address":"AQUFRUIPMOYCKXLTNBQGS9EUHMRBTNOEHUPMC9AEVGCKXNYODBRNCECPIQFZVTTIASJLWYERUMDROEZAC","optimalPurchaseTarget":-100,"optimalPurchaseTargetScore":-100,"availablePurchaseTargetList":[],"optimalSaleTarget":-100,"optimalSaleTargetScore":-100,"latitute":"51.773109","longitute":"-1.982590","amountDemanded":"2","pricePrefered":"15","distancePrefered":"14","energyTypePrefered":"0"},{"index":161,"seed":"ITKLIQKY9BHNIKVNNEOCRPHYE9UHTULWKVGNRAUDHTGSHRC9CSKUYLNTPLKCDDHOSDWPNHFXKLYHDOQIC","address":"GWZVWJMWGDKNWIWXBU9N9LEDZFJBXYJQO9MDRSNDFHOFKEAFAGHJC9PJGPDJRXY99AFEIO9LUQKPSNFJZ","optimalPurchaseTarget":-100,"optimalPurchaseTargetScore":-100,"availablePurchaseTargetList":[],"optimalSaleTarget":-100,"optimalSaleTargetScore":-100,"latitute":"51.237337","longitute":"-0.939022","amountDemanded":"4","pricePrefered":"16","distancePrefered":"13","energyTypePrefered":"4"},{"index":162,"seed":"YDAAPLFBCCCUULITPCCORBGNCQFLYWKMUEDYQTOKODAMBEHCW9MIHEMMFVRUY9QK9CNVYKDSVWBWOBIHS","address":"LHMIUTPCLGPEETBLGKBWDEQYZXJLYQVWKGHZXXRHMRNN9XARDMSYMJTROHEMMXRFKTUGAVNRVYRJDNHGZ","optimalPurchaseTarget":-100,"optimalPurchaseTargetScore":-100,"availablePurchaseTargetList":[],"optimalSaleTarget":-100,"optimalSaleTargetScore":-100,"latitute":"52.245485","longitute":"-0.399460","amountDemanded":"6","pricePrefered":"15","distancePrefered":"13","energyTypePrefered":"0"},{"index":163,"seed":"XQLEDJFXXJLUYNXIUTMKNWWXRGQSLEMLOIASDASPBUYRFI9SFDCIXSACLJGANDKYFGFQOLK9SNIKLULXW","address":"VPUWCZLYMS9GKBWOALYHSTKIPYICSIVPJJISL9GNIUPNTKUFDYISIYREMCYTERAMISNMNYOCW9LAATKXY","optimalPurchaseTarget":-100,"optimalPurchaseTargetScore":-100,"availablePurchaseTargetList":[],"optimalSaleTarget":-100,"optimalSaleTargetScore":-100,"latitute":"51.989212","longitute":"-2.094422","amountDemanded":"1","pricePrefered":"16","distancePrefered":"11","energyTypePrefered":"3"},{"index":164,"seed":"EBPSUSSF9HOJFJPDHFTSGDVKEU9UKXLUG9MG9FWFQQIYAHVMAIQUC9WDMVCJOKAYTBQJAQNTKEGAO99M9","address":"FGDVTRSTJNBNWJNKKXZKMTD9OGAWYXSKBZT9SLKVFUFMJRVRBOVSJUJEMOPBXLQMMNHLMEQRNVQUIXZ9C","optimalPurchaseTarget":-100,"optimalPurchaseTargetScore":-100,"availablePurchaseTargetList":[],"optimalSaleTarget":-100,"optimalSaleTargetScore":-100,"latitute":"51.450463","longitute":"-2.233041","amountDemanded":"2","pricePrefered":"15","distancePrefered":"10","energyTypePrefered":"1"},{"index":165,"seed":"LSECROHBRBGFULJVHJDGDPNIBTEJSRGWBE9JMOIDFQKNQVFXXYRAKWAWDUKGKANPLNLKMEGSCR9VTLDVY","address":"ZVUOQZOYAHI9MZHAPZKCYAUOWPHKCDCJQOWTCSJHJCUMSNFHUOGKCSAVVIKIHRUTE9DURBGEMOZGFVXGW","optimalPurchaseTarget":-100,"optimalPurchaseTargetScore":-100,"availablePurchaseTargetList":[],"optimalSaleTarget":-100,"optimalSaleTargetScore":-100,"latitute":"51.556289","longitute":"-0.692521","amountDemanded":"2","pricePrefered":"15","distancePrefered":"13","energyTypePrefered":"2"},{"index":166,"seed":"RCTJVQKC99XDNAHWIXVTJOAWEQ9KBTWINYRFQRDXGLJKYSDBGQKUODDEAVLUASOGSUHIF9QI9JPGSFVL9","address":"HWPSUAOSXWPMBPFSKVKCTWIOVLXFP9LWDQZNLSIDPDYWEDGSOWLRKZDDTATTO9I9DDATYBHVM9HI99DNB","optimalPurchaseTarget":-100,"optimalPurchaseTargetScore":-100,"availablePurchaseTargetList":[],"optimalSaleTarget":-100,"optimalSaleTargetScore":-100,"latitute":"51.693175","longitute":"-1.828516","amountDemanded":"2","pricePrefered":"16","distancePrefered":"13","energyTypePrefered":"4"},{"index":167,"seed":"JYXPVQKMEYBURFLD9FKYRGBYHFIYNOOKLFWLBCSUVQ9KAFFQYGRQCPKMNNNSXDBSKAIJQVONJFTGRSTKU","address":"ZTLIIGFRTQZTEMHR9ENFRYSPYS9UAXVVWJUWTARYTSAVSUMYNFGUTRT9WWIIRCCZLI9EQRVRMBSOGPPD9","optimalPurchaseTarget":-100,"optimalPurchaseTargetScore":-100,"availablePurchaseTargetList":[],"optimalSaleTarget":-100,"optimalSaleTargetScore":-100,"latitute":"52.003356","longitute":"-0.055056","amountDemanded":"5","pricePrefered":"16","distancePrefered":"12","energyTypePrefered":"2"},{"index":168,"seed":"UXMQI9PSODUSAKYQRFSFFQKCXWKNBVOJXNAGMUGIMSH9KUVTQHCOWOFEIWPG9MOKHT9XWTLEOJALXNJWI","address":"SYKQGVYVJNJMAARQLI9NKDLWYLBWELUCEGEVETLYAEFCTHBHIBRZAKPGAVGZTQETTUFOWQARCIWHNZZNW","optimalPurchaseTarget":-100,"optimalPurchaseTargetScore":-100,"availablePurchaseTargetList":[],"optimalSaleTarget":-100,"optimalSaleTargetScore":-100,"latitute":"52.325655","longitute":"-2.005734","amountDemanded":"5","pricePrefered":"15","distancePrefered":"14","energyTypePrefered":"2"},{"index":169,"seed":"9UYLVBDFGIBTELMLDELSAKGCILTQKKSQNNAOAGSCUPMVGAMFADB9IXIEMVXR9TIGPYLKRJDDPLSUOXQS9","address":"UOTLTASABRDJTLBSDFJGKQHEBYRWUIAUWEFWNBOSOVPCNXVRXABQNTXTKHNOWPMKH9NZLOGKUJHFDDCNZ","optimalPurchaseTarget":-100,"optimalPurchaseTargetScore":-100,"availablePurchaseTargetList":[],"optimalSaleTarget":-100,"optimalSaleTargetScore":-100,"latitute":"51.592289","longitute":"0.235238","amountDemanded":"1","pricePrefered":"15","distancePrefered":"13","energyTypePrefered":"0"},{"index":170,"seed":"XXNESAAIJMPPNSEXJSBHCPUSYHRQOKIH9HTYFHFJJNCDCWTSFNHALKNNFGFXOJGRFGCQTFO9XEPOBXTXG","address":"LEZBN9RTWXXBNIPICUHPYFOLQTSOUZ9YRLDVBZKWI9JTIVHOSPGNJQMYKGLLGWFSLFYBSPCBLGYINVIIZ","optimalPurchaseTarget":-100,"optimalPurchaseTargetScore":-100,"availablePurchaseTargetList":[],"optimalSaleTarget":-100,"optimalSaleTargetScore":-100,"latitute":"51.938135","longitute":"-0.896830","amountDemanded":"6","pricePrefered":"16","distancePrefered":"11","energyTypePrefered":"4"},{"index":171,"seed":"EVUQHTV9EFYSOUSPXTSTSGHPCDHHL9LXXIBIHHVYUSABKEYEYLFEBEKRQXPOBXYSWHWOTETJFILN9HEAV","address":"FMZYFLYYQMQDEPZZ9MCOTMCUMRBRTPGLSYL9XDA9VCRPIWPTGCKLLQ9UCAQJCNIKHFQWUWDDMTPPDEYJB","optimalPurchaseTarget":-100,"optimalPurchaseTargetScore":-100,"availablePurchaseTargetList":[],"optimalSaleTarget":-100,"optimalSaleTargetScore":-100,"latitute":"51.498605","longitute":"-1.935023","amountDemanded":"6","pricePrefered":"14","distancePrefered":"11","energyTypePrefered":"0"},{"index":172,"seed":"FFGJNWPFQPWPOOXDYTRICTGJYADLSPIIVLC9NMVO9XWMFXDSCMRQHKRQCOHOOFXFFTTUJPPC9GOMGOKQ9","address":"MTHLKYPITMMEKMGXTHYPJCJ9JJAASBLAZMIXRXDBSEQHBCJHACWFCYVQ9GAJV9ZYMEWHIZGYBENIFYI9Y","optimalPurchaseTarget":-100,"optimalPurchaseTargetScore":-100,"availablePurchaseTargetList":[],"optimalSaleTarget":-100,"optimalSaleTargetScore":-100,"latitute":"52.333003","longitute":"-0.797756","amountDemanded":"6","pricePrefered":"14","distancePrefered":"15","energyTypePrefered":"0"},{"index":173,"seed":"RPGOOQCCUHBNCFQQUDDBJHLVYCTQBJXRANLNMNRHMQMINBPNJTIHPAOQLBMKSQAQUPJWVLEEQHFACYRHH","address":"BKZDWILZJSQPZVBCEUHXGGVTHQVHTOJWVSFTGZETXCDGGJOSTKOTFQVVBVCNDQMPPX9IZMZZMBYYHMEBX","optimalPurchaseTarget":-100,"optimalPurchaseTargetScore":-100,"availablePurchaseTargetList":[],"optimalSaleTarget":-100,"optimalSaleTargetScore":-100,"latitute":"52.048638","longitute":"-1.130159","amountDemanded":"4","pricePrefered":"15","distancePrefered":"11","energyTypePrefered":"4"},{"index":174,"seed":"TMHWLMFHXGTJEQIMDBOYQNESAFKYYIUAQKNWRTFHVB9YIXJIIPQDNEDGHYTTUQUA9CAYYUUQSFAYIVKTF","address":"LDZRQVQZ9OGXIHWXSRRYOSKD99QTFEULXABBE9LWDF9LQGHTQLCMHENGELRYDJGHFEWYVHZYBCU9WWA9D","optimalPurchaseTarget":-100,"optimalPurchaseTargetScore":-100,"availablePurchaseTargetList":[],"optimalSaleTarget":-100,"optimalSaleTargetScore":-100,"latitute":"52.010956","longitute":"-0.935004","amountDemanded":"4","pricePrefered":"16","distancePrefered":"12","energyTypePrefered":"1"},{"index":175,"seed":"HBNLSUYJTLWG9YUMCLRAUXIOEJCBSBUGRBDYOQRWCHFCRERQBAVDBXCSDFVVTSQADJYBOUULBFJCTSDLM","address":"F9QUIXWEPSULWCQFEYWHNW9EQTHJARJUDWNL9VEWBUSUBOAJRZQPSFFDEWOMHTRZSERGRZJAWBTDAIBEY","optimalPurchaseTarget":-100,"optimalPurchaseTargetScore":-100,"availablePurchaseTargetList":[],"optimalSaleTarget":-100,"optimalSaleTargetScore":-100,"latitute":"51.789499","longitute":"-0.342414","amountDemanded":"1","pricePrefered":"15","distancePrefered":"10","energyTypePrefered":"1"},{"index":176,"seed":"QDQQMJQONGRFCAKFKEMSRDGUMOKFITBCEQVNJMJEQGIQEWLIQB9WTGBXGRVOWHVBVOSHVWKJPVVBWECFF","address":"HKSDCNVDQEKCCSBAYUEHZWL9XDDWOFUQJMAYUEHLAPAZLWONJVZYFWR9KEQFRADTC9VOQBSTXNYXFARGD","optimalPurchaseTarget":-100,"optimalPurchaseTargetScore":-100,"availablePurchaseTargetList":[],"optimalSaleTarget":-100,"optimalSaleTargetScore":-100,"latitute":"51.466816","longitute":"-1.071419","amountDemanded":"6","pricePrefered":"15","distancePrefered":"13","energyTypePrefered":"2"},{"index":177,"seed":"QWUHUCPNRASFIAACRBSJKGRCWDNFQGKAXMQLHPED9M9PEYGNHNHMIXGOVXIK9XTGKYAVCBWTSBOVTXDES","address":"FDEQLKFZ9UXGMCDBLGKZCLHDLXWJ9GQCLUPYRAJPAHZNVBDAA9HBIEYPNDUTKZL9WYFROVA9KZRXNWPIW","optimalPurchaseTarget":-100,"optimalPurchaseTargetScore":-100,"availablePurchaseTargetList":[],"optimalSaleTarget":-100,"optimalSaleTargetScore":-100,"latitute":"51.783896","longitute":"-2.133924","amountDemanded":"4","pricePrefered":"15","distancePrefered":"11","energyTypePrefered":"4"},{"index":178,"seed":"NMTLHWIG9JIXJATESWBJJLAQOSEVGOCXNMSBXSKHILWJLNQKFXKUXAOTYNUCCAVVNFFSPTJKDU9CXCEKW","address":"PNHZEIFGTJLAJV9EKOAPQBCVGLGEZYFHVZIKHVTZJZSWVFTMNPBELHECNNAXVLKLFVAYWECAVJTIHUL9A","optimalPurchaseTarget":-100,"optimalPurchaseTargetScore":-100,"availablePurchaseTargetList":[],"optimalSaleTarget":-100,"optimalSaleTargetScore":-100,"latitute":"51.281491","longitute":"-0.402257","amountDemanded":"5","pricePrefered":"16","distancePrefered":"11","energyTypePrefered":"1"},{"index":179,"seed":"KSTTTFSKSLLARVAWUVSVDNLGVLYOHFGMH9MKHI9KWURVBFHQEDNVPRRUEMHHQKMKYLUNFBNASAWBXJSHX","address":"DGCNVQGEABTZEVPIJCZWSZQMYFW9OERUDQWWEX9PPZIUIPWP9NYBGEJBQOBAXOGGNN9UBWNKOMPJGLUVC","optimalPurchaseTarget":-100,"optimalPurchaseTargetScore":-100,"availablePurchaseTargetList":[],"optimalSaleTarget":-100,"optimalSaleTargetScore":-100,"latitute":"50.966022","longitute":"-0.604285","amountDemanded":"1","pricePrefered":"14","distancePrefered":"14","energyTypePrefered":"1"},{"index":180,"seed":"YULNTDTFMAPVGRHUUANGQFW9EUWHUPVIFSJTDYYMQEKYISMGAPSHNGFMFDTKWK9DVLPOHNCXJOBVORYSK","address":"PPLHRKHPCYKTIKVOO9OQKRJAVQZTUDKGPXKMXAKVPAKDKKLFHBF9ORNCHCMBRBNWOFDTE9SVQIBVSTKUZ","optimalPurchaseTarget":-100,"optimalPurchaseTargetScore":-100,"availablePurchaseTargetList":[],"optimalSaleTarget":-100,"optimalSaleTargetScore":-100,"latitute":"51.659765","longitute":"-2.339336","amountDemanded":"2","pricePrefered":"14","distancePrefered":"11","energyTypePrefered":"3"},{"index":181,"seed":"RPT9HRLCOOEGLHTGCHMVIAAJVMARNXNBYGPQAKKGHSRUTFCSJYKYJJC9BLDMCCNRH9ROPPGOQOJBPQEHE","address":"SXBDFTZDWTDB9KRKSQTRLIDYGWJZEQYCKH9QU9MDKICLKQTT9XMKAQMVWT9JQMUG9YLDO9LSPPGRQUWUX","optimalPurchaseTarget":-100,"optimalPurchaseTargetScore":-100,"availablePurchaseTargetList":[],"optimalSaleTarget":-100,"optimalSaleTargetScore":-100,"latitute":"51.903571","longitute":"-1.822419","amountDemanded":"1","pricePrefered":"15","distancePrefered":"13","energyTypePrefered":"4"},{"index":182,"seed":"RREEIQTENY9IDDDOKPLFUPXLAOMBGCH9PFGVHHPFYFPJQMLOLGDJCOSKRCJPDCIVQQHHJWJXUXTULCC9D","address":"ZKFYKIEEAHXJXXAGTEUZTDEGKIOWCFZ9KYCZSLJHSOQ9JTYFQDUATZHVTSMESWTHHSBZFAHZFSDDSWWMC","optimalPurchaseTarget":-100,"optimalPurchaseTargetScore":-100,"availablePurchaseTargetList":[],"optimalSaleTarget":-100,"optimalSaleTargetScore":-100,"latitute":"51.350843","longitute":"-0.362118","amountDemanded":"2","pricePrefered":"15","distancePrefered":"11","energyTypePrefered":"4"},{"index":183,"seed":"TFVOXWXBRMRYOOTETRSBNDOXIFMB9ROCXENOKHFRQDFIOFGUEWOCWCHLFXNALAPAYHDCRQCXODIBVPMNX","address":"TCPJICOOVPRUUPHDQUTJFVZAWTZUP9GCDCETEENXPTQNUYBJXIXPEYWISUGAQUAHURFCGLBJMQIDA9BYD","optimalPurchaseTarget":-100,"optimalPurchaseTargetScore":-100,"availablePurchaseTargetList":[],"optimalSaleTarget":-100,"optimalSaleTargetScore":-100,"latitute":"51.508120","longitute":"-1.572865","amountDemanded":"3","pricePrefered":"16","distancePrefered":"14","energyTypePrefered":"4"},{"index":184,"seed":"CKWBWVFHWCIGFYRQPLYUHMYVXFSYXOQINYDXGRCIJHMWMUGWUHLJ9XRGKAVJVSAOUYMUOMKHBXKRGN9XT","address":"AEYKOSKHSFSYAZL9LTIMTXWIWKBORFEREKVZRDEVOWTALKZHNGEMZVPMSEBAQPHFUGBASNBGFIWIIBI9Z","optimalPurchaseTarget":-100,"optimalPurchaseTargetScore":-100,"availablePurchaseTargetList":[],"optimalSaleTarget":-100,"optimalSaleTargetScore":-100,"latitute":"51.437789","longitute":"-1.282729","amountDemanded":"5","pricePrefered":"14","distancePrefered":"14","energyTypePrefered":"3"},{"index":185,"seed":"UIJJUTMXIQFUMFSTBRHY9RNKPWIYEBAKEMJTSAU9MAWOWWTRQAXIWOWWPOF9NQXUUONSNELFMKIYCOPKB","address":"MRV99OPUARNSFZANME9JCPGMLUICB9FPPSFZKEQWDTUIIAUDZWUZQECXUSKIMCYMPTMUFDAUKXQRUXLMW","optimalPurchaseTarget":-100,"optimalPurchaseTargetScore":-100,"availablePurchaseTargetList":[],"optimalSaleTarget":-100,"optimalSaleTargetScore":-100,"latitute":"51.852245","longitute":"-2.222400","amountDemanded":"3","pricePrefered":"16","distancePrefered":"14","energyTypePrefered":"2"},{"index":186,"seed":"YVGVPBSVRKIJYGXDHNYARPRCSPDJQPIIKVBNNFUVSAGTQMK9ETGJSJIGIGITJJUDEQFGMBLEGI9BQCXEJ","address":"RCFQHJVBJDXUKORYZMKJXXGWHRQPKOFOMCZHJBL9QUXHQLILQDMTIRINPSHUWHDZMWDFRL9DXHARRNARA","optimalPurchaseTarget":-100,"optimalPurchaseTargetScore":-100,"availablePurchaseTargetList":[],"optimalSaleTarget":-100,"optimalSaleTargetScore":-100,"latitute":"51.810625","longitute":"0.133250","amountDemanded":"5","pricePrefered":"15","distancePrefered":"13","energyTypePrefered":"0"},{"index":187,"seed":"AMRKNKVLNFGQGLPQFHPIFOGFIIYAOHMAEPQUMXIEBCOFXNQPJOKRQ9PQXGUAOWG9CSGYQFUNNIMXEIWWJ","address":"PPIERYDIJXVEHXMROBCQOZLNOMMRHPSKJHQQKJTAMDQJHJUVMWJGLWFWFNAIJJRHDVDYGVXLOQRVMAJED","optimalPurchaseTarget":-100,"optimalPurchaseTargetScore":-100,"availablePurchaseTargetList":[],"optimalSaleTarget":-100,"optimalSaleTargetScore":-100,"latitute":"51.231129","longitute":"-0.332475","amountDemanded":"3","pricePrefered":"14","distancePrefered":"11","energyTypePrefered":"1"},{"index":188,"seed":"RRCASVNOTKIVFCQVB9GCURNGTJRWNCDIDADMTOQOKERMIMI9H9BCEVNFAOFYEMMEBLMHQVXAN9X9QPMKH","address":"LXZJIUPSRELTIDEMXAITOBGLJKAXLVDRHKWVFEHVJTIZCUDNCGJTSGKPDRXVKEHEYMFJVACMOXNWAXKMZ","optimalPurchaseTarget":-100,"optimalPurchaseTargetScore":-100,"availablePurchaseTargetList":[],"optimalSaleTarget":-100,"optimalSaleTargetScore":-100,"latitute":"52.261531","longitute":"-1.265992","amountDemanded":"2","pricePrefered":"14","distancePrefered":"13","energyTypePrefered":"1"},{"index":189,"seed":"JOKIEDCYLDVBQBITAAIDMWT9RXHWQJPPJK9QPPBUGAXTWNQOIDQWUWFCOKPCSOBLRODKSTRRLFUYRLQMJ","address":"ALUHQGRC9ADVJGAWLUKIYAHKYIVBMGEYCCQVXXJJGNNJLOURWNXYSUSBUUVGKZQAMSMRZCVLWUDBGDSXD","optimalPurchaseTarget":-100,"optimalPurchaseTargetScore":-100,"availablePurchaseTargetList":[],"optimalSaleTarget":-100,"optimalSaleTargetScore":-100,"latitute":"51.326873","longitute":"-0.762180","amountDemanded":"6","pricePrefered":"15","distancePrefered":"12","energyTypePrefered":"0"},{"index":190,"seed":"YYVCBQEUN9DNURKBALKSVRFIOVOXQPWX9APMLBDIGUUSWO9V9HPCJKBIWYEJUDTFVTCXWP9GGM9DIGJBK","address":"UUEARARRGGEWYSSAIJPGCVSZWNTMMFWPCUPYSIJGNBJTRGAXPJPFHWIUOU9HFRKDDECWJJHVLMICCPI9X","optimalPurchaseTarget":-100,"optimalPurchaseTargetScore":-100,"availablePurchaseTargetList":[],"optimalSaleTarget":-100,"optimalSaleTargetScore":-100,"latitute":"51.214959","longitute":"-0.736731","amountDemanded":"1","pricePrefered":"15","distancePrefered":"14","energyTypePrefered":"3"},{"index":191,"seed":"JISPVABHELKVJYXPMDIIUOTJOEGAEAVHHJCCXOTYNUKMRCGHBFTFCTUHNCQQWVYFWHGCQMTBNAWWDXYLR","address":"IUFB9VJNIJQZJMMLPRBXDYBIOMMAWFUYEJETLEEXVAZXDRQVCUTHCWXPM9RAQHMXSJRRPBVTYGQKULW9D","optimalPurchaseTarget":-100,"optimalPurchaseTargetScore":-100,"availablePurchaseTargetList":[],"optimalSaleTarget":-100,"optimalSaleTargetScore":-100,"latitute":"51.162620","longitute":"-2.196206","amountDemanded":"4","pricePrefered":"15","distancePrefered":"14","energyTypePrefered":"4"},{"index":192,"seed":"DPEESOXXYKBMLG9IHRSFSNSPBILAWTPNVCQUDEMCJFQLDIKIPDKIBVMGKJJVQLADINAVTHRAVJDQCGJNU","address":"EEQJGSIMWTKFGKLFWKSKSSL9UONRIVIEFHZIPYJZPKEZRBDOBHNZNYJGBJRLOSFLJVZHMLXMKPD9XBIHW","optimalPurchaseTarget":-100,"optimalPurchaseTargetScore":-100,"availablePurchaseTargetList":[],"optimalSaleTarget":-100,"optimalSaleTargetScore":-100,"latitute":"52.268364","longitute":"-0.953089","amountDemanded":"1","pricePrefered":"15","distancePrefered":"15","energyTypePrefered":"4"},{"index":193,"seed":"JKBDFYLQOORVVJUPRJYTMOMNDNXNTM9ODCX9BGKAOYOCCGMASIHPWTXPHVCWQICDOMHQVELMRCYCUNXPI","address":"FNUUVKVKVPXGNCPFUGPQSQTGECASBHIFEPDIURREHMIVMYLRNZNOIGJJKBQRMBINVLYZIOZ9VQEFUNIND","optimalPurchaseTarget":-100,"optimalPurchaseTargetScore":-100,"availablePurchaseTargetList":[],"optimalSaleTarget":-100,"optimalSaleTargetScore":-100,"latitute":"51.603286","longitute":"-1.155050","amountDemanded":"4","pricePrefered":"14","distancePrefered":"12","energyTypePrefered":"2"},{"index":194,"seed":"EYVGCNDVDYSVQOQVATWKPXHYGLPFUBLRYDPCI99LLBKNDPVNRYRBCGBVWUWBLHXCQODAYQIGVOSPCHEGO","address":"AJWQUVDWGUCONUPZJCICOJVWYJIZJRCJCRMTMKRZTRXUYT9TGLARFDFAWAZROPGUAGQKAOCAPTLIHJSG9","optimalPurchaseTarget":-100,"optimalPurchaseTargetScore":-100,"availablePurchaseTargetList":[],"optimalSaleTarget":-100,"optimalSaleTargetScore":-100,"latitute":"52.373296","longitute":"-0.318047","amountDemanded":"2","pricePrefered":"14","distancePrefered":"12","energyTypePrefered":"1"},{"index":195,"seed":"YSORQPNGDNMUGX9DOURNNINDAGLCVVWUXWDDIWNVQBBLNMCJFCECYTXKDHEOJEAMCJFSJTRKSBP9CQP9A","address":"FENFDNUCNFUWHONWHQKRYKUSZBXTYDILYDSHAVFTOSXEQJHUP9NBXVGYKCRYEBANIPTXYROSE9ZYRUENW","optimalPurchaseTarget":-100,"optimalPurchaseTargetScore":-100,"availablePurchaseTargetList":[],"optimalSaleTarget":-100,"optimalSaleTargetScore":-100,"latitute":"52.085064","longitute":"-1.233674","amountDemanded":"2","pricePrefered":"16","distancePrefered":"13","energyTypePrefered":"1"},{"index":196,"seed":"HEDU9SEEIIT9EYCSFBJIIXHSAFYFHHAAWXMBT9HYYTTBAB9HYQTUXVRKXSFDBXMKAJUNNKRKQPMS9KKPF","address":"N9CNRBMPODLFSAAPCWXFVGXLZNDNJAFJCOOTTICIQFWSHPNQZCUWEHWVIIXBDHLECTEBJCZLAIM9CQ9MB","optimalPurchaseTarget":-100,"optimalPurchaseTargetScore":-100,"availablePurchaseTargetList":[],"optimalSaleTarget":-100,"optimalSaleTargetScore":-100,"latitute":"51.863592","longitute":"-0.512124","amountDemanded":"5","pricePrefered":"14","distancePrefered":"10","energyTypePrefered":"3"},{"index":197,"seed":"ITXWUMRO99QATWXVY9J9CFDLMEHTOMADDHJMSAXOOAMQYHDIJPCGWOESJWFRMBKYVQABFXAYWBMGTG9JO","address":"FFOOELQRPDQ9GIUT9CIKAICJCL9VQMW9JEHHSMQ9HEBQBTJSRXCBQCKAYFYFRMIG9SMZKXEKOUGPHWNUD","optimalPurchaseTarget":-100,"optimalPurchaseTargetScore":-100,"availablePurchaseTargetList":[],"optimalSaleTarget":-100,"optimalSaleTargetScore":-100,"latitute":"51.288809","longitute":"0.161768","amountDemanded":"2","pricePrefered":"15","distancePrefered":"12","energyTypePrefered":"0"},{"index":198,"seed":"YFJRSGWJWKWSCGNBXDVKMJNYKUDSUWJUJDVGMXQFT9UOVJOTGQDT99PEUENENJRPLWFOADUQQNMIUAD9N","address":"YZESYLIOECQZGLBVMTN9LJLOTPFLEIVTLFNMMLYWR9T9ELHYLIJVSCDGBZLJFEEOZTKXOAEGGXURXARSY","optimalPurchaseTarget":-100,"optimalPurchaseTargetScore":-100,"availablePurchaseTargetList":[],"optimalSaleTarget":-100,"optimalSaleTargetScore":-100,"latitute":"51.682390","longitute":"-1.479267","amountDemanded":"3","pricePrefered":"15","distancePrefered":"13","energyTypePrefered":"1"},{"index":199,"seed":"UYVLNFCXYSRTQAGIAPDLTQPFCE9ISTPECR9UVBIWPVFOLOGJUUSLVCQWGOGGWOFMBQMIJTMKOCJQMGUTS","address":"AYSJSMKUFURBHIJZLNZM9ZGF9MATN9E9UX9EZJCMKVZFQLMUVRSXKDABHURYUMTACSFQHZSVXXMZIJMJZ","optimalPurchaseTarget":-100,"optimalPurchaseTargetScore":-100,"availablePurchaseTargetList":[],"optimalSaleTarget":-100,"optimalSaleTargetScore":-100,"latitute":"51.027014","longitute":"-2.055569","amountDemanded":"4","pricePrefered":"15","distancePrefered":"10","energyTypePrefered":"3"},{"index":200,"seed":"SXSXUWXCFTAJRERJTAXUXBXM99EPYWDVPFQ9PXVIYQCUBUCJPJSUABXD9OTLHRHQKSFTFNHIQHCGSOJXI","address":"ZYPRQOTLGPDJYTSQRHYZTUXROR9JKGBDRNVB9YAWHHARBZKECGJKIBQOPZKYQHKWIHYNDMYYAVYHD9VWX","optimalPurchaseTarget":-100,"optimalPurchaseTargetScore":-100,"availablePurchaseTargetList":[],"optimalSaleTarget":-100,"optimalSaleTargetScore":-100,"latitute":"51.153115","longitute":"-2.211908","amountDemanded":"3","pricePrefered":"15","distancePrefered":"13","energyTypePrefered":"4"},{"index":201,"seed":"TREXSKBRSTYKUDFTUQCFURVLGHJYG9EFI9MCNFLMCCADISFTXR9QXFGBPJADQNABKXBNHJBJSTVGKNSII","address":"HZCLLTBGIMIUANNBYPEGTQQV9MSKFTJUICFOKSBBE9F9BQQXESFQKMUGHKVFPDABEYTIUJIVECFRUODCB","optimalPurchaseTarget":-100,"optimalPurchaseTargetScore":-100,"availablePurchaseTargetList":[],"optimalSaleTarget":-100,"optimalSaleTargetScore":-100,"latitute":"51.203121","longitute":"-2.031695","amountDemanded":"6","pricePrefered":"16","distancePrefered":"14","energyTypePrefered":"0"},{"index":202,"seed":"AWSOBQVXJIPYPNPAYGLKKHBCRXXRUIBCOQBXDSOPSYVXMVTUQRHVBEJRUIEEXAVWLLVWVSTWJGFPGXFIO","address":"JVLNKNCLOJYSRVSFXVFISALHMGNKIJSIUMKTFPPMJDENSWKSCJETFSRJCI9OQFGTQJIRRHBEODTFTPZH9","optimalPurchaseTarget":-100,"optimalPurchaseTargetScore":-100,"availablePurchaseTargetList":[],"optimalSaleTarget":-100,"optimalSaleTargetScore":-100,"latitute":"51.114668","longitute":"-1.726487","amountDemanded":"4","pricePrefered":"14","distancePrefered":"13","energyTypePrefered":"3"},{"index":203,"seed":"DADG9GXFVMPIBFUSVMKTBHGCWHUUOWPWNPPYANQHMCHDNSPBBPLCKREGOTVUIYKOHQDQTVS9ADKEUXKA9","address":"TJCSPYPAJPQ9ITDTBVLHTJJOER9UKSDWFA9MLQKKAMD9DCLNXKDZKHUIJFICTMMIFZTOWDBSQLBMQVTW9","optimalPurchaseTarget":-100,"optimalPurchaseTargetScore":-100,"availablePurchaseTargetList":[],"optimalSaleTarget":-100,"optimalSaleTargetScore":-100,"latitute":"51.973947","longitute":"-0.228095","amountDemanded":"1","pricePrefered":"15","distancePrefered":"14","energyTypePrefered":"3"},{"index":204,"seed":"OQMWLQIYFPIKHBUCKFTHHMDXW9TRJQSBNOGSCXLBBQBNDGDCBIC9KCVRNRECKRYOGLCCCGLPEJIHPTLEY","address":"OYLVUTOENDUOAB9GAADQOFJUNZTHZXFQZVKEZAPYRCLXBPYJOYTCGCRCMGBEUIMUXEOTYOMEHOJRVAMMW","optimalPurchaseTarget":-100,"optimalPurchaseTargetScore":-100,"availablePurchaseTargetList":[],"optimalSaleTarget":-100,"optimalSaleTargetScore":-100,"latitute":"52.131838","longitute":"-0.664227","amountDemanded":"5","pricePrefered":"14","distancePrefered":"12","energyTypePrefered":"3"},