[{"index":0,"seed":"TAGKWJJDYSRYFLHKLQUMLKKKCHDU9CRWLPOKCHCVIJ9CGCNUHWULVDTSYTDJMRIVGJIEDVGXUYSKVLIVT","address":"WNQROTGAYZZOJ9ZLRMIAAQDCACCMCVDWNEECHVCRZXXGFIBAOZFGZDAAS9ID9NSCRR9WGZVNDDALFZCT9","optimalPurchaseTarget":-100,"optimalPurchaseTargetScore":-100,"availablePurchaseTargetList":[],"optimalSaleTarget":-100,"optimalSaleTargetScore":-100,"latitute":"52.265938","longitute":"-0.955272","amountDemanded":"5","pricePrefered":"14","distancePrefered":"10","energyTypePrefered":"2"},{"index":1,"seed":"VEJJYGIODTRKYJQXIPIKWDPNMGOU9MEMGVWERINTSWYCDAQQHMOQUPAPAKQQKNJKORBELCTKTCCK9DMEG","address":"M9B9XHGYYDTKUWQSOXRCBF9WXNE9YRATQKZGRMIMI9YY9EJNUITGHIIKVQUC9AKIMKBAGASPVX9DXJQUX","optimalPurchaseTarget":-100,"optimalPurchaseTargetScore":-100,"availablePurchaseTargetList":[],"optimalSaleTarget":-100,"optimalSaleTargetScore":-100,"latitute":"50.971506","longitute":"-0.266909","amountDemanded":"3","pricePrefered":"15","distancePrefered":"13","energyTypePrefered":"1"},{"index":2,"seed":"GSJQULIQUCRRQYKRSPCKLWGKKBMJLPUJORJYVMXRHGOGTGYLTB9OIAIRIJUXNGNKWGCCOVLKAJWPOKFPU","address":"SBBAOHXJUEGTALLGLBKSX9FVMXHM9MUYLUKEWFELAO9PYNSNLAUIKOJY9ERESAAGVYKLMIHUATES9WMVY","optimalPurchaseTarget":-100,"optimalPurchaseTargetScore":-100,"availablePurchaseTargetList":[],"optimalSaleTarget":-100,"optimalSaleTargetScore":-100,"latitute":"51.905246","longitute":"-0.943588","amountDemanded":"6","pricePrefered":"16","distancePrefered":"11","energyTypePrefered":"2"},{"index":3,"seed":"FETWBKJEVKXVOFLWFDNCOLMWAHYXHNCXDWADXPNMUVFMJMQDDIRRQASYKKSNMLV9FLOSRIIHMARTWDBRQ","address":"LKRMNPXUTEROPROGZONTVRWBMTGOVWXSWUILWSKYDYXANDHVXWNGKUZTPLFSPDHGUGCLKRRIXSBZDZXAW","optimalPurchaseTarget":-100,"optimalPurchaseTargetScore":-100,"availablePurchaseTargetList":[],"optimalSaleTarget":-100,"optimalSaleTargetScore":-100,"latitute":"52.052478","longitute":"-1.505551","amountDemanded":"3","pricePrefered":"14","distancePrefered":"13","energyTypePrefered":"0"},{"index":4,"seed":"IUJUGGJQ9DRWYVUDNT9WXQUUNVKT9CEEHQANDKHEPGPHMCOWGKOOSQAR9YWMIOPQHT9QCHBHQLVIOXEAN","address":"UDNFHTRUACPCJRKVKOKGOK9ZKEDMCOWFNFTWVODGXZ9QSPYYMSF9CHNNPAQFUIZWXGIZGIHQRDSTOTHMA","optimalPurchaseTarget":-100,"optimalPurchaseTargetScore":-100,"availablePurchaseTargetList":[],"optimalSaleTarget":-100,"optimalSaleTargetScore":-100,"latitute":"51.659136","longitute":"-0.127439","amountDemanded":"1","pricePrefered":"16","distancePrefered":"13","energyTypePrefered":"4"},{"index":5,"seed":"LQMHTCEXATMMLYUOASILLNXFTNV9WJHTOARLYLRPARVKTGPJCUROQHEJMSABOKPROUFGADRUPBOGINVYS","address":"UCTCVHERWPPOTIHATBW99EFAH9CHFBWBVBHRSWHFHSTOOMXRM9ENCZDUBOJOXOCVISEQGUFVYRXBEGQWB","optimalPurchaseTarget":-100,"optimalPurchaseTargetScore":-100,"availablePurchaseTargetList":[],"optimalSaleTarget":-100,"optimalSaleTargetScore":-100,"latitute":"51.073725","longitute":"-0.171733","amountDemanded":"3","pricePrefered":"15","distancePrefered":"11","energyTypePrefered":"0"},{"index":6,"seed":"DPRRLMMFLIGXBOBEAKEDDLOJCJQSWVTNOLOLEYVFBQNWCVAJWKXFKCIXBVLGJHVPJNNRNSICINIEUJIPX","address":"LGDRNXQMMKLWIWYZKEWCXYULRHZTNGUUDWSFJHMWJCLMLPBLVPIZCQ9BDNFXEZSMXMUKSCHKRMXYLMAZD","optimalPurchaseTarget":-100,"optimalPurchaseTargetScore":-100,"availablePurchaseTargetList":[],"optimalSaleTarget":-100,"optimalSaleTargetScore":-100,"latitute":"51.167438","longitute":"-0.153149","amountDemanded":"1","pricePrefered":"15","distancePrefered":"10","energyTypePrefered":"4"},{"index":7,"seed":"BCONECQQHQKLMHSLDFPHINKOSPUWVEWDXVJDILJFTFBERSQEEUQNFWHTTWNN9MEAXONIGUWMFDYHNLEWF","address":"NHBW9KFAPMR9LOL9MGDEQMPOUTCYAZNCAPPHIOGATXRASTLYVGSXJTLODQLADSQTPEGUUCRAYAUBCJUBZ","optimalPurchaseTarget":-100,"optimalPurchaseTargetScore":-100,"availablePurchaseTargetList":[],"optimalSaleTarget":-100,"optimalSaleTargetScore":-100,"latitute":"51.790958","longitute":"-0.669249","amountDemanded":"2","pricePrefered":"16","distancePrefered":"14","energyTypePrefered":"2"},{"index":8,"seed":"LTUBXODWUKCERXYDETSXSFGSNNHFJKNBWTVRIN9SLTIQPSM9JORAGKTX9BFKTQWAMMBBXWVVSTEU9OYYV","address":"R9MQOAZYJA9SKFIJPAKXUGVJ9ONHCSZEXNOGEOYESTSVYOSCHHKRWZQLRYDWHIYYMJGSISPFFZWEUOTQ9","optimalPurchaseTarget":-100,"optimalPurchaseTargetScore":-100,"availablePurchaseTargetList":[],"optimalSaleTarget":-100,"optimalSaleTargetScore":-100,"latitute":"52.130763","longitute":"-0.031141","amountDemanded":"2","pricePrefered":"15","distancePrefered":"11","energyTypePrefered":"4"},{"index":9,"seed":"ALXHJNWPWFKYBBJQCXACVLFPPQLHNEEWRHGROKXOQKSHNSATQRSDPVOCBOHVLLKDMEFVNISEMNA9QCTQK","address":"ADWOADY9QPDGGUJEHBRFVCCOKUHBSLKRYSANJYMETBKHROJKTAKLHPKUMVAEW9HJHRBDWCO9RHLAZOTJC","optimalPurchaseTarget":-100,"optimalPurchaseTargetScore":-100,"availablePurchaseTargetList":[],"optimalSaleTarget":-100,"optimalSaleTargetScore":-100,"latitute":"51.288461","longitute":"-1.784304","amountDemanded":"3","pricePrefered":"15","distancePrefered":"14","energyTypePrefered":"1"},{"index":10,"seed":"IOP9KRYMKBAMFPPE9SSASBSAXRPNUXNKBUV9NUSKBXTCVUVHXCOAFLERSXKMVGHOHPIJKEGAYKCBINUPJ","address":"CENZMRENOXLPUDPVKUGAFPGGBOKXMXTUCDJOLYBRW99EM9YUSGTWVHUXCS9UOPGKJTJR9FYSMDLDVFOKC","optimalPurchaseTarget":-100,"optimalPurchaseTargetScore":-100,"availablePurchaseTargetList":[],"optimalSaleTarget":-100,"optimalSaleTargetScore":-100,"latitute":"51.594220","longitute":"-1.201657","amountDemanded":"4","pricePrefered":"15","distancePrefered":"13","energyTypePrefered":"2"},{"index":11,"seed":"9HVEKYVWKJGUTIPMPOKOKPU99FRJKCYNQJRPPUPHRXRIWQJGQQALPYXOVRGFTPIGTXQLODWISTGKQCATD","address":"QQMVPOOTOABIVEWPAY9VWX9LNFCOFYQUIPPACNQGTVVIAUTMXOBFHRVJQICJRPDYBMLSVRYATTDUNOEZC","optimalPurchaseTarget":-100,"optimalPurchaseTargetScore":-100,"availablePurchaseTargetList":[],"optimalSaleTarget":-100,"optimalSaleTargetScore":-100,"latitute":"51.957074","longitute":"-0.527030","amountDemanded":"2","pricePrefered":"15","distancePrefered":"10","energyTypePrefered":"1"},{"index":12,"seed":"VYLBPLPAFBWESUXNQSQDFGILHXBHB9QNDNXVNBDYFAFJBPLQWGSGTORBIUKNMFPHYHVSKRXIYTAQNWSEN","address":"WONMPJZIXXVKJTGSASGGIIFURTZNNAG9RTU9OEGWVFFIOCTNRQEANYEZNRTPJKNURSTWNPW9CLDFMJNEZ","optimalPurchaseTarget":-100,"optimalPurchaseTargetScore":-100,"availablePurchaseTargetList":[],"optimalSaleTarget":-100,"optimalSaleTargetScore":-100,"latitute":"51.231425","longitute":"-1.068300","amountDemanded":"3","pricePrefered":"15","distancePrefered":"10","energyTypePrefered":"2"},{"index":13,"seed":"UGSMY9GB9YBPYASLPRXJGCJXWNOGHLC9NVAATJUIIKMTSWUWJYNVJLTDDXTHE9CGTPDSBTNGYMVCHR9PA","address":"RHVNSAUYCBKZEOGN9LOQQIDODMNAQWSTBCXARLVP9XNQDXGBZWZPRL99UJQHSLJMJJGATUDGEUSAXXSQA","optimalPurchaseTarget":-100,"optimalPurchaseTargetScore":-100,"availablePurchaseTargetList":[],"optimalSaleTarget":-100,"optimalSaleTargetScore":-100,"latitute":"52.192717","longitute":"-0.824299","amountDemanded":"2","pricePrefered":"16","distancePrefered":"11","energyTypePrefered":"0"},{"index":14,"seed":"IPJISM9TGPT9EIQXRBC9GWFJMPEYDPR9RNYCRKQR9HHLNBALPWQDKLL9BQEMLRTXCSGYGPJDXUM9YAEEO","address":"D9PBTMH9NNVCN9LMQUYZQZCAWVLKICICVZOYJBBOYLOLWWNOZRLNAPFLLLKQISXCJCDWQYYMOVPHNMQAW","optimalPurchaseTarget":-100,"optimalPurchaseTargetScore":-100,"availablePurchaseTargetList":[],"optimalSaleTarget":-100,"optimalSaleTargetScore":-100,"latitute":"51.938892","longitute":"-0.407630","amountDemanded":"4","pricePrefered":"15","distancePrefered":"15","energyTypePrefered":"1"},{"index":15,"seed":"WTHNQTGYXSRDYTEJT9YPVOQDOIDLTTUVOAXMQGTP9YWYWORSBEVDRHUFPKOHDEFYYWEQQ9KII9SICJGRK","address":"SRLSYJW9FS9ZMLNLESNUWFSLXCZICL9HACBNYRTJ9NUSLQHPPPLRGAIPJFGHLSEGDJBULPE9UZCTYDRPA","optimalPurchaseTarget":-100,"optimalPurchaseTargetScore":-100,"availablePurchaseTargetList":[],"optimalSaleTarget":-100,"optimalSaleTargetScore":-100,"latitute":"51.785783","longitute":"-1.007092","amountDemanded":"4","pricePrefered":"14","distancePrefered":"14","energyTypePrefered":"3"},{"index":16,"seed":"IRXRI9XRPDSEOTVENXTFWPBURUHRPL9GKIPTXCADECPEKNBFDDLGNWSMNGSXNDTEAYH9HXOYGMUMKKLLI","address":"LKQODKCSVKJSLNBGYKRFTEEVQS9YMTAUSJHK9VHQIJNNXCYCPURHKNKBHWFCBPZSWKFNZHYMTBTWQ9GIC","optimalPurchaseTarget":-100,"optimalPurchaseTargetScore":-100,"availablePurchaseTargetList":[],"optimalSaleTarget":-100,"optimalSaleTargetScore":-100,"latitute":"51.374344","longitute":"0.177353","amountDemanded":"5","pricePrefered":"16","distancePrefered":"12","energyTypePrefered":"2"},{"index":17,"seed":"JQWPEOPEQEVBGC9OYRARBADCDESQEFNKJTDEYXLJTTHAYMTPHFIXWUHSJRRCCGJ9LQHMEVBKILHKTRCKY","address":"XSCMHQLPX9RVLFGFKWWPBSLSRMJCSWLCZYVDHZVQHJ999IVWZDSGLJYNLHXIKSQAANVJGGAZGMJGKBYBX","optimalPurchaseTarget":-100,"optimalPurchaseTargetScore":-100,"availablePurchaseTargetList":[],"optimalSaleTarget":-100,"optimalSaleTargetScore":-100,"latitute":"52.260275","longitute":"-0.874076","amountDemanded":"5","pricePrefered":"15","distancePrefered":"15","energyTypePrefered":"1"},{"index":18,"seed":"PMOGNUEDBMGGDTPNGVUOYDXTKVWREVYDCBCXIFANRIKFCQGLAPPB9MMCLBMBYG9XLYOSMVSYFCMXSAPUS","address":"IWGWOSYACKFFUVXAZXBIDRDEYFWSJWOSFQEVTXJNRRWVCNMVDIAHXAKGJII9HADJMHCTEQTLOKARXDEBX","optimalPurchaseTarget":-100,"optimalPurchaseTargetScore":-100,"availablePurchaseTargetList":[],"optimalSaleTarget":-100,"optimalSaleTargetScore":-100,"latitute":"51.501558","longitute":"-0.847937","amountDemanded":"3","pricePrefered":"14","distancePrefered":"11","energyTypePrefered":"1"},{"index":19,"seed":"TOHYVRRMYIMTHFMFGQEXWFLEFNYQAPQCEGRVKNVGUYGQIUFDUDMYQOMGUXWKRJEKGJ9XIWVYBPQIJSIBP","address":"UNIYLALQUREXUGDCQJRNTOACPLNRDOVKGHRHDHSQFPCONTMBIZIBPXCKCCBQJFFLBVYWSMIHNUUUAWL9X","optimalPurchaseTarget":-100,"optimalPurchaseTargetScore":-100,"availablePurchaseTargetList":[],"optimalSaleTarget":-100,"optimalSaleTargetScore":-100,"latitute":"52.004987","longitute":"-1.303923","amountDemanded":"2","pricePrefered":"14","distancePrefered":"13","energyTypePrefered":"4"},{"index":20,"seed":"SOMJXIAPCH9GDQNHEGCMXYUMYSQVNOHE9RCPPQRKLHOALAAHQTLQPYUMIH9SAYHDWIUNJWVOQUEDTQW9A","address":"ZYZMWDRABWCKSGDGBDCYFCBBSLGTHBBMOSJJVPTWSFYZIUEEYQHSDJRWPUO9CRNXGXYBANVBSZXVCQUG9","optimalPurchaseTarget":-100,"optimalPurchaseTargetScore":-100,"availablePurchaseTargetList":[],"optimalSaleTarget":-100,"optimalSaleTargetScore":-100,"latitute":"51.563417","longitute":"-0.010776","amountDemanded":"2","pricePrefered":"16","distancePrefered":"11","energyTypePrefered":"2"},{"index":21,"seed":"PBWM9X9PGXNHOIASCJGEAN9OREC9HTNJVYAPEQKMXJWLMSYPEHSVBXOLYYAGSF9PBTQDHNCYEINDCYCWL","address":"KMMGJRFTMGAUHLTGGRQVLEVWSELTXYYDKHYQ9P9VJCNJNLWNFSFVWADGXVV9AAVBHHOEQRFHKHASJPKWW","optimalPurchaseTarget":-100,"optimalPurchaseTargetScore":-100,"availablePurchaseTargetList":[],"optimalSaleTarget":-100,"optimalSaleTargetScore":-100,"latitute":"52.350372","longitute":"-0.397729","amountDemanded":"5","pricePrefered":"15","distancePrefered":"10","energyTypePrefered":"3"},{"index":22,"seed":"OYBNUWH9RENSM9MBCUIS9UDWOBNISOPLYAMFRTNAVY9VLTIYXYXVNROYKQWLY9OIOWHI9TIIBDVHFYPXM","address":"TIZLJDSERLKCXKWXVIVLILILYEOUDEKIVQMNVGN9TZPZRLVUPGDCSIEEQEYEMZISGNJZQ9CU9A9NLVO9Z","optimalPurchaseTarget":-100,"optimalPurchaseTargetScore":-100,"availablePurchaseTargetList":[],"optimalSaleTarget":-100,"optimalSaleTargetScore":-100,"latitute":"51.854078","longitute":"-0.375792","amountDemanded":"1","pricePrefered":"16","distancePrefered":"10","energyTypePrefered":"4"},{"index":23,"seed":"TWO9CDHIATHGGPPYNXXPQUBNASIBDG9VJQFGFCBSBCOLHVSMLAHST9FCDCG9EPUATWDODLYCKX9SCGOFY","address":"ZEYRCLWLO9LOMDUEJJOWDWLTVFEFLNQOETFNGWAFSSVHSWJLK9RGAM9MXYOHOHAXEHNXQINXNMVVZVSBW","optimalPurchaseTarget":-100,"optimalPurchaseTargetScore":-100,"availablePurchaseTargetList":[],"optimalSaleTarget":-100,"optimalSaleTargetScore":-100,"latitute":"51.510201","longitute":"-0.090213","amountDemanded":"3","pricePrefered":"16","distancePrefered":"12","energyTypePrefered":"2"},{"index":24,"seed":"CYJMQCLVSGIGMJWVQKKOXJQUMRQJCOLY9OAP9DFBIXFCSPCEMWMNAUCOIM9YDGCRIFEPQIOVGVIWTTJTE","address":"ZRVIPNVJXU9CRHSJAVPHAXCQFMABLSWLYLTGQIKPEXSPULLXVHRD9RGVGRXK9IDNOKLDYOIHHJIIJHXX9","optimalPurchaseTarget":-100,"optimalPurchaseTargetScore":-100,"availablePurchaseTargetList":[],"optimalSaleTarget":-100,"optimalSaleTargetScore":-100,"latitute":"51.090044","longitute":"-1.707627","amountDemanded":"5","pricePrefered":"16","distancePrefered":"15","energyTypePrefered":"1"},{"index":25,"seed":"XTAHL9LGGUDUJGRPSWLXBMSWXMASQVBEVOCILIRLKGJAIDXERRVHFRQXV9YHGRCUNFOFBPYVRDEHUUELX","address":"TSNJDJ9PJCQQVXJIYTRAGWCDDQORZPVMUPVNBWGP9BITDAFBHQUKSTHILQAEIQEBPTYXCUCUTIPAWMCCZ","optimalPurchaseTarget":-100,"optimalPurchaseTargetScore":-100,"availablePurchaseTargetList":[],"optimalSaleTarget":-100,"optimalSaleTargetScore":-100,"latitute":"51.102938","longitute":"0.291226","amountDemanded":"2","pricePrefered":"16","distancePrefered":"15","energyTypePrefered":"3"},{"index":26,"seed":"PPNWWITSGMPYHPMDKFCIFPSITREJDYYPGLMHHUVIWTPURV9XWNXVUQNUDISYAMSPPGTUXGXVNEDVPUHHO","address":"OLMYCZBWTUGLXZ9XWTJO9UV9XLQGCRBOLBHRBHKGXFRULBHHWZDTYRQVNYKTPQRNZRHNLDYWTOVEZGKVA","optimalPurchaseTarget":-100,"optimalPurchaseTargetScore":-100,"availablePurchaseTargetList":[],"optimalSaleTarget":-100,"optimalSaleTargetScore":-100,"latitute":"51.432001","longitute":"-0.580742","amountDemanded":"3","pricePrefered":"16","distancePrefered":"14","energyTypePrefered":"1"},{"index":27,"seed":"EJTYLAIUQHHWEGYSOPWEMRJKPA9JETIQNUUKMLQKSQCWE9FPHKYJQMGUIITCBSBSIXXCSEVKHQVIHORKM","address":"ZSGQXIRLQCR9AVHAUSVYBAUBNGCUJEGWGYEMUPDIFNDUCYCIVYCIPXBLKJJAAAZANIYNBWWIFWPMFTQBZ","optimalPurchaseTarget":-100,"optimalPurchaseTargetScore":-100,"availablePurchaseTargetList":[],"optimalSaleTarget":-100,"optimalSaleTargetScore":-100,"latitute":"50.970070","longitute":"0.258805","amountDemanded":"1","pricePrefered":"16","distancePrefered":"11","energyTypePrefered":"2"},{"index":28,"seed":"VSVCPSFJD9LXODLCXBSCDIPQAWPKMURTIBPILTDKLRJJWJMFDLG9TYSKQLEWRTORASUTISWFII9WAC9DY","address":"M9ZUIEUZEPPYETQGKUBPPSLMWQLH9FDMGBUZVZZWECNAMBCQGESUCGBLMHKLRCBEY9LWZHDKMINBRRGWW","optimalPurchaseTarget":-100,"optimalPurchaseTargetScore":-100,"availablePurchaseTargetList":[],"optimalSaleTarget":-100,"optimalSaleTargetScore":-100,"latitute":"51.471148","longitute":"-1.214981","amountDemanded":"2","pricePrefered":"14","distancePrefered":"15","energyTypePrefered":"1"},{"index":29,"seed":"IRXVWNHQJXMRPKGIEYYYGIWSTXIMXAOVVSVUNVIFQXXEXNIRGWRRPSPMYXMVNDUTNPPBHBTJKBDQEGQDD","address":"XTLQSBIUBZGJUVUNGWPEPFQPGIKUHNKNZBLZKKYRJNJKHORHUWCAMWLZZRCAZJPLOCZKIRYN9PWVLHPRW","optimalPurchaseTarget":-100,"optimalPurchaseTargetScore":-100,"availablePurchaseTargetList":[],"optimalSaleTarget":-100,"optimalSaleTargetScore":-100,"latitute":"52.163126","longitute":"-1.505667","amountDemanded":"3","pricePrefered":"15","distancePrefered":"13","energyTypePrefered":"3"},{"index":30,"seed":"WOCHATMTYUXBECLBMRISLJUGDNUYCJSRVPQCLLPTAVSULYIFIK9UMOQIGECEUSQPEMNYLXYOUAEPAG9PB","address":"9XTJ9UFJUPNVHTJAZWFLKJGHKO9MUJLAQENURXGSAG9PGIGJUNJSBZIEVTIOSQTTKGXWPYWWPACJXMPIC","optimalPurchaseTarget":-100,"optimalPurchaseTargetScore":-100,"availablePurchaseTargetList":[],"optimalSaleTarget":-100,"optimalSaleTargetScore":-100,"latitute":"52.129982","longitute":"-0.156008","amountDemanded":"3","pricePrefered":"15","distancePrefered":"14","energyTypePrefered":"3"},{"index":31,"seed":"WQILKV9UOCBHEYJ9BXTB9KYVDUOJAKSCBXSUSQYFLBUC9QBGO9HJNOHWOYOQPMXAYUGNMOJCYQLJLAPTL","address":"DGUDQWTPDXXJTLUVXWXGILCIXCZTBQRXZQYAXPPPE9PLTGDUWPZ9UYJSBHQX9YQGUA9Q9JVYUHJBHAQGW","optimalPurchaseTarget":-100,"optimalPurchaseTargetScore":-100,"availablePurchaseTargetList":[],"optimalSaleTarget":-100,"optimalSaleTargetScore":-100,"latitute":"52.050479","longitute":"-1.517197","amountDemanded":"3","pricePrefered":"15","distancePrefered":"11","energyTypePrefered":"2"},{"index":32,"seed":"GXB9GWMPXHTWEMOMHRNVHDPEMCOYMIIIRBLW9VAXRNTITHRN9YXUIIGXQ9MGW99RRWUDGDKA9WWPLRPWR","address":"PJTKS9PTHRMGFENGYKTHVYMQFQWEYKFBWFNTYNZASO9LBVNVGMNZVIWMPSVHD9HJZZDAGPFTLLMOLDGF9","optimalPurchaseTarget":-100,"optimalPurchaseTargetScore":-100,"availablePurchaseTargetList":[],"optimalSaleTarget":-100,"optimalSaleTargetScore":-100,"latitute":"52.216352","longitute":"-0.832487","amountDemanded":"5","pricePrefered":"15","distancePrefered":"11","energyTypePrefered":"3"},{"index":33,"seed":"N9AQDRONTKKUUKTNN9KNUYKHDPCXKGUORNGPHHVUDDDUQCUHFWXUMDPELXQNUBOCXPXMCVKIEJWVKNAFD","address":"GLXVZQYLDLDKFBKNGGDIZGKXSIKSWLYKNVMBXUSIMWIBLCEXTTDSFEAIHOVWTSOAACEGTZLYZUZYFLSFB","optimalPurchaseTarget":-100,"optimalPurchaseTargetScore":-100,"availablePurchaseTargetList":[],"optimalSaleTarget":-100,"optimalSaleTargetScore":-100,"latitute":"51.483872","longitute":"-0.286656","amountDemanded":"3","pricePrefered":"15","distancePrefered":"13","energyTypePrefered":"4"},{"index":34,"seed":"RN99QMKWTBMXVHKWOCOY9NHHWCTSBYGPUTNHWOVTIVBWXWILXMKDYQDXUFXQJCSKOXVKSSDCMMFRLYKPK","address":"CUDKERFRRHYZOYGUMULVIJSFWKHJFALX9UIFMDIWECVNCSXFAYSAIUINLUFOQQLWNFYFKBWRLDUZQNJS9","optimalPurchaseTarget":-100,"optimalPurchaseTargetScore":-100,"availablePurchaseTargetList":[],"optimalSaleTarget":-100,"optimalSaleTargetScore":-100,"latitute":"51.314063","longitute":"0.017975","amountDemanded":"1","pricePrefered":"15","distancePrefered":"14","energyTypePrefered":"2"},{"index":35,"seed":"BB9U9ROBYXDDOASUNWLWFYEBTUJIYPKFCHKFGBTLADLQEMDIEDVQFG9MASBDLJXSANNXLHUTTJQPJLHKM","address":"RWGNW9JBKIKGTXLJOKDXFBNLHLEMCVABBRUSOEYSNNQXWIPHCJHSUYOGDFOLZKLQZSXXZWENLDFLDIO9C","optimalPurchaseTarget":-100,"optimalPurchaseTargetScore":-100,"availablePurchaseTargetList":[],"optimalSaleTarget":-100,"optimalSaleTargetScore":-100,"latitute":"51.305878","longitute":"0.131878","amountDemanded":"5","pricePrefered":"15","distancePrefered":"13","energyTypePrefered":"2"},{"index":36,"seed":"OADCJNCSXWYBEFPNETAEJIVXWXKPLJSTDDUYKFRVSGDAQLOEMBFFSSXABKJNMCDYGLLGIEYDVMHAPEPIL","address":"9KVR9MVEATQAOPMDCWLXPBZY9W9TZWOSDHASQPLMBSNWEYARDPARYRGLGDQXKPSTW9GZCJYFMFNJKI9DB","optimalPurchaseTarget":-100,"optimalPurchaseTargetScore":-100,"availablePurchaseTargetList":[],"optimalSaleTarget":-100,"optimalSaleTargetScore":-100,"latitute":"52.035917","longitute":"-1.525155","amountDemanded":"4","pricePrefered":"15","distancePrefered":"13","energyTypePrefered":"2"},{"index":37,"seed":"SCBYIXTIXTJUQJYBHAMQEAEQEGKC9XAPQWVEWIVBSVRXMOGVVHJSC9WDIDQXNPHCOIKELNOFUTGBOBQFK","address":"NPIWWPXDNFGVZNMHGEASCRNUOCLOIZZOUYPSL9AGQUD9MVZXUCNBIBCDJARRYTIFKSUYYUYSTDYUKUGQD","optimalPurchaseTarget":-100,"optimalPurchaseTargetScore":-100,"availablePurchaseTargetList":[],"optimalSaleTarget":-100,"optimalSaleTargetScore":-100,"latitute":"51.985777","longitute":"-2.350731","amountDemanded":"1","pricePrefered":"14","distancePrefered":"12","energyTypePrefered":"3"},{"index":38,"seed":"IRGVCUSI9QTXNUETFVQEY9SQLXQYBAGKTVKPJAOJJQNAYSCQFESTICTLRYPIQOLNQVUCGA99QXEEBVJHO","address":"9NIRJZS9YEWPLCCDPFNJ9YLBQJGFIFOEY9GWYIPALODXJXDOEZOXIZI9YHGJDTHFIKI9FOHCZABVBNRBC","optimalPurchaseTarget":-100,"optimalPurchaseTargetScore":-100,"availablePurchaseTargetList":[],"optimalSaleTarget":-100,"optimalSaleTargetScore":-100,"latitute":"52.168955","longitute":"0.103773","amountDemanded":"4","pricePrefered":"15","distancePrefered":"11","energyTypePrefered":"3"},{"index":39,"seed":"KUTJYIRLXNNKRWHAWGCAFGYUSXNSWQSQIODOEYLXXFQ9LOYQAOOXTWQJDQNJNNNVKVDHRDVJTRJUEMVYF","address":"UVYMM9SRXZNHBLABFDHVTWSDWNPFRYOKHQSBKWG9DJYUXOQFTMGHUVHUNKLXV9MKY9PUVRKMANQIQLWOD","optimalPurchaseTarget":-100,"optimalPurchaseTargetScore":-100,"availablePurchaseTargetList":[],"optimalSaleTarget":-100,"optimalSaleTargetScore":-100,"latitute":"51.764550","longitute":"0.160430","amountDemanded":"2","pricePrefered":"14","distancePrefered":"12","energyTypePrefered":"4"},{"index":40,"seed":"RDG9XNWMGFEFSA9PSXLVDAATVM9RNKLQQDBAO9VUTLEVEU9TPXMYUUYHDXMAKUBCWLQ9JELOGMXFMOUEU","address":"YNIQBVFMARQCZHAX9RJUZLNIQBXNBNNARJQUFWLZOHN9VXHRLEPM9SALO9RHHJKEASWEMS9KZQRPNNJDB","optimalPurchaseTarget":-100,"optimalPurchaseTargetScore":-100,"availablePurchaseTargetList":[],"optimalSaleTarget":-100,"optimalSaleTargetScore":-100,"latitute":"51.670769","longitute":"-0.357773","amountDemanded":"6","pricePrefered":"16","distancePrefered":"10","energyTypePrefered":"2"},{"index":41,"seed":"FGQQIYCNLNEIWYUQORXVHFTXDFWCLDTBOXJEYWRXBCQSANRSPBLPIV9IWYTXASEPMFSGHFWVEBLNLTGVM","address":"GKVFDSRJVWZNSKSCTSYZDOO9OMONQNLS9TFNWHPCAAYGQZFZEOSAYRRUEKD9MHMVCMRWETM9NKGIBQHK9","optimalPurchaseTarget":-100,"optimalPurchaseTargetScore":-100,"availablePurchaseTargetList":[],"optimalSaleTarget":-100,"optimalSaleTargetScore":-100,"latitute":"51.878878","longitute":"-2.066586","amountDemanded":"3","pricePrefered":"15","distancePrefered":"14","energyTypePrefered":"2"},{"index":42,"seed":"OOFOG9IWU9WMTHLIKRXECGWMEOTLHSB9H9EDYXKY9OUXQUSFBCHSLTAAJRTRPQMXHXHSPQUROIGYHXFKN","address":"EHPVMKMDG9YSGXQNIAYOEMJHVHZJYUEOCPOBWGHJUGSAFQGWFOJQZVAXWLLWMJXRUUHEOEDTTCCENVZPX","optimalPurchaseTarget":-100,"optimalPurchaseTargetScore":-100,"availablePurchaseTargetList":[],"optimalSaleTarget":-100,"optimalSaleTargetScore":-100,"latitute":"51.047508","longitute":"-0.638356","amountDemanded":"2","pricePrefered":"15","distancePrefered":"12","energyTypePrefered":"2"},{"index":43,"seed":"UIO9LUUWCBFQ9SRMWGCOPBEOKIMVWHROCWUCQLDCEOSWBDQ9LEJPD9DRNXIDHLTUELXRKXDOAMS9WNCSL","address":"KHLTPTSTHR9CPFIKJG9OPVVVDS9ZX9BSTRZIKQQEQQQNUHJNAIOFS9SUKDYBIDGUFEAIAKTQEDXWTOLWY","optimalPurchaseTarget":-100,"optimalPurchaseTargetScore":-100,"availablePurchaseTargetList":[],"optimalSaleTarget":-100,"optimalSaleTargetScore":-100,"latitute":"51.382047","longitute":"-0.508509","amountDemanded":"5","pricePrefered":"14","distancePrefered":"13","energyTypePrefered":"3"},{"index":44,"seed":"LTLLSOQA9WRUFWRDQOSTFNMAGFNQPWABFJIFKUWVORYTHTNHV9BWVTFWWRIUNCM9XITFGVHHEISTCL9VD","address":"9JI9VAQVHEITIAZKHGAHNOIHQLSO9UEBWPSCUPYQNJZLOZSNNNOVCQWMDWKKBHAWSZBOLRHUQXMTLZRED","optimalPurchaseTarget":-100,"optimalPurchaseTargetScore":-100,"availablePurchaseTargetList":[],"optimalSaleTarget":-100,"optimalSaleTargetScore":-100,"latitute":"52.046917","longitute":"-0.855750","amountDemanded":"6","pricePrefered":"15","distancePrefered":"14","energyTypePrefered":"4"},{"index":45,"seed":"VOCHELPXINCCJOPKRKVYYWVTAPFWCHCCGEHRLOVUVDDFKQPVR9CVHMR99SFYCSQFNQJRGO9OLERSYJMH9","address":"9PERCTKCJTESMC9RMGDVXGTEGPWJWVUSJGDU9WYRAFJRQQCXUKCQXYVI9AYBIBSXIBOVIFHETC9OAANDX","optimalPurchaseTarget":-100,"optimalPurchaseTargetScore":-100,"availablePurchaseTargetList":[],"optimalSaleTarget":-100,"optimalSaleTargetScore":-100,"latitute":"51.504276","longitute":"-1.112847","amountDemanded":"3","pricePrefered":"14","distancePrefered":"10","energyTypePrefered":"3"},{"index":46,"seed":"YUFANPAYFHNWHWEGWYTOFY9SQMGCJBDACOBKBVDGNGPPIVQJG9KMLJRWCJOSSIEOFMYCEYUDVDXDBECKM","address":"OBPPKAIE9WJQBPFNBCYOSKGGAMQANPVDOFVLKIBWYOEALHOPMITYBHBVFDUNSGFDAXUVBDZFFKZYPAHL9","optimalPurchaseTarget":-100,"optimalPurchaseTargetScore":-100,"availablePurchaseTargetList":[],"optimalSaleTarget":-100,"optimalSaleTargetScore":-100,"latitute":"51.746794","longitute":"-1.209964","amountDemanded":"6","pricePrefered":"15","distancePrefered":"11","energyTypePrefered":"3"},{"index":47,"seed":"UIIXTUKLBWIDXYIIJRQLJRX9VTSTTJCS9NCN9KAWWLVT9HMHMHIFVBI9FFDLKWTOLFEJTBONSBLILQVYA","address":"HNJUDDZGBGTLKNNQ9CKWZKKTHIQVQNKMYHUNPSWFLFKLUNVHOFLQS99NJWALEDLDTUVVYLUIVLOIFNEGZ","optimalPurchaseTarget":-100,"optimalPurchaseTargetScore":-100,"availablePurchaseTargetList":[],"optimalSaleTarget":-100,"optimalSaleTargetScore":-100,"latitute":"52.334057","longitute":"0.151733","amountDemanded":"2","pricePrefered":"15","distancePrefered":"10","energyTypePrefered":"2"},{"index":48,"seed":"EUALNHQGQOERWVAXFWRYAOJQNDTJXBFRXXBTSMVC9PGAD9TWGGKPS9AKSCSYHTBRWLIOHYHTTUEVFWTCA","address":"SDXZ9PWACTGNOBBXSHXBNMZBGSZOSBQLSE9WMGVK9XMALICNOAVSCZFTSPONFAGZWTGCYPJLTAZAKGIHW","optimalPurchaseTarget":-100,"optimalPurchaseTargetScore":-100,"availablePurchaseTargetList":[],"optimalSaleTarget":-100,"optimalSaleTargetScore":-100,"latitute":"52.200558","longitute":"-1.416339","amountDemanded":"3","pricePrefered":"15","distancePrefered":"12","energyTypePrefered":"2"},{"index":49,"seed":"WMQPPCAHORNRQ9YFWWLEVNUIEXEYAXTURJY9YPJUTBGMM9NHCSLFXCSILQ9FFO9EIPLTM9DXVF99ICI9Y","address":"YNMQKKUBGVCQYLETDDUPTQLWPPPYNZGYCROPPXBYDICUAHLQNASQCRJDNBETPGDOENPBKSKCNTESTXAFZ","optimalPurchaseTarget":-100,"optimalPurchaseTargetScore":-100,"availablePurchaseTargetList":[],"optimalSaleTarget":-100,"optimalSaleTargetScore":-100,"latitute":"51.217121","longitute":"-1.202086","amountDemanded":"2","pricePrefered":"15","distancePrefered":"15","energyTypePrefered":"4"},{"index":50,"seed":"LTYYVXL9V9FFYMJLPVW9EQSUMUKFBCMENQJEJQWRIYLGOXSQNKPYHCWBM9BFDVQG9EHBNUAJDCLXUSXHJ","address":"PKQMRYBJNW9RJLBEQJAMVIYZPLRLFNZSRJEHVYDHPTLOXRESKHGYM9NXCBWVUIB9C9XHTDTKHCWRREGRW","optimalPurchaseTarget":-100,"optimalPurchaseTargetScore":-100,"availablePurchaseTargetList":[],"optimalSaleTarget":-100,"optimalSaleTargetScore":-100,"latitute":"52.149896","longitute":"-1.932778","amountDemanded":"2","pricePrefered":"16","distancePrefered":"12","energyTypePrefered":"4"},{"index":51,"seed":"OLHKCLNEVUQBADPQPVIBVDLTWTFPWGQTYDKFIPYYFEMQ9NMNXGILQYABHMFAUTQSWGGMSKNWHWONQMSSK","address":"LJWFOIJHYRTAPRVGFMAHQ9EKDUQEKCTZKV9TKRRIGUAMHCYRTPMRKZXCNNXGYPVWQMJOFXNAI9N9UQF9C","optimalPurchaseTarget":-100,"optimalPurchaseTargetScore":-100,"availablePurchaseTargetList":[],"optimalSaleTarget":-100,"optimalSaleTargetScore":-100,"latitute":"51.976525","longitute":"-0.874760","amountDemanded":"5","pricePrefered":"15","distancePrefered":"14","energyTypePrefered":"2"},{"index":52,"seed":"9UAAIYRMXDWNBSVGXFRPIFWQQKEA9MVTMIWBGNJQRIIU9PHLOACJVRQMOUGNPTVUWNI9UIVPLFNCQXIYR","address":"YBPF9QOY9LVIHDWMYROGMGCTGR9MFZHVNVRYCQTYSLUKJVSJYZQZ9R9YYIGTZGKCUYJAETWJELMDSKY99","optimalPurchaseTarget":-100,"optimalPurchaseTargetScore":-100,"availablePurchaseTargetList":[],"optimalSaleTarget":-100,"optimalSaleTargetScore":-100,"latitute":"51.970790","longitute":"-1.749859","amountDemanded":"3","pricePrefered":"15","distancePrefered":"11","energyTypePrefered":"0"},{"index":53,"seed":"PISUCXQCYFVTLB9UYIPEKHJHEQJYKDOKGBAVHCYWYCQYV9LPENYBOHRAFQGQPUIJNRDBYLDJFLXTGTRNP","address":"QSPCOTTFCZRKUXOFAUKKVFNYTZDYCEKHOUQDNSTSIBYORBSCSUXZL9ALIYUIVVEJSNWOURFFGEFGZRGN9","optimalPurchaseTarget":-100,"optimalPurchaseTargetScore":-100,"availablePurchaseTargetList":[],"optimalSaleTarget":-100,"optimalSaleTargetScore":-100,"latitute":"51.269297","longitute":"-1.593890","amountDemanded":"3","pricePrefered":"16","distancePrefered":"13","energyTypePrefered":"0"},{"index":54,"seed":"TDVKTTOBUJASNFDTAQMOISPNTIM9KSPUHHQ9SBIVLJSIXWYS9XTEUNSKWUHLEMMFORC9DWECVRRFWGE9C","address":"NJHN9K9ZDBAYWYEUBIHJBHFZSCPQORWRUHSTG9ZEFXZBQVSSYG99DMTBBTLQFCYFANFSXXMECHEZOZNUC","optimalPurchaseTarget":-100,"optimalPurchaseTargetScore":-100,"availablePurchaseTargetList":[],"optimalSaleTarget":-100,"optimalSaleTargetScore":-100,"latitute":"51.248296","longitute":"-0.493593","amountDemanded":"3","pricePrefered":"14","distancePrefered":"12","energyTypePrefered":"2"},{"index":55,"seed":"HKGGMOIAJITGSNXWMPNWVUVCPH9NJQSBEVGH9LKYIGINOYLYK9EG9MLJUYGGDRPPJMJMNNNRQIKCLYVGI","address":"JFHEYM9MZMKNGRLHVVLWNCQHXYCGZWHXKDPGODMUWLLCNEPSDGXNYETHAPJRYSKIEMBERGWBJPMYVUIFC","optimalPurchaseTarget":-100,"optimalPurchaseTargetScore":-100,"availablePurchaseTargetList":[],"optimalSaleTarget":-100,"optimalSaleTargetScore":-100,"latitute":"51.084875","longitute":"-0.300727","amountDemanded":"3","pricePrefered":"14","distancePrefered":"15","energyTypePrefered":"1"},{"index":56,"seed":"YFFIDG9P9XWGX9ENADSQVMPSLDBYUAOK9SXPTIRRUPUHCICANFLEFURVHXQPFPCNGYOY9QYWEOUGO9NUH","address":"GIVLTKXLMHYVZNNSIWDNHLTKC9JFZEEZ9SODWQBGXYCTLPXHCZKJTZHAEMTAAVMGBOYBLUCKNNPMJ9WB9","optimalPurchaseTarget":-100,"optimalPurchaseTargetScore":-100,"availablePurchaseTargetList":[],"optimalSaleTarget":-100,"optimalSaleTargetScore":-100,"latitute":"51.771079","longitute":"0.086488","amountDemanded":"4","pricePrefered":"14","distancePrefered":"14","energyTypePrefered":"3"},{"index":57,"seed":"DLXRQXYVPRBMSMPPHEMIPFWKWUCAHLOYTUNDQYMXJPYWTSSKJKQUHHUNIRCOUQUTCILGPKEMTJWKFGMBX","address":"WDJTLDYNCBDXCFNCN9CCYRLDVORXTILUZ9IKZOHGT9IFOVUZHUTT99DJVZNDJQRFSGM9FXIXKERBXYLTC","optimalPurchaseTarget":-100,"optimalPurchaseTargetScore":-100,"availablePurchaseTargetList":[],"optimalSaleTarget":-100,"optimalSaleTargetScore":-100,"latitute":"51.013794","longitute":"-0.914684","amountDemanded":"5","pricePrefered":"14","distancePrefered":"14","energyTypePrefered":"1"},{"index":58,"seed":"I9IRKYRCYAWJUPRRCSRDHGBXYRQHVEOWWMTUXAUYOEBPQUCFNHOFTFVFPDOWDNXDVWTKUBDUQIPAGIQPX","address":"VGZHMDZZOUGPWBJUJMOAUDRKUTHODJKALTKZRLZBANUOQBFCUXS9QZNQANFOXNOXSWIUEXJJYYWWMYKAW","optimalPurchaseTarget":-100,"optimalPurchaseTargetScore":-100,"availablePurchaseTargetList":[],"optimalSaleTarget":-100,"optimalSaleTargetScore":-100,"latitute":"52.120712","longitute":"-1.069280","amountDemanded":"2","pricePrefered":"15","distancePrefered":"12","energyTypePrefered":"2"},{"index":59,"seed":"WEMSXWXH9HK9FTHRFHGSIFACTBNLXECPPBADIMTFIIXDTTUHD9DUF9XSQJ9YBYFDXVKJSPHSEWLSMTPEH","address":"PNEZLGNYVSASLKTYLSARMKURITOEHAM9KQDCTG99TTJAJNGKVPIQCYOYJIBWPHRNRLGJJ9QI9VQJNVLOZ","optimalPurchaseTarget":-100,"optimalPurchaseTargetScore":-100,"availablePurchaseTargetList":[],"optimalSaleTarget":-100,"optimalSaleTargetScore":-100,"latitute":"51.793424","longitute":"-2.223054","amountDemanded":"5","pricePrefered":"14","distancePrefered":"11","energyTypePrefered":"3"},{"index":60,"seed":"LQJKKG9CWBUBRPDSQRGHQYQJTECRPMARGDBWWTIONLURWBDQTJBGS9XVLXLXDGBTTFAR9BDFNWGTHJTUR","address":"XOQIPDJCYECTWIFQU9LXGENZTLOYSGBDPRIPGLPHQPVVMCZKWEZBMDQIAACYRDEUNFXFFFQYCJMUZEBM9","optimalPurchaseTarget":-100,"optimalPurchaseTargetScore":-100,"availablePurchaseTargetList":[],"optimalSaleTarget":-100,"optimalSaleTargetScore":-100,"latitute":"51.050355","longitute":"0.205351","amountDemanded":"3","pricePrefered":"16","distancePrefered":"13","energyTypePrefered":"2"},{"index":61,"seed":"UWIWDRBYSVEXUNLYRIIXVPBVSV9DSWABCNHMNWEFVH9SSCTGSO9ELJS9TDHEVQLKWXQHRIDRMQQ9OPABK","address":"WRHTPKAJEHCFHNBMBKAFZJRHSYEGXNPBMXSFXJDEJHMIGJNURVZCFPUIL9IYGQZWT9XFEFHWBC9WWPFVY","optimalPurchaseTarget":-100,"optimalPurchaseTargetScore":-100,"availablePurchaseTargetList":[],"optimalSaleTarget":-100,"optimalSaleTargetScore":-100,"latitute":"51.201444","longitute":"-0.561168","amountDemanded":"2","pricePrefered":"15","distancePrefered":"11","energyTypePrefered":"1"},{"index":62,"seed":"NTCRPMAXRVOEBNWRWNACUSQDFN9PKPOGHJKEAGQDE9GNGLQR9HOMWGUACOPMWSQBRFRAQVRGMNGIDWKHB","address":"IHR9CQVOPPN9VAVVBDRHKOPEFXGRHVE9CIMFPWXTRPEDRKHPPMYGXNFZXHIPPJNNNOYJLR9QCYRWOQVPD","optimalPurchaseTarget":-100,"optimalPurchaseTargetScore":-100,"availablePurchaseTargetList":[],"optimalSaleTarget":-100,"optimalSaleTargetScore":-100,"latitute":"51.279007","longitute":"0.198443","amountDemanded":"1","pricePrefered":"15","distancePrefered":"13","energyTypePrefered":"1"},{"index":63,"seed":"REQDRUDNVNXQVAONYTNYPXORCLJDNU9DPWHEI9OYAPPYYAJMKDDLHPCPOHCDNOOSLPVEPKWCIBKHSMSGM","address":"IHRYHVYZIHDCQVWXX9MBLJRCZELAQRWHPKZJODS9KVMWZXPPINVVZESHGHLXBOXUILOITNYQWXUQTTWGC","optimalPurchaseTarget":-100,"optimalPurchaseTargetScore":-100,"availablePurchaseTargetList":[],"optimalSaleTarget":-100,"optimalSaleTargetScore":-100,"latitute":"52.239153","longitute":"-1.008491","amountDemanded":"1","pricePrefered":"15","distancePrefered":"13","energyTypePrefered":"2"},{"index":64,"seed":"HPEIGSXONPWAVCICMWS9TAFP9PCRFMAYQEDJCQPGPFQPMBMQFRTXBFMPQBRPFVYEDXDHKCGMEEMRWHATM","address":"TSGUKKYJFI9CKJVERMFKEZLZDJTPMYSGFJPLISBZTWLCBTEY9GJUIVPGZIKMNEWWIKSANCPLDIDBHGZKW","optimalPurchaseTarget":-100,"optimalPurchaseTargetScore":-100,"availablePurchaseTargetList":[],"optimalSaleTarget":-100,"optimalSaleTargetScore":-100,"latitute":"51.868264","longitute":"-0.703259","amountDemanded":"3","pricePrefered":"14","distancePrefered":"12","energyTypePrefered":"1"},{"index":65,"seed":"9QQTJRLVNXOGJXGDWMXHEHNROXNNDHAGRAIGROHYNNBWNUDBAQSDQETCBEAIEKAPLSXCHFCVNSYEMPBUM","address":"YROBOKNPKCYHIBRMFFWNEPJITNYEYJ9ZNXXELVJYUUUKPXMSWBVQXCMHMS9NROSFKRQACXQTYFWHGMRFW","optimalPurchaseTarget":-100,"optimalPurchaseTargetScore":-100,"availablePurchaseTargetList":[],"optimalSaleTarget":-100,"optimalSaleTargetScore":-100,"latitute":"51.076665","longitute":"-2.089118","amountDemanded":"5","pricePrefered":"14","distancePrefered":"13","energyTypePrefered":"1"},{"index":66,"seed":"NLR9HUICWSJQJYXYPKVTUJCYGTMKSVADVDKCYG9EGVTQHICYB9ROWEQLELNBPQUJUXELJLVHBQLIXAPT9","address":"XCEWQDZGVERNVYUGGBDSSDH9IGKQIBIAAIFZXJSDXYF9VQNAFSRGGZRQJDVASQCWNVGUGBMUACDNMEZPW","optimalPurchaseTarget":-100,"optimalPurchaseTargetScore":-100,"availablePurchaseTargetList":[],"optimalSaleTarget":-100,"optimalSaleTargetScore":-100,"latitute":"51.176427","longitute":"-2.306348","amountDemanded":"3","pricePrefered":"15","distancePrefered":"10","energyTypePrefered":"3"},{"index":67,"seed":"OBELORXONRSYTLWLRLCVE9KJNGGDCUIIKILPHOKRHFIKHRCL9APXOWMBHPBKXNTQFHEKXFCFPSUBLIPBM","address":"MIJHQGECYXTNBM9ZZNYHPQDBPLTPCXRQCQYYDEXBQVVGWBJTKELZRDWW9FJIOLN9BNTIBOUIAFOARUFYY","optimalPurchaseTarget":-100,"optimalPurchaseTargetScore":-100,"availablePurchaseTargetList":[],"optimalSaleTarget":-100,"optimalSaleTargetScore":-100,"latitute":"51.693915","longitute":"-2.076210","amountDemanded":"4","pricePrefered":"15","distancePrefered":"13","energyTypePrefered":"2"},{"index":68,"seed":"LDNPPXVHCOETULTVQFWABMYCS99XSQ9LTS9TQQ9LGBP9NWXPWGQVYJHEWM9OJ9CTGDJEYJIDBCTQTANKU","address":"YHHLIHTJZGYGHKBJSXDCDQQURWVXJOLZOQWJIIYCU9TADCJUENSFJXONKN9LTOTV9KUPBVIZDXWFGWDUX","optimalPurchaseTarget":-100,"optimalPurchaseTargetScore":-100,"availablePurchaseTargetList":[],"optimalSaleTarget":-100,"optimalSaleTargetScore":-100,"latitute":"51.618468","longitute":"0.220941","amountDemanded":"6","pricePrefered":"14","distancePrefered":"10","energyTypePrefered":"1"},{"index":69,"seed":"LYAHKQWBJBMAFLRTTWVRAGG9ONYGRKNGBRNISP9RBTWNVIFMEQ9JOKHLXJRNFTSUEYALPDTC9GYWEAQXG","address":"AFAXOOSVRXB9VXPJYTTBHMJEYBH9MOWFDJOEJESKNKJYKBFMZDIUDNOGFUWHPXIHUCJYEFEXKTOKDZZGX","optimalPurchaseTarget":-100,"optimalPurchaseTargetScore":-100,"availablePurchaseTargetList":[],"optimalSaleTarget":-100,"optimalSaleTargetScore":-100,"latitute":"51.705462","longitute":"-2.345889","amountDemanded":"3","pricePrefered":"16","distancePrefered":"11","energyTypePrefered":"2"},{"index":70,"seed":"PQIBUBGALWXYEQEYQQHUHVTHKNCAYSEBYGISQ9MSVOJ9BAWIXYVQAINMUIQMTEGM9JTGXTBWGTAQMUVQW","address":"SAEAGJTBMISRXQDBYUYUEOJMQZXLHPOXFQIXIHNQU9SXVLXQCYBXOTVVQLFWIWVA9VRGIDHSLMXNFQECX","optimalPurchaseTarget":-100,"optimalPurchaseTargetScore":-100,"availablePurchaseTargetList":[],"optimalSaleTarget":-100,"optimalSaleTargetScore":-100,"latitute":"51.333408","longitute":"-0.355565","amountDemanded":"3","pricePrefered":"15","distancePrefered":"15","energyTypePrefered":"2"},{"index":71,"seed":"IMEOURCXMTI9EPOI99NQX9RFFGNPVIXJRFXXKIXVVOPOISKTRBIOF9QQRYFEAFNP9CTXWQNODSNMIPKKO","address":"MYIPLBDK9HCSRLSJTNQGUBIXTQDIVPSQPUXQZYYF9ZLFL9EIZYVNODXSYJWKMZNNUDSPJGZLARHK9HNIA","optimalPurchaseTarget":-100,"optimalPurchaseTargetScore":-100,"availablePurchaseTargetList":[],"optimalSaleTarget":-100,"optimalSaleTargetScore":-100,"latitute":"51.270292","longitute":"-0.018244","amountDemanded":"5","pricePrefered":"15","distancePrefered":"12","energyTypePrefered":"1"},{"index":72,"seed":"RWSOFTNBONBRJMTPKWRQDEFEKGXLBUGJT9VMSJTYEWVEGGLKOEWSVMSVXWXBYKHNFTQMGFWOH9DUTUHBM","address":"JXVYGBUDFGVTIUZNQBRMLMCVQUSOHWCUBBQXXQRPX9QHAPGKZVUQHBUXRQCBZY9VOBIIJSZAFKXYXGTSD","optimalPurchaseTarget":-100,"optimalPurchaseTargetScore":-100,"availablePurchaseTargetList":[],"optimalSaleTarget":-100,"optimalSaleTargetScore":-100,"latitute":"51.169371","longitute":"-1.880150","amountDemanded":"3","pricePrefered":"15","distancePrefered":"11","energyTypePrefered":"2"},{"index":73,"seed":"FJOXIIAEGTDCMJVKWHIQSUFQAUMGKPATUID9HFNXRIUQBKVFJXISGVHIPEYLOEDXNADVMLVPHWTIPPKSG","address":"VUIKLI9CRERNHUKCYYYNEMW99FEU9RY9FQBVQOULJAS99SKCHJRQRGMHMAAKVHJXXO9PKYWZXYRZAEYRD","optimalPurchaseTarget":-100,"optimalPurchaseTargetScore":-100,"availablePurchaseTargetList":[],"optimalSaleTarget":-100,"optimalSaleTargetScore":-100,"latitute":"52.175812","longitute":"-0.022353","amountDemanded":"3","pricePrefered":"16","distancePrefered":"14","energyTypePrefered":"1"},{"index":74,"seed":"VODPMFPFHHLMHMLUHBYGNM9MCDVYSHPKXRESBS9UQKFAIXKTGUVQHGFPCCMARWCBCJILDAWDFXBVAWISI","address":"ML9UPTHRNTPOPSXLRGJRJJPUIPADUVDSAKQZVOTWOPTU9C9WQQUTBZGNYTICNEGXHNXCWKQBOVEQNRLQA","optimalPurchaseTarget":-100,"optimalPurchaseTargetScore":-100,"availablePurchaseTargetList":[],"optimalSaleTarget":-100,"optimalSaleTargetScore":-100,"latitute":"50.991258","longitute":"-1.283360","amountDemanded":"4","pricePrefered":"16","distancePrefered":"11","energyTypePrefered":"1"},{"index":75,"seed":"MIYNOPMTMCDRGF9MPAGKGTRTFW9SPGXSMMM9CTGNMJXKODCBKFNKLTUSDFHLJTHLA9LLF9C9BYQKXUBLG","address":"NUM9LIYNFHEJYJQFLRJBD9UDTIQNVWP9HIZQTRIGWEGWFAKDTGWQTBYSYBHLCGSSGPHBHYAVJBRHDLHCC","optimalPurchaseTarget":-100,"optimalPurchaseTargetScore":-100,"availablePurchaseTargetList":[],"optimalSaleTarget":-100,"optimalSaleTargetScore":-100,"latitute":"51.064591","longitute":"-1.559106","amountDemanded":"3","pricePrefered":"15","distancePrefered":"13","energyTypePrefered":"1"},{"index":76,"seed":"9ASNBDNMIRGDQYFCCYVUIKMOLDY9XLHMQGSYSVUYDLVUXGTQPSQXOHWFIWBKMAADKYTJNUPGGBIRBHWGY","address":"QJBUZCWCHAJMAYBXRLSSRCMFZJLXOSHK9RPN9OMRCPZUIHFZFTGRMQM9AKIMRCWGRTRRKXEZYRIUFLFOX","optimalPurchaseTarget":-100,"optimalPurchaseTargetScore":-100,"availablePurchaseTargetList":[],"optimalSaleTarget":-100,"optimalSaleTargetScore":-100,"latitute":"51.751100","longitute":"-1.469066","amountDemanded":"6","pricePrefered":"15","distancePrefered":"11","energyTypePrefered":"2"},{"index":77,"seed":"NQASRVPCCFCLEKWARAKDQW9J9AOOWIRHCNAGNFNAQPNLREVMMKB9FDWWUFDTHMVCUAFCPJRFNSIWJNVCL","address":"DFS9QZQNSSOQTZGUJPJPPWZUUYHCJPUTPNUWFN9SIXBASLNGXWOBQUUGKFQCSMJDSOCTEHQEWWCGWGXJD","optimalPurchaseTarget":-100,"optimalPurchaseTargetScore":-100,"availablePurchaseTargetList":[],"optimalSaleTarget":-100,"optimalSaleTargetScore":-100,"latitute":"51.700433","longitute":"-2.270098","amountDemanded":"3","pricePrefered":"14","distancePrefered":"12","energyTypePrefered":"4"},{"index":78,"seed":"UWUEHRGBY9BX9OLHMHJOXFGNMALYHMWUVYGRIOVYEURPNKPIYLLDMHSGKEQGMTICTDWYVAERB9JQN9QFT","address":"KK9PWIHPWQN9LEHTGNVWADOESLUUZRZGKITHFKIFAYXLGTIKSM9EWPYPCYMRD9HKIEB9BEBAGXYOUHNAW","optimalPurchaseTarget":-100,"optimalPurchaseTargetScore":-100,"availablePurchaseTargetList":[],"optimalSaleTarget":-100,"optimalSaleTargetScore":-100,"latitute":"51.010136","longitute":"-0.475491","amountDemanded":"3","pricePrefered":"15","distancePrefered":"11","energyTypePrefered":"0"},{"index":79,"seed":"FQCJPFTLLLL9IQFMDYYBGONJCVEKXICYXAOAVIIRVQDKPXAGJUMFCMSPYMXOSLUYKKT9S9OGCBIQJGAYU","address":"ZRRLHHZLFKHPDNTWKSUGSQAPJJAUPPXXQMV9LVO9VFRMZBRDUDXVHBEKVLGJIJJSCMGLPDDFMEDHXEEC9","optimalPurchaseTarget":-100,"optimalPurchaseTargetScore":-100,"availablePurchaseTargetList":[],"optimalSaleTarget":-100,"optimalSaleTargetScore":-100,"latitute":"52.253441","longitute":"-1.398748","amountDemanded":"3","pricePrefered":"14","distancePrefered":"12","energyTypePrefered":"3"},{"index":80,"seed":"HSWXUFCOIMUPITHSCDS9XYCTKMSLWTTTUNEPVARTUNJKWEPGTFJYDCFPFOIUJWQAICJQTJQFRQXBKAYDB","address":"9LOTLXJKLCQQTF9CGNIAWWSCFIU9QFGVVYZOCTQLWZKJVDOL9A9QCPDGGXZWW9JIGNUNWQUEDLPGICBXZ","optimalPurchaseTarget":-100,"optimalPurchaseTargetScore":-100,"availablePurchaseTargetList":[],"optimalSaleTarget":-100,"optimalSaleTargetScore":-100,"latitute":"51.170618","longitute":"-0.024712","amountDemanded":"3","pricePrefered":"15","distancePrefered":"12","energyTypePrefered":"4"},{"index":81,"seed":"WFKAWLSDEVEBDNYIWKQCC99FYFCQFCGKUJKXYMOMWONAHJNKGLLWJDVYANEBFMLPSQVRNDNQOR9SPIBIG","address":"UAKWXYQGUSP9EDOUGMHMNXBLZRQYLPWJHHBBIKQWBY9QKXNRQWIEWJOLNLLIJDABOYMCLWNHFOV9PAGKW","optimalPurchaseTarget":-100,"optimalPurchaseTargetScore":-100,"availablePurchaseTargetList":[],"optimalSaleTarget":-100,"optimalSaleTargetScore":-100,"latitute":"51.057639","longitute":"-1.858609","amountDemanded":"1","pricePrefered":"15","distancePrefered":"12","energyTypePrefered":"2"},{"index":82,"seed":"VBFTGWGTLRHUSEO99JESMUHUVFFLVCV9JJPSNPMECBKC9FE9INOMAHSROFAT99MQUJTONHYBBJWDNWHDC","address":"AGNWNTAUESSRVETPZFSERTAUDQAQHYCLRJTE9ONFUXVPACTGBIBMDEJKBJIIXCZXKZYLRPJQHDDHYK9GD","optimalPurchaseTarget":-100,"optimalPurchaseTargetScore":-100,"availablePurchaseTargetList":[],"optimalSaleTarget":-100,"optimalSaleTargetScore":-100,"latitute":"51.393987","longitute":"-0.515075","amountDemanded":"2","pricePrefered":"16","distancePrefered":"11","energyTypePrefered":"2"},{"index":83,"seed":"9ICQVBVHFCXYCYMOQPB9YCDPSUYMEESTQHUPPNGNTUMNXNMDQFKLOBHWCKSCRCASWGVT99FBFURTFJSPH","address":"FFZNYIZLI9NK9ZLAZWLWMTEULZHXSVUXGFO9MOXSYBPZLIV9NKDTXPXYLTGEYXZSJAPRMUAIYG9ORDCHC","optimalPurchaseTarget":-100,"optimalPurchaseTargetScore":-100,"availablePurchaseTargetList":[],"optimalSaleTarget":-100,"optimalSaleTargetScore":-100,"latitute":"51.586556","longitute":"-0.772895","amountDemanded":"5","pricePrefered":"15","distancePrefered":"11","energyTypePrefered":"4"},{"index":84,"seed":"TYDRHEWHROINJTTTKRIXXFTHKOPJLWRSIC9L9PA9YNCHXOOSBMPRBLKHHLVIQCNJFOUIYSALKVNIORTIH","address":"RJT9UWQRHXSQGPWBZXSAMJYELYSC9KFPSNJMMDJBIJLVXA9LMCOQEMMTIXZQWGOIJ9SAOXQM9ZDS9QOVX","optimalPurchaseTarget":-100,"optimalPurchaseTargetScore":-100,"availablePurchaseTargetList":[],"optimalSaleTarget":-100,"optimalSaleTargetScore":-100,"latitute":"50.991756","longitute":"-0.991026","amountDemanded":"6","pricePrefered":"16","distancePrefered":"13","energyTypePrefered":"3"},{"index":85,"seed":"FUQITUQXX9DYPTWWRUTDMNKIESVPREWXUNKEUCBDXJYQSFKELJGMDIEUJTFGPYLPNTEEPEHEUCTHJEEOE","address":"ZVW9NPOSCDQZUOPXNUYYBNKBPFXKZPJWQQHKIEAOEUYJQZHRMVHRDQCLOGPFW9G9XRLYSXLHCTDHZYPE9","optimalPurchaseTarget":-100,"optimalPurchaseTargetScore":-100,"availablePurchaseTargetList":[],"optimalSaleTarget":-100,"optimalSaleTargetScore":-100,"latitute":"51.443795","longitute":"-2.357120","amountDemanded":"6","pricePrefered":"15","distancePrefered":"14","energyTypePrefered":"0"},{"index":86,"seed":"IAJRIQQHBHNHPY9PLNPBAUDFJRXWGGJVEGNQRHIMKMDNW9UTIYYOBKHGPGBICIELPNPKJBYNVRQNBVRJH","address":"KG9UAKUGYMMBVRDVDCXVJEHPTQJ9KLJKOGVPQKZRPWQLAZERKBDWVDNTQIJAZAPYMLSPVMWUGLBMKGMIW","optimalPurchaseTarget":-100,"optimalPurchaseTargetScore":-100,"availablePurchaseTargetList":[],"optimalSaleTarget":-100,"optimalSaleTargetScore":-100,"latitute":"50.973274","longitute":"-0.227155","amountDemanded":"3","pricePrefered":"16","distancePrefered":"11","energyTypePrefered":"1"},{"index":87,"seed":"CRRTBDDVBXIMEUKSSUSTPONJONOFPEAFEWORUPHNGODUJXHSNJFGLWDGJDRDKMQNRIUNWDCTIBKTC9QGT","address":"XQQQIQYGCLGWMMAIFUGUYVUIM9IKAKJQPFOLNSNJSXAACKSHUZFLO9VXPPLZQRPQVIRNPLKPNHGIDLLVW","optimalPurchaseTarget":-100,"optimalPurchaseTargetScore":-100,"availablePurchaseTargetList":[],"optimalSaleTarget":-100,"optimalSaleTargetScore":-100,"latitute":"51.124646","longitute":"-2.335167","amountDemanded":"6","pricePrefered":"16","distancePrefered":"14","energyTypePrefered":"2"},{"index":88,"seed":"IKAPB9ALM9GFPALPTVBHUBFLNOKYCQFG9XPOIYXJSJJDYENNKXSQXRVAQMMPXAIBUWQTAEETOVGJR9YQW","address":"U9XPCEFLERGVFMRLY99TEJAOOIYUBKDHJEQQKDNEUJEBCNWTOXVCOWENHCMA9PYFWJNRLCSRKHZOCGCJC","optimalPurchaseTarget":-100,"optimalPurchaseTargetScore":-100,"availablePurchaseTargetList":[],"optimalSaleTarget":-100,"optimalSaleTargetScore":-100,"latitute":"51.212581","longitute":"0.291372","amountDemanded":"1","pricePrefered":"16","distancePrefered":"12","energyTypePrefered":"2"},{"index":89,"seed":"HURGKCYEWJJFU9VXFGIRGPTHSWVDWUERMUYCG9YVVXLIWRNRLCLAYJV9IIOHQIWLUKRV9GAOCHBKFMTYF","address":"YHU9BVWLQLZGFATSFKPQYVCTYSOLLBAP9JSTAXGVJVIINQ9JHXPUXQOIG9FMPAPOBJSRKCWUUPHNAQCGY","optimalPurchaseTarget":-100,"optimalPurchaseTargetScore":-100,"availablePurchaseTargetList":[],"optimalSaleTarget":-100,"optimalSaleTargetScore":-100,"latitute":"52.338842","longitute":"-2.385496","amountDemanded":"3","pricePrefered":"14","distancePrefered":"15","energyTypePrefered":"1"},{"index":90,"seed":"UOWNJCLHNSYMTSMIEWKMMDRYPWMTGCOGWJTMFYISGQLJEHOOTDTYKYWWLB9QR9RTVFUDUMHCOP9WXJDIV","address":"MZAOZIBAIULNLOXNYZNNFYTNLUHFFVHVSOAKVMHYRRORUXXPVSZUGNZXGOBVZSSYNXYCLCQBDDOZOHLCX","optimalPurchaseTarget":-100,"optimalPurchaseTargetScore":-100,"availablePurchaseTargetList":[],"optimalSaleTarget":-100,"optimalSaleTargetScore":-100,"latitute":"52.112803","longitute":"-1.951841","amountDemanded":"3","pricePrefered":"15","distancePrefered":"14","energyTypePrefered":"4"},{"index":91,"seed":"RMHKNEJWHFBGNPJWXKHQSLOJTAORJEBFPDIXLRDOY9SOLFPF9QVGCCXBUVFVPPWSDTJXLEGVPNKVIKXAS","address":"JTTZBDUUOEXZRWSCROXCBXWALFPEPDBPBAFBXILJYUIAIMVQTOQFGIIHXIVTSFOLUNB9EAJOSCNTASSWZ","optimalPurchaseTarget":-100,"optimalPurchaseTargetScore":-100,"availablePurchaseTargetList":[],"optimalSaleTarget":-100,"optimalSaleTargetScore":-100,"latitute":"51.601559","longitute":"-1.109376","amountDemanded":"4","pricePrefered":"15","distancePrefered":"11","energyTypePrefered":"3"},{"index":92,"seed":"WFERESCHUWVTNMKNPBSQRFICCUECF9JTNWJICQBGMXJQCUTQMYRNDIDFXTUBSTIPNHHNBOEMTYECEVVWQ","address":"JQC9HPWGWQCJBNRRAVKSR9UBDNKLQCUDZ9WRJGDEREZFWEKWMCODQZTKMLROQERLQLRRSRC9EGCZTWGFB","optimalPurchaseTarget":-100,"optimalPurchaseTargetScore":-100,"availablePurchaseTargetList":[],"optimalSaleTarget":-100,"optimalSaleTargetScore":-100,"latitute":"51.481841","longitute":"-1.409522","amountDemanded":"5","pricePrefered":"15","distancePrefered":"13","energyTypePrefered":"1"},{"index":93,"seed":"UPFBOJADAG9X9OTBGTWHNTQIJTSEBXFGYVRCCCRYYCIYJLBTPUBCUFSANDUIVX9MXXICIGKCNXSRPNW9J","address":"YBNBPCWADFFASHOGZKQCSGRHOT9RBGYRJYBS9SWNJCJYYROK99SJBSCQBWWAAAVSFCUBWQBTNMILUBAWZ","optimalPurchaseTarget":-100,"optimalPurchaseTargetScore":-100,"availablePurchaseTargetList":[],"optimalSaleTarget":-100,"optimalSaleTargetScore":-100,"latitute":"51.118917","longitute":"-1.171196","amountDemanded":"1","pricePrefered":"14","distancePrefered":"11","energyTypePrefered":"1"},{"index":94,"seed":"VWGVJPWHUXIKFUVLHBDPJBBRVYPOJDJR9TSAJGWWADIERWSWHYSAXGWCQ9DCURRWQPQOIRJXQT9VKRFIY","address":"CWDZKFHFVCTFBRSVVBKATYOLMBJERXQUDVCKMUPYFQSEVZL9UELAICIYQJW99HWPSPVPWMCLRCZVKXNDC","optimalPurchaseTarget":-100,"optimalPurchaseTargetScore":-100,"availablePurchaseTargetList":[],"optimalSaleTarget":-100,"optimalSaleTargetScore":-100,"latitute":"51.100676","longitute":"0.285328","amountDemanded":"3","pricePrefered":"15","distancePrefered":"14","energyTypePrefered":"1"},{"index":95,"seed":"KVMNY9CXKDYLNKLGIWQFKALJNTGDKMVDKYVCPVDBNPNSLIFHBCJRUECRTWWPFEA99KRWLPDUFLTHK9C9Y","address":"VWKKLRQYRHH9ULJQLFZIRSRICFNYWWANXAX9QPRZSIDZSODI9YYMCUDIFG9YPKCNHIM9KYLWYCLBRIUCD","optimalPurchaseTarget":-100,"optimalPurchaseTargetScore":-100,"availablePurchaseTargetList":[],"optimalSaleTarget":-100,"optimalSaleTargetScore":-100,"latitute":"51.084877","longitute":"-0.682377","amountDemanded":"3","pricePrefered":"16","distancePrefered":"10","energyTypePrefered":"2"},{"index":96,"seed":"YDEFLFPAJORXRLMMCSNJLEQG9STGRQSUNCLCXECILMCLLKNWURXEGDMYJSNTWROCEIXYDQRADPYJ9BDPH","address":"MOUMHCUJEMCLUZLFUKWJX9DRAGNKYZYYDNBZUV99XWTSVWYHLLD9QOCVKAOHUBASHR9XAXPSMIDWBRBOD","optimalPurchaseTarget":-100,"optimalPurchaseTargetScore":-100,"availablePurchaseTargetList":[],"optimalSaleTarget":-100,"optimalSaleTargetScore":-100,"latitute":"51.065288","longitute":"-1.293543","amountDemanded":"6","pricePrefered":"15","distancePrefered":"14","energyTypePrefered":"1"},{"index":97,"seed":"LJVNKJPOPDKLFKTDOYFV9OXQLDGAJKMEPLJGHUTUGYKDHFQPBXTHWJCLSCDDLTNOQIAVUJTITFEF9GOYY","address":"TGOJATFKWMXSQSPGN9Q9GBDSUGCXYJUPNZYVMMPJZPVCQ9YBZICZFFNOUILH9LXZVPRGZSBJCCCHFFCCD","optimalPurchaseTarget":-100,"optimalPurchaseTargetScore":-100,"availablePurchaseTargetList":[],"optimalSaleTarget":-100,"optimalSaleTargetScore":-100,"latitute":"51.021303","longitute":"-1.164877","amountDemanded":"4","pricePrefered":"15","distancePrefered":"10","energyTypePrefered":"1"},{"index":98,"seed":"FOFEFCCIBCQJQYYRODSTMTHTIYICRNEISQDDGTEDTLTNY9KNTHG9ELHXIPWHPKVWQSVIASJVYBTACHSKN","address":"EHWVJOWHXXVBHFBUYACCAEEQGNMFUKTXDEXFGRPBKJDOUGFDSR9FC9ORU9KEBLBDIFXM9TEBCRGDKLMAB","optimalPurchaseTarget":-100,"optimalPurchaseTargetScore":-100,"availablePurchaseTargetList":[],"optimalSaleTarget":-100,"optimalSaleTargetScore":-100,"latitute":"51.568812","longitute":"-0.057476","amountDemanded":"3","pricePrefered":"14","distancePrefered":"12","energyTypePrefered":"1"},{"index":99,"seed":"EVTKJOOTX9YJUTGUDGKURIIAEMBWOTECRRHVEOMVJUUVBWUAMJW9NHHRVXPYK9AQCCDYFSDQOGRKWSIHB","address":"ECRAQDCANLONXKTB9TBRGCQRLUQCITUOBVPRRHPXFPINENPNHQUSCTLYONHBTLQGJZLQTAUKMWQZRXQB9","optimalPurchaseTarget":-100,"optimalPurchaseTargetScore":-100,"availablePurchaseTargetList":[],"optimalSaleTarget":-100,"optimalSaleTargetScore":-100,"latitute":"51.021079","longitute":"-1.120729","amountDemanded":"2","pricePrefered":"15","distancePrefered":"14","energyTypePrefered":"3"},{"index":100,"seed":"TYFHKLUKEODDTNTXJJJBUQUNIGNVUPVFEXIODDQMMXFJDLVQSASVTCBXBMWERWOGXUSQVMMJNWOCWCJAU","address":"ENYRZXOFYOQO9GEJJHOAPFPBZUKBRUVLMAPGWZUQZXETIMRHBTRKTNCHONSFFNNOOAPKFSZXYSWNAWNRX","optimalPurchaseTarget":-100,"optimalPurchaseTargetScore":-100,"availablePurchaseTargetList":[],"optimalSaleTarget":-100,"optimalSaleTargetScore":-100,"latitute":"51.344959","longitute":"-2.317406","amountDemanded":"3","pricePrefered":"14","distancePrefered":"10","energyTypePrefered":"3"},{"index":101,"seed":"JCQAYIUANMSBOWPVFEMKFLACCXDMQKBQSPOUIGUHFWRIMRFMKDPNYXYQVWSYVSPRRHFHSKRGFKSOTXAHB","address":"AUKECQVL9KBKYFIYBINWYGTTWAGRZV9QBTBCPIETARIJHRMGGIPYLMFLTUGPZYPKKTEURTYEPAXHOVWWA","optimalPurchaseTarget":-100,"optimalPurchaseTargetScore":-100,"availablePurchaseTargetList":[],"optimalSaleTarget":-100,"optimalSaleTargetScore":-100,"latitute":"52.162936","longitute":"-1.835169","amountDemanded":"1","pricePrefered":"16","distancePrefered":"14","energyTypePrefered":"4"},{"index":102,"seed":"FWSHDRMYNMRMKJXGGKNFLVRCMENFGNAAWGMRGTNAIDIJOGKPUAUGGD9KSLJDPORWUNMPGOHDUNWO9STXK","address":"SCQREUITFVLXCYLKXW9B9LKPIRPAASQQYDVHOTULXTBOZEXVZBXRJCDSAVGLAITSBFPZVN9YLDYQYIGSA","optimalPurchaseTarget":-100,"optimalPurchaseTargetScore":-100,"availablePurchaseTargetList":[],"optimalSaleTarget":-100,"optimalSaleTargetScore":-100,"latitute":"52.358294","longitute":"-0.413054","amountDemanded":"3","pricePrefered":"15","distancePrefered":"11","energyTypePrefered":"4"},{"index":103,"seed":"BWHUXNVRLHDSTIYSFEY9DWPLAYEMUGKGEPLYCWVBIJMXITEBOPXPCUODRWH9IDXKOMAQRKITIAPXNYYRB","address":"AJGN9YHMAI9SMLWMMEMSBFGHRFZEQAVEFDEPEIPEVDTWQBWPZO9IWCSLRVKEJXJAUIYVJQBZKNQGVJQHZ","optimalPurchaseTarget":-100,"optimalPurchaseTargetScore":-100,"availablePurchaseTargetList":[],"optimalSaleTarget":-100,"optimalSaleTargetScore":-100,"latitute":"52.300334","longitute":"-2.163918","amountDemanded":"4","pricePrefered":"16","distancePrefered":"13","energyTypePrefered":"3"},{"index":104,"seed":"BDSOKSU9YFX9WSTRV9JPOVWBVFJWTFAQFGIIFPMA9MLOGDOCCAIBHCQYICNUSSVAFOXLIUJDLQXGJJQMP","address":"VLRQRNULCHNKGAKIKCYKCKBLDFARA9PKUWAUNUAEWTWQGCFKBWFSKIURQPSHEZFZJSOMAFTLTFEVRWSLC","optimalPurchaseTarget":-100,"optimalPurchaseTargetScore":-100,"availablePurchaseTargetList":[],"optimalSaleTarget":-100,"optimalSaleTargetScore":-100,"latitute":"52.167764","longitute":"-0.883538","amountDemanded":"6","pricePrefered":"15","distancePrefered":"14","energyTypePrefered":"1"},{"index":105,"seed":"JFQISUJHWOVTEPPVWMOCGQSPFUKUMKGLBGIIGHMR9GHRNPQSMYT9TEESEJ9RYMLHIWERYIHBSNBYVTGTC","address":"DZGNXIDDM9IRTIRKUBPQBHAWRGESA9EARSSPBIDCVWK9EGD9QFWMWENCLZVKWWR9BCDQIZVIEDFWZO9TY","optimalPurchaseTarget":-100,"optimalPurchaseTargetScore":-100,"availablePurchaseTargetList":[],"optimalSaleTarget":-100,"optimalSaleTargetScore":-100,"latitute":"50.986854","longitute":"-0.626015","amountDemanded":"3","pricePrefered":"15","distancePrefered":"11","energyTypePrefered":"2"},{"index":106,"seed":"VAXOASLRPIXSBKTJIWJHQBCFIYSNWOYRMB9JNIQWFELYKFRSSSBLRJ9TPKW9HKIR9CVEJVQABQGBVYNEN","address":"PXFV9YWSBJOHUQPG9MBEOU9AECLAASZBVWPZFUVXGX9MHHUFUQCWVMNYVNJVTRALNF9DM9ARXJZJHUVDA","optimalPurchaseTarget":-100,"optimalPurchaseTargetScore":-100,"availablePurchaseTargetList":[],"optimalSaleTarget":-100,"optimalSaleTargetScore":-100,"latitute":"52.291787","longitute":"-1.545707","amountDemanded":"5","pricePrefered":"14","distancePrefered":"10","energyTypePrefered":"1"},{"index":107,"seed":"9HVPVPFNUAVRPOVSYFWBJMEEPBEDOJIHNRBGETWGBXSVDBWOUNBDOHERLHBQVAJFSPVBHA9BDJHBRXERH","address":"KICLWR9PBYZFQ9DIOGZDPJ9FS9BGYPIBYASFMNZACAOBDEBUI9HIFUEKVETBLKRTHAHV9NEDVIFNUVPIX","optimalPurchaseTarget":-100,"optimalPurchaseTargetScore":-100,"availablePurchaseTargetList":[],"optimalSaleTarget":-100,"optimalSaleTargetScore":-100,"latitute":"52.323404","longitute":"-1.937354","amountDemanded":"4","pricePrefered":"15","distancePrefered":"15","energyTypePrefered":"1"},{"index":108,"seed":"ITVNOCANXFXTMW9WUODINJKRUYI9RWH9PCLHYUATSYSFSYOILIFGUGEECNMPUWRGDRBBJKLHMXWSFGBFF","address":"YDBKYWJLFUWYDCKRPTXAWRTQVBRTXOHSFETLRZKLUKYHHZ9EFYSGJRSSEGWVOHDDYDMRAQEJP9DIMCSRD","optimalPurchaseTarget":-100,"optimalPurchaseTargetScore":-100,"availablePurchaseTargetList":[],"optimalSaleTarget":-100,"optimalSaleTargetScore":-100,"latitute":"51.948868","longitute":"-1.972806","amountDemanded":"2","pricePrefered":"14","distancePrefered":"14","energyTypePrefered":"1"},{"index":109,"seed":"UGSBKGWDOLFJHWKNTFHGHRGPKKBYDDYRGQL9LRACDBKPUJHL9VXXYFDG9EUJXYNWWPSBMHHWXLMDWILYK","address":"AJFSAENLJKDKHKVEYNOIPWUICQ9DBHEKTAHBUOPPKHSKIVUWZFRNZPPTRYUT9W9MJMBEGHCMSDJDMDFQY","optimalPurchaseTarget":-100,"optimalPurchaseTargetScore":-100,"availablePurchaseTargetList":[],"optimalSaleTarget":-100,"optimalSaleTargetScore":-100,"latitute":"52.102919","longitute":"-0.196081","amountDemanded":"4","pricePrefered":"15","distancePrefered":"15","energyTypePrefered":"3"},{"index":110,"seed":"IJUUYSJRJFTUHFM9KOJFWFLFSDHXELVEFTPNQDNFWEONWVDTQBEOEBOJCEMXN9TQOPQNPIUXADNLLJNSG","address":"GXMTGBXQCSVRRS9QWIGWVXJVCEASGVXACEG9AECFSPATBTKUSKIPOIVRTYTL9UVZBTAKLN9AWGYQ9EH9A","optimalPurchaseTarget":-100,"optimalPurchaseTargetScore":-100,"availablePurchaseTargetList":[],"optimalSaleTarget":-100,"optimalSaleTargetScore":-100,"latitute":"51.754403","longitute":"-1.485865","amountDemanded":"2","pricePrefered":"14","distancePrefered":"14","energyTypePrefered":"3"},{"index":111,"seed":"MAYKCACKFPCIBSWQHYOYLEHNYTNUBQSJMNHMNIRNUWOYTRVQHTOGPNJRABLUAYKFTLKNMMVTAHJ9XWXTJ","address":"BUJLRFPSET9QPHSPSRFSZZEP9FJBQJNVUSWJTLDWNXSHOBCACXMHZUBXEFZLZTAAWYAQY9ZFNNIOYI9JW","optimalPurchaseTarget":-100,"optimalPurchaseTargetScore":-100,"availablePurchaseTargetList":[],"optimalSaleTarget":-100,"optimalSaleTargetScore":-100,"latitute":"51.589157","longitute":"-0.303882","amountDemanded":"4","pricePrefered":"14","distancePrefered":"14","energyTypePrefered":"1"},{"index":112,"seed":"YXQRXVMRVVHFCDIULVCVAUMMGOYLWKYVEBKVURKRCBVYAFPTJQJXVGEKKGHRTYXPEMMT9X9CQCEQQVTLA","address":"PMVIBKEZD9WPRGKUZJAYHCQO9UKSMN9RJPBG9XUMSJKRMCLYVGPUNNRZQLTNPFKZJ9TPFAAWGYBUFRYAD","optimalPurchaseTarget":-100,"optimalPurchaseTargetScore":-100,"availablePurchaseTargetList":[],"optimalSaleTarget":-100,"optimalSaleTargetScore":-100,"latitute":"51.239309","longitute":"0.190211","amountDemanded":"2","pricePrefered":"16","distancePrefered":"15","energyTypePrefered":"2"},{"index":113,"seed":"YSUHWBQ9EGJWKWQDJ9OWHQMJOSTCNS9ABGCYULGJQTTSNV9JIXXUYBDVRQLMW9K9FJOGUCAIMCIRRJSLW","address":"XLMHXJJHFWDEKITAHMRJPMF9PGTDVUZKRWKGXIMQGPORCY9PYM9CH9WUKVNOFCNQRDNUYXITKNXEPTGUD","optimalPurchaseTarget":-100,"optimalPurchaseTargetScore":-100,"availablePurchaseTargetList":[],"optimalSaleTarget":-100,"optimalSaleTargetScore":-100,"latitute":"51.097745","longitute":"-0.752304","amountDemanded":"2","pricePrefered":"16","distancePrefered":"14","energyTypePrefered":"0"},{"index":114,"seed":"HJUJQFB9HLHHPXYASUEKGLHOIHXWLRVAYDNPLQTWCINRJGYPQRFRJBNRXURUEMLJJMOWVFPVOT9BNPVWS","address":"NLIPBJRDFXMYOPBLLEHMVHQXXCFENNNYCZZDLINYNAWBQJOIKIHLNDAQLTLPCLFRLGKPTJRUIBYJPPLUY","optimalPurchaseTarget":-100,"optimalPurchaseTargetScore":-100,"availablePurchaseTargetList":[],"optimalSaleTarget":-100,"optimalSaleTargetScore":-100,"latitute":"51.090455","longitute":"-0.028854","amountDemanded":"6","pricePrefered":"16","distancePrefered":"12","energyTypePrefered":"3"},{"index":115,"seed":"HXBAADLGESXFWIFKVMDRE9FASUCAVOOKOWPYAPLWIRTUNADLYTFKA9HSKQVNFANEAU9VSOFWLVBHJTYOO","address":"FDXH99MYWZOYVJPMVWFDIMNE9VZM9HJNNTUHQ9YOGPCIJCUSERBCDP9DAZUJAGZSLHLUEIUFKCJASHABC","optimalPurchaseTarget":-100,"optimalPurchaseTargetScore":-100,"availablePurchaseTargetList":[],"optimalSaleTarget":-100,"optimalSaleTargetScore":-100,"latitute":"51.503325","longitute":"-1.060853","amountDemanded":"5","pricePrefered":"16","distancePrefered":"12","energyTypePrefered":"3"},{"index":116,"seed":"ABCFIGWJAKSKBCUVULOXWRWIEUMLWAMT9FCYJIPVCRXPQLVDOYKQJMXNDCXJFGU9A9JMROEDKWNRTUOVK","address":"NUAFWUZAULODUM9JJMILYNMGGJLWPN9OMSZVXKZCMLL9DEOOEDDZDKRPTUBHTVUICKZLKEOPZXLSCKSFW","optimalPurchaseTarget":-100,"optimalPurchaseTargetScore":-100,"availablePurchaseTargetList":[],"optimalSaleTarget":-100,"optimalSaleTargetScore":-100,"latitute":"52.013166","longitute":"-1.296724","amountDemanded":"4","pricePrefered":"16","distancePrefered":"11","energyTypePrefered":"0"},{"index":117,"seed":"XATQIRIKMJOVVDONWSSURFHL9NBYGQNXPIPJQF9OXJYFOAFECNLMTGCMNXCTULHWBLNWAKEDVXELWGPEL","address":"BHW9BVKJCUBPNXSNCIVBEFIFJWMWYZOYEYMXZZFUVZUVSVSXYOCRRDEJORBWJGSUFRLOQZFUJKVGNXR9B","optimalPurchaseTarget":-100,"optimalPurchaseTargetScore":-100,"availablePurchaseTargetList":[],"optimalSaleTarget":-100,"optimalSaleTargetScore":-100,"latitute":"51.429066","longitute":"-1.341042","amountDemanded":"2","pricePrefered":"15","distancePrefered":"13","energyTypePrefered":"0"},{"index":118,"seed":"ATWIVCRLNAMBCHTDMTQBVROAIIRWLMRQEFXOBSDCQ99IYGSDRSELRVJ9AQKHQKYONECSIKOQOBNWVONIT","address":"ITHGJEWKZKSJHYYRXIBOOB9CEFLBDW9RRSAWGKXNDVGLPLVWGSDYLBQMIATCOFAGSWYTPM9YNQLWZZHYX","optimalPurchaseTarget":-100,"optimalPurchaseTargetScore":-100,"availablePurchaseTargetList":[],"optimalSaleTarget":-100,"optimalSaleTargetScore":-100,"latitute":"51.853965","longitute":"-0.064455","amountDemanded":"2","pricePrefered":"15","distancePrefered":"13","energyTypePrefered":"2"},{"index":119,"seed":"RGHMPTGDU9BQAWCMDYE9BUMQYYYEJCENKUSHVDM9WBOEVSHMNSWSYAXOWMNWB9YQALY9PYTEDOXHRQTEF","address":"YETQQQFYCDWOJHNSFVKUGOOJCAKTUNOMRDJSKXWUXZ9VAHQUYUMSSMIVHZRHHAPVCOAQZSQSKHRCU9VMX","optimalPurchaseTarget":-100,"optimalPurchaseTargetScore":-100,"availablePurchaseTargetList":[],"optimalSaleTarget":-100,"optimalSaleTargetScore":-100,"latitute":"51.165216","longitute":"-1.761833","amountDemanded":"3","pricePrefered":"14","distancePrefered":"15","energyTypePrefered":"2"},{"index":120,"seed":"IRFRHJDBGPYSHWLWLOSXNPGR9FQAQRHVOY9OEYDPCCFWYSWYBDBMROQHJCOVOACBVFKFQPCONBNBD9TIO","address":"ZHIFDORKQS9F9ORRKWVUCVMOCURGINMTMMWLHTZMYOECBUYQNQ9CGLGVZGVGA9JFKJGYNLVXVZRSZKGFW","optimalPurchaseTarget":-100,"optimalPurchaseTargetScore":-100,"availablePurchaseTargetList":[],"optimalSaleTarget":-100,"optimalSaleTargetScore":-100,"latitute":"52.391291","longitute":"-2.295993","amountDemanded":"6","pricePrefered":"15","distancePrefered":"13","energyTypePrefered":"1"},{"index":121,"seed":"KXWPUUAVNSWYEWWSFRTOFKXYSCEVDAWPPAPJBDPWHDDQEUSNQDBMGDNTETWSLVGP9MIUUCYFYHBMLIUCL","address":"HQJWBORIBYZYGQECZAMKJUAVESWGAAMBJGPWLPPOAQGLEDDOK9JULOAOPPWUNWTWLGNADPNOQOTQPUTFD","optimalPurchaseTarget":-100,"optimalPurchaseTargetScore":-100,"availablePurchaseTargetList":[],"optimalSaleTarget":-100,"optimalSaleTargetScore":-100,"latitute":"51.052230","longitute":"-1.085613","amountDemanded":"3","pricePrefered":"15","distancePrefered":"10","energyTypePrefered":"2"},{"index":122,"seed":"XKJQPNHGJALJOIRGQBEFOC9XURONCCRTBLUKQSTMU9APBFFP9QJNILRY9X9GOGPSBMVDFCKXYYPPPQQXI","address":"IECNWQQOSYSODZKNQYNUWSDRCGN9DOGUC9PLKQFBMCLCKZHKZQUKJAWPMTAVEOOFSUNSGDJJLQKRRFGCA","optimalPurchaseTarget":-100,"optimalPurchaseTargetScore":-100,"availablePurchaseTargetList":[],"optimalSaleTarget":-100,"optimalSaleTargetScore":-100,"latitute":"51.296513","longitute":"-0.277526","amountDemanded":"3","pricePrefered":"16","distancePrefered":"12","energyTypePrefered":"2"},{"index":123,"seed":"BJPCMLIMDOFOUP9XQABJMXJTNNVXMRLOQKBRVJCAVJOU9RFOCTMSOKJQ9MPWKBPWV9VANUMJKRWDFOTMM","address":"HYSPGFQRAZR9SCLSEKLOU9SFTVSIYNOEDSZJZGYIOLJNSFVJA9TOTZLTFGXGDVBDX9GXTGQKSMIADTSJC","optimalPurchaseTarget":-100,"optimalPurchaseTargetScore":-100,"availablePurchaseTargetList":[],"optimalSaleTarget":-100,"optimalSaleTargetScore":-100,"latitute":"52.163313","longitute":"-0.846485","amountDemanded":"2","pricePrefered":"14","distancePrefered":"13","energyTypePrefered":"2"},{"index":124,"seed":"T9SVCFRIYLTGLOABOSVMMXXJIRYIUFSFSEKJ9Q9TGQVKPQXQCFXYQNBMLPJMVXOMPIOYHSWVNJMJYOJVG","address":"CTDLJAJPPKZNKPLLYVFOEFWRQBQQNTHGKYDQCGVWPZFINTZWTLRSPVKFTPTHPOXJAVNOSTVBQZZANHAED","optimalPurchaseTarget":-100,"optimalPurchaseTargetScore":-100,"availablePurchaseTargetList":[],"optimalSaleTarget":-100,"optimalSaleTargetScore":-100,"latitute":"52.176885","longitute":"-0.241580","amountDemanded":"1","pricePrefered":"15","distancePrefered":"13","energyTypePrefered":"2"},{"index":125,"seed":"TRAAXQJVQCLSPOCHWUFNLIBVWESVS9JEHDIJGRFSNXVHJFKUNPLWESDEPTADABMULJONKNUQUDWLFXUWC","address":"DQXJQAN9MDVMONNUOSCEFUSOMMXBEIFBOYUBQFRBLXGFVGPLZGUKEZGBTREXYXQXSLZZEXICOOIVIIQHD","optimalPurchaseTarget":-100,"optimalPurchaseTargetScore":-100,"availablePurchaseTargetList":[],"optimalSaleTarget":-100,"optimalSaleTargetScore":-100,"latitute":"51.293464","longitute":"-0.250060","amountDemanded":"2","pricePrefered":"15","distancePrefered":"10","energyTypePrefered":"0"},{"index":126,"seed":"OAQXNU9Y9IHVAUAVXGCHQSPIKCXOJNNNXALRCLYOEJCAGFTHFGLXPPXLCGOSWMA9JAHCDNWSNNQYDUBEP","address":"R9VSLEGI9WXAS9GVNNTZBMOKVOSQJFSYE9JFFVECV9F9LGNVNHVLNPSAYQUYYJQFSRAIZCHJDYUZ9AVK9","optimalPurchaseTarget":-100,"optimalPurchaseTargetScore":-100,"availablePurchaseTargetList":[],"optimalSaleTarget":-100,"optimalSaleTargetScore":-100,"latitute":"52.005159","longitute":"-0.507840","amountDemanded":"5","pricePrefered":"15","distancePrefered":"12","energyTypePrefered":"1"},{"index":127,"seed":"ABAXVYOIRAVYED9LHCOMIGHPRKGRXMTEBFYRCPPBPNSSRXLJSDUVSFCJGEICGXWSKEQYESBYXLHYPPSGO","address":"MDDFRUGBMCUDIPEGRO9XWAJVDDTRAUECZBQHJBYGTWNHN9YMJLFJJU9KOXGTVJKDCX9XGBHUISNOUSCJD","optimalPurchaseTarget":-100,"optimalPurchaseTargetScore":-100,"availablePurchaseTargetList":[],"optimalSaleTarget":-100,"optimalSaleTargetScore":-100,"latitute":"52.199557","longitute":"0.122526","amountDemanded":"4","pricePrefered":"15","distancePrefered":"15","energyTypePrefered":"2"},{"index":128,"seed":"FAFGXQWMCYPARQVLTJ9SJEPDONWQLELA9OKNBWXVWCGJQQAOMESALLNNJQXK9LHTGINNYEGDNOFS9JNBM","address":"TDVRYUXJXVWHBKMOZHFBRQKMNWPKITYZMJIYRAFLAXJNB9NSDMRGGKWSEYHWOS9PYPCK9GLTKZCCENGPA","optimalPurchaseTarget":-100,"optimalPurchaseTargetScore":-100,"availablePurchaseTargetList":[],"optimalSaleTarget":-100,"optimalSaleTargetScore":-100,"latitute":"51.449180","longitute":"-1.002292","amountDemanded":"1","pricePrefered":"16","distancePrefered":"10","energyTypePrefered":"1"},{"index":129,"seed":"TS9XLPVTJESJPNNGYORNTSMJSBDGGSVKTRWUUVYYAUDFBRD9RSOQ9YU9RXVYTBUDFQWMUTKMVAXKNPMCY","address":"USF9YUVLVEDHS9SJIKXMBXL9VLZDASECAFPBGTCN9COIIFNWJXLJYVGYBBIKOFDHVKKBCWBWWI9FTUDVD","optimalPurchaseTarget":-100,"optimalPurchaseTargetScore":-100,"availablePurchaseTargetList":[],"optimalSaleTarget":-100,"optimalSaleTargetScore":-100,"latitute":"51.243670","longitute":"-2.213288","amountDemanded":"5","pricePrefered":"16","distancePrefered":"12","energyTypePrefered":"4"},{"index":130,"seed":"SYEYCCMKGOVMIUKGJRTNDOYTYGNRHXSLOXXOFQXFSGYFDJBVDFTRQWUUXCUXI9GIUNVXLOJIIUFCONNNN","address":"SEJBWFHZHIWLMGF9DZRHWZEOUEAMFMBXIEAN9RWGIEUVTNUUXANVLYSMTOPSJYJYGNQMSLPDKKJPXMSKW","optimalPurchaseTarget":-100,"optimalPurchaseTargetScore":-100,"availablePurchaseTargetList":[],"optimalSaleTarget":-100,"optimalSaleTargetScore":-100,"latitute":"51.814729","longitute":"-0.048214","amountDemanded":"3","pricePrefered":"15","distancePrefered":"13","energyTypePrefered":"3"},{"index":131,"seed":"IVM9COVPNLOCDMGEEMQU9MLSKESBLUPFVAVYJUE9FVBJVSR9TI9GIWTEEMYEFPITNYKDVLDD9XWVWNWQD","address":"KCDTUE9RKEWCMYVWMPBUTUFYOQRIGQHCBSEIRV9ZWOLFKHQMDSDVGRFVGJDFAVULPHGPMNP9QWSSMHPPB","optimalPurchaseTarget":-100,"optimalPurchaseTargetScore":-100,"availablePurchaseTargetList":[],"optimalSaleTarget":-100,"optimalSaleTargetScore":-100,"latitute":"52.233281","longitute":"-1.713035","amountDemanded":"3","pricePrefered":"15","distancePrefered":"14","energyTypePrefered":"2"},{"index":132,"seed":"C9DAJEWLOFTFOLNRTISRRJEDLOSGMVIEJWDGOGYGQVYCGYOSLSTNOLSCX999IVEB9MLXOPFMKADPPBMII","address":"VAZBIVBUXIQHW99RICPLRYEDKPPNFPD9SEKCOENMMROWCGOCLKL9GRQIOJZHWBAWHKHN9KIBVJFETDZE9","optimalPurchaseTarget":-100,"optimalPurchaseTargetScore":-100,"availablePurchaseTargetList":[],"optimalSaleTarget":-100,"optimalSaleTargetScore":-100,"latitute":"52.006326","longitute":"-0.350168","amountDemanded":"5","pricePrefered":"14","distancePrefered":"13","energyTypePrefered":"3"},{"index":133,"seed":"YKWGXBSSDKRXCWDPAACPSNYVDHRGOEKECVURFHCYGAXIARTIISMYOCAYMRKSTAJBAOPPKIXXLEGWGBUIQ","address":"RRPEUBZFJHUDPBOIK9AEAOXIDBOAUEUNHPVNJLUWNWRMC9VPIITJMVRAIOKBUQSOBIYXDRQZSNBF9CTOD","optimalPurchaseTarget":-100,"optimalPurchaseTargetScore":-100,"availablePurchaseTargetList":[],"optimalSaleTarget":-100,"optimalSaleTargetScore":-100,"latitute":"52.152673","longitute":"-1.887183","amountDemanded":"6","pricePrefered":"14","distancePrefered":"12","energyTypePrefered":"3"},{"index":134,"seed":"TFHVTYAGEKNYANYQSFLNESQUAH9QBUKXBJDXUFMTFJNKUPBFNJSXIDQDDGBYFMXLVYSFPQKUTRX9AQIYY","address":"PRUTGZNWJTYPBONNGDVWNBXEYMQJOBOVJBAGFL99HJAUDOL9PVPKODFRFBOOSEPDRCVESBDRGKGMNPELC","optimalPurchaseTarget":-100,"optimalPurchaseTargetScore":-100,"availablePurchaseTargetList":[],"optimalSaleTarget":-100,"optimalSaleTargetScore":-100,"latitute":"52.342187","longitute":"-0.206665","amountDemanded":"2","pricePrefered":"16","distancePrefered":"13","energyTypePrefered":"4"},{"index":135,"seed":"BTDGXPTVBVGPUVYWRJYOJRQTOW9NW9M9UR9LQ9AMYDQQJBYAT9FETERVDJMDEPR9AHGEGRA9EFAUQYHMU","address":"QOUPKPLMWVWBFGMVPTLMQAQWVFHNHTWHWBSDPDUFSWOPRSFGSZAPJPTPGGTNBRHCTGS9TWAKNNKKCU9JB","optimalPurchaseTarget":-100,"optimalPurchaseTargetScore":-100,"availablePurchaseTargetList":[],"optimalSaleTarget":-100,"optimalSaleTargetScore":-100,"latitute":"52.299072","longitute":"-1.029667","amountDemanded":"5","pricePrefered":"15","distancePrefered":"15","energyTypePrefered":"0"},{"index":136,"seed":"ITLCSYESACAIFIMGUQ9POUEDSVIWIHLPVEWVPSGFPRWBKBSNEDWNTOEUIWGLWLOPGUIPHJNCMUBCJFLVL","address":"KRVAISDWZMEO9OGN9WPPMCVULSJOYWZZIWHDBCM9OPPGAPCXUNDTKQISDSBDHGFDUYNUTZHUPGCWYKKEC","optimalPurchaseTarget":-100,"optimalPurchaseTargetScore":-100,"availablePurchaseTargetList":[],"optimalSaleTarget":-100,"optimalSaleTargetScore":-100,"latitute":"51.227434","longitute":"0.206976","amountDemanded":"5","pricePrefered":"15","distancePrefered":"12","energyTypePrefered":"1"},{"index":137,"seed":"RMAEJ9UWDCVJBJJXLTWVPELPQJDYBOBAJLUETEPVPRNWMGKPCKMYCJQURQACJEELGGOQ9CXHSMIMFXTQK","address":"MVGKCQBZMDGKAWOUGJTXDFNIPWZLDOJJOGURFAQCILSHYDBIMGJSVUEOSBWIEPOJKYARERWDXDRGFGEGD","optimalPurchaseTarget":-100,"optimalPurchaseTargetScore":-100,"availablePurchaseTargetList":[],"optimalSaleTarget":-100,"optimalSaleTargetScore":-100,"latitute":"52.411862","longitute":"-1.634383","amountDemanded":"5","pricePrefered":"14","distancePrefered":"12","energyTypePrefered":"1"},{"index":138,"seed":"MEVALHSABGDDPQUPJHSQHBYCXBTBU9MTWVMDHDHDLQBKQAEWOTNGECDUCGGSYQL9DP9HQN9CWIWVLBTJO","address":"VFCEYXOHWXEAPWNWHOKS9GZNW9FCMSIZYSGPOSUXYGSDMUDIXWKXVHWBFDXEMJWGCHNGLJNRZPKXMZ9L9","optimalPurchaseTarget":-100,"optimalPurchaseTargetScore":-100,"availablePurchaseTargetList":[],"optimalSaleTarget":-100,"optimalSaleTargetScore":-100,"latitute":"52.262087","longitute":"-0.858173","amountDemanded":"5","pricePrefered":"14","distancePrefered":"14","energyTypePrefered":"2"},{"index":139,"seed":"AHI9PYQOOIPVNWESEFXVC9TBHPJBEOASTJNLJHKFAMRQQCMSMQGGJW99YSFRCLVLOD9LUGEJCELIFFMWN","address":"PDIYKWZSSYYDNSYZMSOFRQIISTXQCUF9XEDZVMYACHSRQWCAFYOHBJTYGWFCFXQZVMWZ99NLVLAYNQJXC","optimalPurchaseTarget":-100,"optimalPurchaseTargetScore":-100,"availablePurchaseTargetList":[],"optimalSaleTarget":-100,"optimalSaleTargetScore":-100,"latitute":"51.366424","longitute":"-2.273021","amountDemanded":"5","pricePrefered":"15","distancePrefered":"14","energyTypePrefered":"2"},{"index":140,"seed":"VKKIAJMXBVMUNIBUOWDWLOMSAX9AKNNJLYCORBXSQGTPFBMWSXPFBBONCXIPSSOSSYEMRBQGMEYGJSVEM","address":"JBHLGSFJNA9ZSSKKDYKEHVNRVXUBY9LVIBOLLSEMRETLDSPMDGPAEJGNDC9BSRGWZMVIHA9BQHLQJJCIX","optimalPurchaseTarget":-100,"optimalPurchaseTargetScore":-100,"availablePurchaseTargetList":[],"optimalSaleTarget":-100,"optimalSaleTargetScore":-100,"latitute":"51.868277","longitute":"-0.974593","amountDemanded":"3","pricePrefered":"15","distancePrefered":"13","energyTypePrefered":"3"},{"index":141,"seed":"JTHOBVACGEBCDIAWOCWHDHFYLNPWNAM9GQIYURHXFVVURUVEDRKDK9LGNKCFAHNJSYIUUDHJEKMVFJDJK","address":"RZBZUAGAU9YVHUYSVWZWEQPQTRYWLKUHYWRPNJMZTYHCKCRZVEEVUSGOPSDNOORFDSEEFMDTHJKUENMZX","optimalPurchaseTarget":-100,"optimalPurchaseTargetScore":-100,"availablePurchaseTargetList":[],"optimalSaleTarget":-100,"optimalSaleTargetScore":-100,"latitute":"51.803117","longitute":"-0.239360","amountDemanded":"3","pricePrefered":"15","distancePrefered":"13","energyTypePrefered":"0"},{"index":142,"seed":"FNKUJLVLAUNVGSPN9GIVFTFWSBCYVIMNNSALGTOUFQUOXNDJQRMOEGKUGULWRNJRKXLTRTTLFJIFOUAIL","address":"QCJZYYZVWSUMUSZCTCWLFAKODRQOITADJOBOQABSPYEMDJJBJZVTSTXNXBKRNSPKLJAOHSCGVTDGHH9OD","optimalPurchaseTarget":-100,"optimalPurchaseTargetScore":-100,"availablePurchaseTargetList":[],"optimalSaleTarget":-100,"optimalSaleTargetScore":-100,"latitute":"52.100006","longitute":"-2.094457","amountDemanded":"3","pricePrefered":"15","distancePrefered":"15","energyTypePrefered":"3"},{"index":143,"seed":"DVMD9GYHONWAHWOCKBPXYEEMUSTNBLI9WRGVMFAKKUQCNCVTSHRKAOOSYPOTDOVLQITWKYKAYIYUSUAQA","address":"XKW9RWKSSYDWMQWXCJSAQSCEVRRUAUYFVZLNRWXFNCL9WXYCGLSYZXLMHBJWVATVZHBVJCVVPFDYQOVIZ","optimalPurchaseTarget":-100,"optimalPurchaseTargetScore":-100,"availablePurchaseTargetList":[],"optimalSaleTarget":-100,"optimalSaleTargetScore":-100,"latitute":"52.162366","longitute":"0.076849","amountDemanded":"2","pricePrefered":"16","distancePrefered":"14","energyTypePrefered":"3"},{"index":144,"seed":"ITODDINJKXSR9XMXHSXXEJVUBBPP9TEXBOQUFYHWARADUMUCCPITNUTCGJBLDVRHEMQXBSNTLLFVHHFW9","address":"RJPWUKYJKQYKRFWNAZULRUYKHRSUFTWMWOH9VJKZORURASZLNVOVQG9DAWCDJ9DVFJYD99XMMZESWOTVD","optimalPurchaseTarget":-100,"optimalPurchaseTargetScore":-100,"availablePurchaseTargetList":[],"optimalSaleTarget":-100,"optimalSaleTargetScore":-100,"latitute":"51.516956","longitute":"-1.397588","amountDemanded":"1","pricePrefered":"14","distancePrefered":"14","energyTypePrefered":"3"},{"index":145,"seed":"OUSMGXIXIVTCPCLNHXQYVYXC9UCRSEAPSKIWUEFNXBSPOFMQCXLOAUHGBQQSH9QT9RGUBSRHBGDDKBGME","address":"OXEFHMGUYEMJSRWXHLPAHNARJAFERMFWGEIGOJKLAEGGJEOUXOAZZTIRRPDZKCCOGJNWQSSUCDZGGXITD","optimalPurchaseTarget":-100,"optimalPurchaseTargetScore":-100,"availablePurchaseTargetList":[],"optimalSaleTarget":-100,"optimalSaleTargetScore":-100,"latitute":"51.497109","longitute":"-1.668597","amountDemanded":"5","pricePrefered":"15","distancePrefered":"11","energyTypePrefered":"0"},{"index":146,"seed":"DRQJUWXCWFMMQANO9QPREYYDEEN9GLRMDBVPGBU9BVRQDNSKHQTPCMVQGVUTGKYTMTYGGLYYUODEIPDVD","address":"TD9XDWMEZV9DAMOIHNYXKCXEEELHDB9ALMZASFMHOQRBJCRKETHUAKX9NDSLYOQKLIJAHLJCQFGBNREUD","optimalPurchaseTarget":-100,"optimalPurchaseTargetScore":-100,"availablePurchaseTargetList":[],"optimalSaleTarget":-100,"optimalSaleTargetScore":-100,"latitute":"52.030342","longitute":"-1.268589","amountDemanded":"4","pricePrefered":"16","distancePrefered":"10","energyTypePrefered":"3"},{"index":147,"seed":"JEOMKVJYJQLGCR9AOKUFPTWHRVVNUG9WCSSQOBLUGBSACRJOAA9NCOS9FWQIJSJPSHOWLGXBSPQTSDCGH","address":"SMFERJJJQIGIS9V9RBGTOOULVNYCXO9BXQDPQZIQJUKIGSRNJECBSHTNVVRFCBAZPYGNDLH9VQNENVYWW","optimalPurchaseTarget":-100,"optimalPurchaseTargetScore":-100,"availablePurchaseTargetList":[],"optimalSaleTarget":-100,"optimalSaleTargetScore":-100,"latitute":"52.325806","longitute":"-2.059456","amountDemanded":"2","pricePrefered":"15","distancePrefered":"13","energyTypePrefered":"1"},{"index":148,"seed":"RBYWLIRDHMARVXTHMMUKVCAVUGNEUYAG99VYORRXBVBNTKORBCRKD9XMQ9ICXVPNQPUVESXDXXFHEXOTV","address":"MYODMFRCCAVKHXDWCEAZLXBLZKWLPJSEKQYNYDWCSHQSZTEJJFFZGDFTXOMX9ROESTHYOVQRRHJP9YVJW","optimalPurchaseTarget":-100,"optimalPurchaseTargetScore":-100,"availablePurchaseTargetList":[],"optimalSaleTarget":-100,"optimalSaleTargetScore":-100,"latitute":"51.979716","longitute":"-2.184406","amountDemanded":"3","pricePrefered":"15","distancePrefered":"12","energyTypePrefered":"1"},{"index":149,"seed":"YHVNVCHDIDMNLGCLSPVWSLKYKAGRMXPP9UCYGMUDEOKYGFP9DA9P9LYLCFWVRDOEMBYNNOSKOLGYJGWCL","address":"MSWLZRVNWCXHLSIUGVQOZHYPWWYFQUKSFKVMRGCNQMSQAZAFREXYAEJRUNQBGMBUCEGIZW9TEFQPUAFWD","optimalPurchaseTarget":-100,"optimalPurchaseTargetScore":-100,"availablePurchaseTargetList":[],"optimalSaleTarget":-100,"optimalSaleTargetScore":-100,"latitute":"51.202978","longitute":"-1.943102","amountDemanded":"3","pricePrefered":"15","distancePrefered":"10","energyTypePrefered":"0"},{"index":150,"seed":"UOLXKPSGSNJAHWQQEXGCCNFGUGCPJXLDOWPTWPYLUXLTWAADYNOOWSJOPDFFNQBIRBTPTMFGFQHVNVIQ9","address":"CEVZPUMAKVIKEIBTCCVVEFNRROXTEI9YLOXLDCNVLMZOSCAWQAZUQDLRIMPWHLHQWGSAIEMIMALRQOVNB","optimalPurchaseTarget":-100,"optimalPurchaseTargetScore":-100,"availablePurchaseTargetList":[],"optimalSaleTarget":-100,"optimalSaleTargetScore":-100,"latitute":"51.314997","longitute":"-0.184918","amountDemanded":"4","pricePrefered":"15","distancePrefered":"13","energyTypePrefered":"4"},{"index":151,"seed":"OBPWCHPIO9ANSLIFHQVDGHPHQBCEKSNXYUDQCVEPHSQOWGBKWTGOC9DTOJSMVFKJJEWUSIUG9GVLFWSMX","address":"UMWCCFNFJZMEPAICRWMSSDFSCSQCZZYCHQRJSYYYEYZRI9PHEMAWIDLDZLLLMILEZAB9DFL9HOKWAZVPB","optimalPurchaseTarget":-100,"optimalPurchaseTargetScore":-100,"availablePurchaseTargetList":[],"optimalSaleTarget":-100,"optimalSaleTargetScore":-100,"latitute":"51.748447","longitute":"-1.785163","amountDemanded":"5","pricePrefered":"16","distancePrefered":"11","energyTypePrefered":"4"},{"index":152,"seed":"9HEW9VHQERNHOYEYQHFQDWSHHVMBNIYKTXKWAYHTKMRKXJSFGAFCXAOKFTEDNHPSPVATGMT9SRIDEPWBU","address":"HSNHGFBBEUQFKCMLCZGYG9THIXWVOVNGFMZYBTILORQCEBMVVLWQQXPJTFTYUJDYPANERUSEIQOBHSLDC","optimalPurchaseTarget":-100,"optimalPurchaseTargetScore":-100,"availablePurchaseTargetList":[],"optimalSaleTarget":-100,"optimalSaleTargetScore":-100,"latitute":"51.135783","longitute":"0.126587","amountDemanded":"2","pricePrefered":"15","distancePrefered":"12","energyTypePrefered":"3"},{"index":153,"seed":"SNFJYQNLT9LUELPQEPHTIAWCVKXDJPAPPBXKIBPAAPVIBYGEABBYOTJWMPXYKNTV9JHPYOURDXVEMOMPW","address":"B9BDVSRMCYTNXYQNUTESRGPTGHZIZZLHICKAKTGXMDSLSTKNGWLBVBOYSETTZQQNBMRHQQVEAAMNODTQ9","optimalPurchaseTarget":-100,"optimalPurchaseTargetScore":-100,"availablePurchaseTargetList":[],"optimalSaleTarget":-100,"optimalSaleTargetScore":-100,"latitute":"51.863432","longitute":"-0.801978","amountDemanded":"4","pricePrefered":"14","distancePrefered":"13","energyTypePrefered":"2"},{"index":154,"seed":"CEIVNWYELKJPE9ML9FSROX9NUNXCKNKLRKTHNXB9VYACOYNNPAP9YITNYWRVRIIDNTBWPROYJNPYJYDRS","address":"LGAPCJHIZBCSIBSUZWGWZURQFIFFYVVDXLQ9SCJKPKDIEVBZLUFJOYQFV9MIDMRIIQEJSQRIS9KHXBSFB","optimalPurchaseTarget":-100,"optimalPurchaseTargetScore":-100,"availablePurchaseTargetList":[],"optimalSaleTarget":-100,"optimalSaleTargetScore":-100,"latitute":"52.144423","longitute":"-0.787877","amountDemanded":"2","pricePrefered":"15","distancePrefered":"11","energyTypePrefered":"2"},{"index":155,"seed":"FQVWSCTJMSEQSFLUSYGHVMWGCDTEOFRPDCK99YXHXFYOMKOSBUCAMEQXIMBLYBJONWMCVGXJLNJDINN9B","address":"AVHVZRU9YKLQGWNARCYOFOQTGPUUMZSUWUXP9JUEJYYEHKKUVVGTEZNBUHLGUHYLFKYEUIYSLSTPVNSWX","optimalPurchaseTarget":-100,"optimalPurchaseTargetScore":-100,"availablePurchaseTargetList":[],"optimalSaleTarget":-100,"optimalSaleTargetScore":-100,"latitute":"51.951172","longitute":"0.201618","amountDemanded":"5","pricePrefered":"15","distancePrefered":"15","energyTypePrefered":"2"},{"index":156,"seed":"NQLORMWYTSONFVGLWHXFKCCPHBKTFPEKSXXVQCDONHSJSHHHTVENNIURLOBCXQI9V9BAFXUOKMIKALLBP","address":"SXH9BR9OVALJKTVQGKQZGFXBBFWFSXIKLJQAVTRWBSKDIDYIKTITWNSVLGPCUBWOAKBGFDGYJSWWLYKZW","optimalPurchaseTarget":-100,"optimalPurchaseTargetScore":-100,"availablePurchaseTargetList":[],"optimalSaleTarget":-100,"optimalSaleTargetScore":-100,"latitute":"51.193586","longitute":"-1.549401","amountDemanded":"5","pricePrefered":"15","distancePrefered":"12","energyTypePrefered":"2"},{"index":157,"seed":"YCJTOBIITRSOXYAKXRMWUGJBDUFABDOWCEQKSFKJLCUKVSXDPYIPVOQBDPPPAQBKEJK9LKKMKMSPUGORW","address":"GOGZNRHZ9SLEHHRKYJKXMLMFAZRMZCPRCSSYLZUBALOYORUQJYNOYNBOMMVZVUGZSJSEVXRUPUAWAYRKD","optimalPurchaseTarget":-100,"optimalPurchaseTargetScore":-100,"availablePurchaseTargetList":[],"optimalSaleTarget":-100,"optimalSaleTargetScore":-100,"latitute":"52.262732","longitute":"-1.338405","amountDemanded":"3","pricePrefered":"16","distancePrefered":"15","energyTypePrefered":"2"},{"index":158,"seed":"POQOWTGGP9YPKDIMMWBRVTUOGHLQU99INAPHF9DAUGOMWP9VMH9DEGUNUHAVMAVC9FQSOCYXYMYMAQSUY","address":"QUSRTMNKMXCGSYQDUPIJRDROIGZVZYDFH9NLWKVFAYHANHCPOZXLNIVMHVOMFYDEIGFWYXWZMJYAMTF9X","optimalPurchaseTarget":-100,"optimalPurchaseTargetScore":-100,"availablePurchaseTargetList":[],"optimalSaleTarget":-100,"optimalSaleTargetScore":-100,"latitute":"51.641216","longitute":"0.260078","amountDemanded":"4","pricePrefered":"15","distancePrefered":"14","energyTypePrefered":"1"},{"index":159,"seed":"GRHQDYNSS9JBYQBXWGVEA9HJNQCSNJRQBFHXJTTQCHVQPDJOKOVPRPRI9DWUXOUHTGONLRWYMUPLADREN","address":"AZZGHFIVCVKROEECEVILD9HQMKHPBOVSIERZWYPNDGFAQYTQHXHBPPVESWOEUEVZTPVOGJRJYOXROHSED","optimalPurchaseTarget":-100,"optimalPurchaseTargetScore":-100,"availablePurchaseTargetList":[],"optimalSaleTarget":-100,"optimalSaleTargetScore":-100,"latitute":"51.442605","longitute":"-0.295614","amountDemanded":"2","pricePrefered":"16","distancePrefered":"14","energyTypePrefered":"1"},{"index":160,"seed":"9MABAYTLJKSOWSPH9OYJWGSBVSLQPWEGMTUVJKILQRIICRCFRAWG9TQICMAMYOYEQOEOLWJEWAHCIYYST","address":"MEFMDAYQPSTWTBOITUDNNVDWPIEXNENEXQWMPKJHTYALPXQFSAPPDWFMYWFLFLLUREWBWUXJTPIWAKCAY","optimalPurchaseTarget":-100,"optimalPurchaseTargetScore":-100,"availablePurchaseTargetList":[],"optimalSaleTarget":-100,"optimalSaleTargetScore":-100,"latitute":"52.112012","longitute":"-1.397248","amountDemanded":"4","pricePrefered":"15","distancePrefered":"13","energyTypePrefered":"1"},{"index":161,"seed":"IUWLAQFYHWFG9BXDWAMBASBSXULOGQEUPYCCWWHYWQJBJRXXEG9VHYPFSSMSFUBYRWCXCDAILYALIXWOD","address":"USQEY9HEGZQZRBQHLRYGVDVVIGSQHWWUVMXEZSSMAEXGTCZRLXFCCEYVJLYZAAHSMBTJRVADJLYTESJTD","optimalPurchaseTarget":-100,"optimalPurchaseTargetScore":-100,"availablePurchaseTargetList":[],"optimalSaleTarget":-100,"optimalSaleTargetScore":-100,"latitute":"51.118227","longitute":"-0.531157","amountDemanded":"3","pricePrefered":"15","distancePrefered":"12","energyTypePrefered":"1"},{"index":162,"seed":"JRJDEUJJT9AGJKRWHMDOAAKUFR9IUUAUITQVJMVYSQAIJAWBOICMHQLCPHUKTYFLDSYHWWGFHTGC9QXIB","address":"XSQEPMI9ECFAUQNWXVIVFBTLOUSDFPHQJCXTXCOYWJQJETLOHHCXJAQ9HZ9YZXWHIZABTTM9ULFLZSLXD","optimalPurchaseTarget":-100,"optimalPurchaseTargetScore":-100,"availablePurchaseTargetList":[],"optimalSaleTarget":-100,"optimalSaleTargetScore":-100,"latitute":"51.364973","longitute":"-1.592643","amountDemanded":"3","pricePrefered":"15","distancePrefered":"15","energyTypePrefered":"4"},{"index":163,"seed":"KEMSTFPEPTJXRAVOTPTPBRALIVMTBU9YCPEDKFGFWEXJUJVIBTUYNTM9HXYEIKIBSPNVKEAEELNKACBPY","address":"IOWGNVOPXHZAXR9BSATLOUHFLWWALOEBEHPCOYWNLIQVMPCLTFWUECH9CGLNKPQAQIYSHRGCGXDCSZRLB","optimalPurchaseTarget":-100,"optimalPurchaseTargetScore":-100,"availablePurchaseTargetList":[],"optimalSaleTarget":-100,"optimalSaleTargetScore":-100,"latitute":"51.399234","longitute":"-1.995276","amountDemanded":"3","pricePrefered":"14","distancePrefered":"11","energyTypePrefered":"0"},{"index":164,"seed":"YBOBYPUMAVGHSHQENADABBBXBPRUWRDFPSOQTWIUDKYLCKAWERATQQ9KNSKXU9IWNNKPNKJBLFLVYETCF","address":"NGUYXCIGIXMEKFCTDAM9PXM9BNESBNXGFRISCIJ9RYNLI9U9CHPPWKLXUQMGHV9EARPJBZCAWIYUBEENZ","optimalPurchaseTarget":-100,"optimalPurchaseTargetScore":-100,"availablePurchaseTargetList":[],"optimalSaleTarget":-100,"optimalSaleTargetScore":-100,"latitute":"51.081754","longitute":"-0.776357","amountDemanded":"1","pricePrefered":"14","distancePrefered":"11","energyTypePrefered":"1"},{"index":165,"seed":"DBTGYKLHOVYTWFXNCGEWNIHHQXJGHEAWRNHQUQPMFWFIADDWOKEHV9FVXCXUKEVEIETDFREBA9PL9NDRM","address":"RZWIFQL9OZR9ZIGWWUTNQ9DTYOTMWTZYFCZG9SWNOHXMDBGOSKRZRHHWPD9SRMQQEGLUQXEOFYPSMMSFY","optimalPurchaseTarget":-100,"optimalPurchaseTargetScore":-100,"availablePurchaseTargetList":[],"optimalSaleTarget":-100,"optimalSaleTargetScore":-100,"latitute":"52.387170","longitute":"-0.633071","amountDemanded":"2","pricePrefered":"16","distancePrefered":"10","energyTypePrefered":"1"},{"index":166,"seed":"PLDEUG9TALQLDCEIX9UEJTRJUOWTI9ECWU9MKCD9JPNDTMDTJTEBOREFUJPAYNWWLAYPYQFEITBRQOGIK","address":"TUHRTZYURGPIKCINVPBR9AIGMVQDJQMNMRIFCHUFVP9OWLJTYX9CYSEG9PBOQBDPXDOGROSNQBHSZWIAD","optimalPurchaseTarget":-100,"optimalPurchaseTargetScore":-100,"availablePurchaseTargetList":[],"optimalSaleTarget":-100,"optimalSaleTargetScore":-100,"latitute":"52.016510","longitute":"-0.798787","amountDemanded":"1","pricePrefered":"14","distancePrefered":"14","energyTypePrefered":"4"},{"index":167,"seed":"TBJRL9VER9QHKDAGMYWFYELX9YKKJPGCWDW9LVKBGYKELIL9JISFHYLBIGNCLKUXCXVRJXPY9ETVIXARP","address":"UAIOZLIHNTLJWHOPRYBQVQRZSJJWHQIYFDO9EGEEMCYLVMNDKDOEXMLADIPNVPQGIOKKELHGLBPVKDM99","optimalPurchaseTarget":-100,"optimalPurchaseTargetScore":-100,"availablePurchaseTargetList":[],"optimalSaleTarget":-100,"optimalSaleTargetScore":-100,"latitute":"52.099689","longitute":"-1.488876","amountDemanded":"3","pricePrefered":"16","distancePrefered":"12","energyTypePrefered":"1"},{"index":168,"seed":"YSEYDPOWDKJPTHGMNRTAGATVTUC9SUENQISXGCOVYMUKIIIKDOHTYTSLYLJHWEXMB9HSSRWOLWSCULDMX","address":"EXSWKCRAURBYPJRPZ9EAHZEZXPWUKWWPWZSAVPABLDDRUQRQPNDVOVIYATYKYHMIYSWVLZQSWEOKMMFJX","optimalPurchaseTarget":-100,"optimalPurchaseTargetScore":-100,"availablePurchaseTargetList":[],"optimalSaleTarget":-100,"optimalSaleTargetScore":-100,"latitute":"51.039569","longitute":"-0.472252","amountDemanded":"3","pricePrefered":"16","distancePrefered":"14","energyTypePrefered":"2"},{"index":169,"seed":"NNNIDOSOFGXICBUDJHKASRBCIXAIDELWJSTFKYCFCPMDWRCNOXIFDTLTGOSEBDKWQJKEATQ9RYNDVGCLM","address":"ASBLQEIKG9VVONZESZYLCOAHEPKTGRICJF9AHWUQYADTTJWTYMEUBSSPIAUM9CE9HBCJVNQAUAVHHYOJX","optimalPurchaseTarget":-100,"optimalPurchaseTargetScore":-100,"availablePurchaseTargetList":[],"optimalSaleTarget":-100,"optimalSaleTargetScore":-100,"latitute":"51.411008","longitute":"-0.392452","amountDemanded":"2","pricePrefered":"15","distancePrefered":"13","energyTypePrefered":"3"},{"index":170,"seed":"WGKCNRFFVUOEKV9QNTUXHSEXRCFERNTQTACFWWXJISTLVCGXAVUHBHSLHAOKGKVXPQPYSAVBTNFGGWBQH","address":"NZTGCFHDRBRAD9KRPIEGBRQQRUQFQTKYOZPSMURDPWEEXPZN9LKXTILDZPXWQIAGUQZHQJTRPROC9GJRZ","optimalPurchaseTarget":-100,"optimalPurchaseTargetScore":-100,"availablePurchaseTargetList":[],"optimalSaleTarget":-100,"optimalSaleTargetScore":-100,"latitute":"52.178577","longitute":"-0.012325","amountDemanded":"2","pricePrefered":"14","distancePrefered":"14","energyTypePrefered":"3"},{"index":171,"seed":"WGHCBIXKM9TWJXXMPHVNGETW9LLHNUTSGBFIOAVWOCRCJDSCDBBJK9TMRNLADEMUUPKFXGVXCVIXTWAJU","address":"PIFIFJQGGGZEKYHUKKT9SZSP9GJON9CAAWKLRIPLXCWOCIZMCZLSLXPV9KZYGRWAXPWRLQHNMMKMWF9TC","optimalPurchaseTarget":-100,"optimalPurchaseTargetScore":-100,"availablePurchaseTargetList":[],"optimalSaleTarget":-100,"optimalSaleTargetScore":-100,"latitute":"51.107831","longitute":"-0.516188","amountDemanded":"4","pricePrefered":"14","distancePrefered":"12","energyTypePrefered":"4"},{"index":172,"seed":"AYUKDESPESGUETBNEWAESY9XOEUVWYLEPUNTVVLUHQLS9EK9WJLYMYUXM9GAXWTGDPOUJOCWAQUUEAJQJ","address":"XQOBZPWDKHCRALIX9CVVXMQYWEKWAGJGATXYZMTCRGTBEDXCWKTFIGELQWWPDCWIQ9TLSAKZLUMYBPHDW","optimalPurchaseTarget":-100,"optimalPurchaseTargetScore":-100,"availablePurchaseTargetList":[],"optimalSaleTarget":-100,"optimalSaleTargetScore":-100,"latitute":"51.396976","longitute":"-1.910979","amountDemanded":"4","pricePrefered":"16","distancePrefered":"11","energyTypePrefered":"1"},{"index":173,"seed":"OBQLRTPTTDSNKIVVINQAOIRUNIKBPBWXDTMBRHDSSLDBYKOQQGRU9VWQPVWULMMMFMTIO9RPTUFUNWVUC","address":"QYGW9YFEYCLOKFLLFEOHMSRKUJZWITGVDSSNPPHMMKXCVVBYWJGSAFVKHOGHJS9IJVWLHMAIVPVLDJJOD","optimalPurchaseTarget":-100,"optimalPurchaseTargetScore":-100,"availablePurchaseTargetList":[],"optimalSaleTarget":-100,"optimalSaleTargetScore":-100,"latitute":"51.253084","longitute":"-0.325702","amountDemanded":"5","pricePrefered":"14","distancePrefered":"11","energyTypePrefered":"3"},{"index":174,"seed":"EPIBFESKOLNFKNUKBHLVEEQPFDLIGDUOGGANJSMAVUXJMVQYXKWPRI9VNHRXRQUQJOIGQOLLSCCJVSI9T","address":"KFVVFDCGCWXDPEGFSMQOOVJGCTOBPKSAWRGLZTWETGUVIZDQEWSVPUZJJVLYQSNJRQBEZJMKPXLVZIVQA","optimalPurchaseTarget":-100,"optimalPurchaseTargetScore":-100,"availablePurchaseTargetList":[],"optimalSaleTarget":-100,"optimalSaleTargetScore":-100,"latitute":"51.123455","longitute":"-0.359612","amountDemanded":"1","pricePrefered":"16","distancePrefered":"13","energyTypePrefered":"3"},{"index":175,"seed":"QAUAF9L9NWQNNBAJUHR9SVOAKRUULIHKY9KBPJROLMKDIMURDMCPANVGUBS9PQPOTHK9HYDDFHHXVO9HX","address":"ZSKGSQQIWNQCRUHAYKXUMUNNKZEFKHGZMHYJYNCKALBXDUMAYWCOHTEXUTTEVZHQFJSVBHWVPFKMOCILY","optimalPurchaseTarget":-100,"optimalPurchaseTargetScore":-100,"availablePurchaseTargetList":[],"optimalSaleTarget":-100,"optimalSaleTargetScore":-100,"latitute":"52.258752","longitute":"-1.970597","amountDemanded":"2","pricePrefered":"14","distancePrefered":"11","energyTypePrefered":"2"},{"index":176,"seed":"UGCIQGEKNYQENUKSBTABGVOYSXXPQNSBEMNYOIM9GSVVQNSCLWIGYJEASEWLYLEPFUUUCDKLHJ9UDSNKM","address":"WOTXPDJRLWGEVCLEHPHCRXYO9JQWRPSLBBQBAOBCMKF9BQKDFFGSAYOBO9KZAQZVEBHUOBQWBTLFSWFLX","optimalPurchaseTarget":-100,"optimalPurchaseTargetScore":-100,"availablePurchaseTargetList":[],"optimalSaleTarget":-100,"optimalSaleTargetScore":-100,"latitute":"52.263917","longitute":"-0.899036","amountDemanded":"2","pricePrefered":"16","distancePrefered":"11","energyTypePrefered":"4"},{"index":177,"seed":"IFDPUJ9U9UKOMLMXRBLYEAXVIYIPXFYKQROUSOABPMEAKMHQYKBIXPXJXSRNLLEELYCVUVFQYSLGSRYXU","address":"UPNWQNZJHHOSFAJZQBNMRMGOVXSQK9UQTLCQZFCAAHOODOM9SSLGIMUBSP9MHT99OTFYY9HSFHUMWVBE9","optimalPurchaseTarget":-100,"optimalPurchaseTargetScore":-100,"availablePurchaseTargetList":[],"optimalSaleTarget":-100,"optimalSaleTargetScore":-100,"latitute":"52.100752","longitute":"-1.399888","amountDemanded":"4","pricePrefered":"14","distancePrefered":"11","energyTypePrefered":"2"},{"index":178,"seed":"HBNIBRXFPHPOBHWQIQW9VOIDAFLGK9YQILBYDLTYWTEDNUOYWPROYRIETPLVKXVOMXLWJ9IUBOILXYWGI","address":"XEUBJOUWSIXYGAUZMQVLZ9DSIFMDMQCYSVSNUGSCM9ALDHDWVMMRYEYLLFYCYTGPBTROYNWKZEQCLFCAX","optimalPurchaseTarget":-100,"optimalPurchaseTargetScore":-100,"availablePurchaseTargetList":[],"optimalSaleTarget":-100,"optimalSaleTargetScore":-100,"latitute":"51.386315","longitute":"-0.092146","amountDemanded":"2","pricePrefered":"15","distancePrefered":"12","energyTypePrefered":"0"},{"index":179,"seed":"S9UH9TADKNSNXILAWHRK9WKKUJGSGTDLY9GIWFIIS9KHUMXVGLXYTWTBXUA9NCTEYEVRCBEVHRUHLYNAV","address":"TOWFWD99FZRKYVALU9WINABVZQQYGMZQJOLIWBAWOSMZXEPDRBDKQOLODNKJDOIUZTTEMZVYTCLSQXGHW","optimalPurchaseTarget":-100,"optimalPurchaseTargetScore":-100,"availablePurchaseTargetList":[],"optimalSaleTarget":-100,"optimalSaleTargetScore":-100,"latitute":"51.102707","longitute":"-1.545336","amountDemanded":"1","pricePrefered":"15","distancePrefered":"13","energyTypePrefered":"1"},{"index":180,"seed":"9MQAQKLPDOEYC99JVBSTWYIFXCXIVPVIMMWONTXOVNUXFLRQUXMDRNBIMUBOVWCKP9HIRRBKDH9NQEUTL","address":"SFDJUDHHGFSFQAEIMJTROIDPMFSDMTIAEWCKLSFBKKQ9ZUBVXDKSU9IESMJEVWNJNHKJMTICYBFVBRA9C","optimalPurchaseTarget":-100,"optimalPurchaseTargetScore":-100,"availablePurchaseTargetList":[],"optimalSaleTarget":-100,"optimalSaleTargetScore":-100,"latitute":"51.387723","longitute":"-1.312028","amountDemanded":"2","pricePrefered":"15","distancePrefered":"13","energyTypePrefered":"2"},{"index":181,"seed":"YRHVIXEVMDJYCPPDWQEYGYWELQQFOSSN9ITQIYJYHVEHIFBPHQPNOVFWCLSPIPSUOWHSTCDALLXMLDDHA","address":"JFIAFADYVFDUJHLGJXRYTMGU9GES9QDENXZKSMMOSIGRVQSSEHQF9IDBDQA9BHU9QNTNGMHNOISUUWZRW","optimalPurchaseTarget":-100,"optimalPurchaseTargetScore":-100,"availablePurchaseTargetList":[],"optimalSaleTarget":-100,"optimalSaleTargetScore":-100,"latitute":"51.820083","longitute":"0.248699","amountDemanded":"4","pricePrefered":"14","distancePrefered":"10","energyTypePrefered":"0"},{"index":182,"seed":"WGDWNOEROSHMSIXTPAJCFJDWYJQVPVNKGKK9VPUO9GOUULAXSQAHCJ9UWHYLDEQCYFRHLBNDSLAUMMUAA","address":"WVMCZTPWKENEADSAKBQCSCNCKXMALBGSXEGTVKMYRKLNXXXCB9ANLWIEKQWMVWITCMJTGHIHHUOPNHSEC","optimalPurchaseTarget":-100,"optimalPurchaseTargetScore":-100,"availablePurchaseTargetList":[],"optimalSaleTarget":-100,"optimalSaleTargetScore":-100,"latitute":"51.251394","longitute":"-0.241293","amountDemanded":"3","pricePrefered":"15","distancePrefered":"10","energyTypePrefered":"0"},{"index":183,"seed":"WNGNWKGISKS9VJHGOMNK9HSDUGCUVNXTWJDWSXBBAVFJHTEACBCLBKYLPDIFIFPNOJHATWPPAWNQGIAHX","address":"UAEPPPPEB9BHRVOERQAYDINFPRHP9QKVGLNQUNS9JPGJYZNQOPKFCFCWJIJFCJBDUCPNIZFBEDSKHNPAB","optimalPurchaseTarget":-100,"optimalPurchaseTargetScore":-100,"availablePurchaseTargetList":[],"optimalSaleTarget":-100,"optimalSaleTargetScore":-100,"latitute":"51.969133","longitute":"-0.105851","amountDemanded":"3","pricePrefered":"16","distancePrefered":"13","energyTypePrefered":"2"},{"index":184,"seed":"NSONKHWMLJBQSTSXXOW9OVNQHHVSJARBUMJYORIOVMNNKJHYIJACFNHCXNMCAHTCXNEWJDWDPIQDMIHDI","address":"UIAFMKSVPGDXVFJIGO9HOQRUPFCNGONZAWEJUSZYVHCWCTUO9XRW9TVRVVFMTSDJBZIBXDQJKLTTGFTUC","optimalPurchaseTarget":-100,"optimalPurchaseTargetScore":-100,"availablePurchaseTargetList":[],"optimalSaleTarget":-100,"optimalSaleTargetScore":-100,"latitute":"52.378590","longitute":"0.261105","amountDemanded":"1","pricePrefered":"15","distancePrefered":"12","energyTypePrefered":"4"},{"index":185,"seed":"ALELDRNB9WI9NYIPSHSEUKXYVRQC9PKKRCSYI9REOOE9OSMMYMLXNVCGGHDCLKFAFWFVQGNJGPBFMUWBO","address":"MBRUDLMMSMRQYFZA9NJBKLDQB9TVFSMUADJSVKTQSVMHZSXNNXVMDZICRW9HGQLJBIICPTEPWWGNWDLTX","optimalPurchaseTarget":-100,"optimalPurchaseTargetScore":-100,"availablePurchaseTargetList":[],"optimalSaleTarget":-100,"optimalSaleTargetScore":-100,"latitute":"51.111250","longitute":"-0.946655","amountDemanded":"1","pricePrefered":"15","distancePrefered":"11","energyTypePrefered":"0"},{"index":186,"seed":"NQGUQ9ONMAOTALXQBGUDNCEWYOPGCKO9DKIJDBHJLFTFSDSRJOYLLYGCMIYPYXCKRJMTM9JYPHEGUEROB","address":"W9ZWS99XBXBCYLZHTDRYUODJICJAAJKDRXKYORIDQPPFNBVXEWCWKYHIMXTIYLWTWHYOQRCRFIDRJGYVX","optimalPurchaseTarget":-100,"optimalPurchaseTargetScore":-100,"availablePurchaseTargetList":[],"optimalSaleTarget":-100,"optimalSaleTargetScore":-100,"latitute":"51.133426","longitute":"-1.118543","amountDemanded":"5","pricePrefered":"14","distancePrefered":"15","energyTypePrefered":"1"},{"index":187,"seed":"GVMPATOXBKRHMFYTPDMVG9WPYJBTKGJXUJOJA9GMMT9FTTSKJIIJIRBNDJGQWIPPVBORFIXLCJK9QSYVE","address":"PWPCAQQTCGOYRQGBEWSBMUHGBTCEA9QHIJOZSJTBWWUYDNEEYCEQPYMGOFKUFWWBNIXJWSFIKUMUJJVDC","optimalPurchaseTarget":-100,"optimalPurchaseTargetScore":-100,"availablePurchaseTargetList":[],"optimalSaleTarget":-100,"optimalSaleTargetScore":-100,"latitute":"51.852419","longitute":"-1.772836","amountDemanded":"4","pricePrefered":"14","distancePrefered":"14","energyTypePrefered":"3"},{"index":188,"seed":"WQIMNDSHADIMMSSANKCXNPWA9RXGSURUEYAWWKSMGOCBQXALGFPWYFHPVVJ9XAORNMRAILOLWXNTTGTNV","address":"EDCMXWJTXRVOQTGQDNJSCFKHOPMLRDYJLFEOJRKEAYBAUEYTLSKPCZVGYLUNBKZKXR9DXCLSIBUFQZCLC","optimalPurchaseTarget":-100,"optimalPurchaseTargetScore":-100,"availablePurchaseTargetList":[],"optimalSaleTarget":-100,"optimalSaleTargetScore":-100,"latitute":"52.403200","longitute":"-2.232329","amountDemanded":"3","pricePrefered":"16","distancePrefered":"11","energyTypePrefered":"3"},{"index":189,"seed":"QTLETYAYMINQKKPRJELBGPFJGAMUAUE9PRIDNVFPLTCTPMOF9GOFMSUBXNXNKIFEHAIPUOKWSHRKRNKOB","address":"GEVDKZHAECZMFQUVEZCZMBLP9ODHGMVESDRRUYLJZGSMFVUVCDKACBMYQXDVLMGNEJYULSPXMXZXDML99","optimalPurchaseTarget":-100,"optimalPurchaseTargetScore":-100,"availablePurchaseTargetList":[],"optimalSaleTarget":-100,"optimalSaleTargetScore":-100,"latitute":"51.357860","longitute":"-0.394202","amountDemanded":"5","pricePrefered":"14","distancePrefered":"12","energyTypePrefered":"1"},{"index":190,"seed":"FBLF99SCVVEIMU9FRDFXIGVHBGKHPIQHXXNJYTOVSJUPLPMN9YUICRUJMDWRPPRQIPCSKYSVPTVJBOLLV","address":"TBMCXKEY9AZPJPZ9DGKOHTTZHOUKCEQHZMVJQGYHJSXQVQTZKGDXHWXSH9INPCNLR9FYEDLBNBVGMTHIB","optimalPurchaseTarget":-100,"optimalPurchaseTargetScore":-100,"availablePurchaseTargetList":[],"optimalSaleTarget":-100,"optimalSaleTargetScore":-100,"latitute":"51.755260","longitute":"-0.087732","amountDemanded":"3","pricePrefered":"15","distancePrefered":"13","energyTypePrefered":"1"},{"index":191,"seed":"KAAAVDYQDLIOHXSPNUGIRGPCKSSIJJRHUNBSDT9VUP999JGDUGOWQIWOFKFFNEKHCKABTIQYCETC9DDQE","address":"S99SMQKTB9UYTZVZNVCBCQSVHUFTIERKCLBNGMIMUCOZEMRXFNSPDOWKOCAQ9KPFOWEHWCUNOZQQKEIIX","optimalPurchaseTarget":-100,"optimalPurchaseTargetScore":-100,"availablePurchaseTargetList":[],"optimalSaleTarget":-100,"optimalSaleTargetScore":-100,"latitute":"51.956182","longitute":"-0.673309","amountDemanded":"3","pricePrefered":"15","distancePrefered":"12","energyTypePrefered":"4"},{"index":192,"seed":"PBQHWRKWCAJEYNMYTOGBWQOQQJBYISRWKQCVVVXY9CMHAEAIXS99NCVXIUQSCXVTOTVHCGNRVYLYT9JOD","address":"HFHZMNCRFVEPBADMZKVAMHSBTSJPOVAIADMVZJPFCSEKNT9HHMBZPAIJJTQLOBOSOTGHSWBBMTTVHSJYY","optimalPurchaseTarget":-100,"optimalPurchaseTargetScore":-100,"availablePurchaseTargetList":[],"optimalSaleTarget":-100,"optimalSaleTargetScore":-100,"latitute":"51.494103","longitute":"-1.497921","amountDemanded":"6","pricePrefered":"15","distancePrefered":"14","energyTypePrefered":"2"},{"index":193,"seed":"NWBFFIHXVCCFJJREUGHSVICBFKHPILFBJVITCCQXQPPTBAJTKKXUPRKXAQEHSRNEANXSOIIYVWERGDTQF","address":"TPYWAVTEAPPTOHWZLATNEJTNJNUDZICDUFMEPIQMHHXEFDCRAVGBHJHILZZWVDRKRCKQWKOHSKUYVL99D","optimalPurchaseTarget":-100,"optimalPurchaseTargetScore":-100,"availablePurchaseTargetList":[],"optimalSaleTarget":-100,"optimalSaleTargetScore":-100,"latitute":"51.658204","longitute":"-2.089536","amountDemanded":"1","pricePrefered":"16","distancePrefered":"12","energyTypePrefered":"1"},{"index":194,"seed":"UTFVGRENSJTQPSBIWNARBFBAUXCSQ9C9EQJNDPYLUBLHFVJDAUBYHYIDBNSKFSFQTTDFYXCWQQUYXHCRB","address":"FTANLFWPGFEIHYTNVXQBVQSYNETPVLTKJFR9IFFTSBIGXFLADKRLXWMWDCJGBXDDBXTFLVR99JAIFGJGC","optimalPurchaseTarget":-100,"optimalPurchaseTargetScore":-100,"availablePurchaseTargetList":[],"optimalSaleTarget":-100,"optimalSaleTargetScore":-100,"latitute":"51.147211","longitute":"-0.468857","amountDemanded":"3","pricePrefered":"15","distancePrefered":"12","energyTypePrefered":"2"},{"index":195,"seed":"QPIXIMSCDYDEKRLHERCNKJQLTBXDSWFR9HDIRHCKPMSCINQCUDIARODQSFL9VARUMFRVCA9BWPLMNJQSE","address":"LCNYGSVRBGYYU9MBBQSDFXJBHXE99ANGRVN9ZJSWNKYGCHFXYHISIMZVHYYTMONRUZPXYAXLZJXVOSQYD","optimalPurchaseTarget":-100,"optimalPurchaseTargetScore":-100,"availablePurchaseTargetList":[],"optimalSaleTarget":-100,"optimalSaleTargetScore":-100,"latitute":"51.617879","longitute":"-1.439867","amountDemanded":"4","pricePrefered":"16","distancePrefered":"15","energyTypePrefered":"0"},{"index":196,"seed":"UOGM9IELFOEKCVHVBTYTIMRTSAWGLP9OWFEGLGNSNTCQNQKVOXHMSINHPONGSSQOEA9JYIEMPTRVQNAWG","address":"O9ADZJ9IDYZDLUKVGJBGIVATAFWOUQAHMJDMHYYVWAK9LCBOJEWPNLQAKPRYBRSBCDXONAATSWASIIZIB","optimalPurchaseTarget":-100,"optimalPurchaseTargetScore":-100,"availablePurchaseTargetList":[],"optimalSaleTarget":-100,"optimalSaleTargetScore":-100,"latitute":"51.286326","longitute":"-1.221217","amountDemanded":"2","pricePrefered":"15","distancePrefered":"10","energyTypePrefered":"1"},{"index":197,"seed":"HLWRUEBLUMCBMLWN9ULMYJURMSEIFJVRYEOICRLNPMSBHLBVYMCXK9JQDQQSWELXNEOYYJASSHPRGAROA","address":"REKBVYWFALXOQTRDYMADYV9YBVRTHSCPNXEMGENQWOPLKNYRTFW9PXHVTG9EG9YIAPCRZGI9SSFXLUG9X","optimalPurchaseTarget":-100,"optimalPurchaseTargetScore":-100,"availablePurchaseTargetList":[],"optimalSaleTarget":-100,"optimalSaleTargetScore":-100,"latitute":"52.219890","longitute":"-2.166975","amountDemanded":"3","pricePrefered":"16","distancePrefered":"14","energyTypePrefered":"2"},{"index":198,"seed":"ONTVPFEDJXKCBOIYINYVNWCATPGUDQN9VGQNHHXKHCGLNRSWJEKFALHMJUSSJUCYFELBSGXVCNPWTBRES","address":"XTXQJNJE99EBRFAHHICZGJKJQSEFHK9KBPNFEYXMIMUOAKKBCCFKNYVNPRVUMG99CQPQ9HVVQAIMOBHKZ","optimalPurchaseTarget":-100,"optimalPurchaseTargetScore":-100,"availablePurchaseTargetList":[],"optimalSaleTarget":-100,"optimalSaleTargetScore":-100,"latitute":"52.391610","longitute":"-2.160165","amountDemanded":"5","pricePrefered":"16","distancePrefered":"12","energyTypePrefered":"1"},{"index":199,"seed":"FHMIBSNQL9KDMNYRWYPKLKSYMGDF9VDIQMFHCLXVPCVISM9BCDDBQGACWBYSYQKXY9VDXCNKPRRFL9YXB","address":"PHSVDBZSLQTJLYAEOGQHWSLWDTR9NHUGZZAGCTXXFBFRXO9JXZWZDQGDGPPXYQZGGNOJXDNXBAYTBUWFX","optimalPurchaseTarget":-100,"optimalPurchaseTargetScore":-100,"availablePurchaseTargetList":[],"optimalSaleTarget":-100,"optimalSaleTargetScore":-100,"latitute":"51.343000","longitute":"-2.042558","amountDemanded":"3","pricePrefered":"15","distancePrefered":"12","energyTypePrefered":"3"},{"index":200,"seed":"NRFRRFJHGWRLTGWQOVGLJLNHFAQKQPCEQVLCBXIYQEBFYCMUAOTDXOEBVLHMMXMCTPOFYFPQEEVFSHOOX","address":"LQBQQWO9CUXUXFBNMGHPQHZHBSZPZSDVGHPPTYIBSCYMLARMZGBFBXKOMLMZSNHVPQPOXC9QQVIJEG9AD","optimalPurchaseTarget":-100,"optimalPurchaseTargetScore":-100,"availablePurchaseTargetList":[],"optimalSaleTarget":-100,"optimalSaleTargetScore":-100,"latitute":"52.226862","longitute":"-0.595078","amountDemanded":"1","pricePrefered":"15","distancePrefered":"11","energyTypePrefered":"2"},{"index":201,"seed":"MUXWJUB9BPPKL9SXAV9OYLTTTIIKYDPY9KNLGRDSJXAEAJHPBIEFTMJQOPFLBJHARMFGP9TMRJEVRLIJO","address":"QAGVSBITZHRPALRYKZUZQBQBYBPWWOTWCVYKLXKDBBFKOHJSZW9YN9DATDN9EQTDQGXVAXJCJXLOKUYOW","optimalPurchaseTarget":-100,"optimalPurchaseTargetScore":-100,"availablePurchaseTargetList":[],"optimalSaleTarget":-100,"optimalSaleTargetScore":-100,"latitute":"52.022962","longitute":"-2.115144","amountDemanded":"3","pricePrefered":"14","distancePrefered":"13","energyTypePrefered":"4"},{"index":202,"seed":"UEERYNSURABPHMKWHDPE9VYJQGITREVHDJNGLLNLIJ9FLWSOJJTPRDMIWSWHPTUBNJCEVELFDWOPOURKX","address":"JAFWZAFZOSVWXXUOY9MCZCSVMGSOSWZXCICXQMANRMSWBLJABCAYOVVJEDTASGEMLXGSYIDWBXRMPGL9D","optimalPurchaseTarget":-100,"optimalPurchaseTargetScore":-100,"availablePurchaseTargetList":[],"optimalSaleTarget":-100,"optimalSaleTargetScore":-100,"latitute":"52.288747","longitute":"-1.813468","amountDemanded":"4","pricePrefered":"14","distancePrefered":"13","energyTypePrefered":"4"},{"index":203,"seed":"LIFFSEYILLWQJSUKHCBYBPWYKAWTGCJ9NPPYXNNEYCSJAAHWKQFU9Q9SRWTTICDHPOQYHHV9KU9CUNKIC","address":"EUIHQEBFFWTZIYGXWHKTFZZXY9ZBEPXHCGKHR9PYGPKEZGSNGZMBODTCNZIBXIK9LKUPIH9NBLUSDH9VZ","optimalPurchaseTarget":-100,"optimalPurchaseTargetScore":-100,"availablePurchaseTargetList":[],"optimalSaleTarget":-100,"optimalSaleTargetScore":-100,"latitute":"51.349486","longitute":"-0.443828","amountDemanded":"4","pricePrefered":"14","distancePrefered":"13","energyTypePrefered":"0"},{"index":204,"seed":"ESADDVCVT9XKNOIVELNTIIMEFCTMPJTSNQQLBCOPBXUKFYSNRYHLJYO9ERYYBBIGMAVRNUJJFRKONRSKE","address":"OOQSVAYBTULPPPOQMHACCXTCFKVZXMUYAJMPQYBJJBMBHXWLRRTYYHYGVQFSAG9Q9RAQPZWYXPVV9NJKB","optimalPurchaseTarget":-100,"optimalPurchaseTargetScore":-100,"availablePurchaseTargetList":[],"optimalSaleTarget":-100,"optimalSaleTargetScore":-100,"latitute":"51.257695","longitute":"-1.742577","amountDemanded":"6","pricePrefered":"16","distancePrefered":"15","energyTypePrefered":"2"},