[{"index":0,"seed":"XHYGQDKKOMESPEMCUCTUOHJSWQEFBEFEXMOP9NSGDNPBDVQRHENPDMXCRMNSNFRQQIBLDB9JR9ALGP9WL","address":"XUCBUYYDTLJOFTXJTQVFT9XETZQNIZECJHGUKVRDWARTSUPCLINYFERIRZKAXKCJOYQPOJLSBCA9IRIGY","optimalPurchaseTarget":-100,"optimalPurchaseTargetScore":-100,"availablePurchaseTargetList":[],"optimalSaleTarget":-100,"optimalSaleTargetScore":-100,"latitute":"51.548629","longitute":"0.143735","amountDemanded":"2","pricePrefered":"15","distancePrefered":"13","energyTypePrefered":"3"},{"index":1,"seed":"SUEOB9RONOIIJKVPIHOKVEQJTEFSOQHUULPWAKXPDBW9OGORTWXHBXUBFEJMNJOMKXBIJKYUTNJICFJEV","address":"YAHDANAIFBKEBBAE9FOAUKMZGVXPBVTCLCH9AEJYEZEBCBZDPK9MRSTQOQ9HYVTRUKNZLKXOJTALSADZW","optimalPurchaseTarget":-100,"optimalPurchaseTargetScore":-100,"availablePurchaseTargetList":[],"optimalSaleTarget":-100,"optimalSaleTargetScore":-100,"latitute":"51.432601","longitute":"-1.242824","amountDemanded":"6","pricePrefered":"15","distancePrefered":"13","energyTypePrefered":"1"},{"index":2,"seed":"YIOXLBI9BJI9COPMNGDDXMAWVOTTRMQTPHSTTGGXEVYM9TL9VJOLVQAAXFUKWLHWVIVACI9JIYMJINJRJ","address":"UCBOM99LGJWQQ9ETBOYUJCSUMKOSEAEHMWQEYHHIEPJQTEMPAO9SMOKYVMUYITKD9LQBBEOOEJVHDDBGW","optimalPurchaseTarget":-100,"optimalPurchaseTargetScore":-100,"availablePurchaseTargetList":[],"optimalSaleTarget":-100,"optimalSaleTargetScore":-100,"latitute":"51.533712","longitute":"-0.815742","amountDemanded":"6","pricePrefered":"15","distancePrefered":"12","energyTypePrefered":"1"},{"index":3,"seed":"DQBOBSRNHRGJVHRSDYSBJGXCTEISGYLHYHVIKTHQ9BXBUJMNWVJHJXK99DTECTQXKCLYJWCVRDEGBW9TI","address":"TI9EUUEHIGKPRHZDWWSRRL9NLBMYRMWDNXLARUXEOS9ST9METJLDSHPBKBDYPDWIVJ9MPBJMDGJDEDGVX","optimalPurchaseTarget":-100,"optimalPurchaseTargetScore":-100,"availablePurchaseTargetList":[],"optimalSaleTarget":-100,"optimalSaleTargetScore":-100,"latitute":"52.369028","longitute":"-0.396918","amountDemanded":"4","pricePrefered":"16","distancePrefered":"15","energyTypePrefered":"3"},{"index":4,"seed":"9H9FDHVDWBJDJY9XXDSWQSNOEGPXCMBDXKBLOTJPJXPNFMT9UCTDSUSLHHSLAMLW9A99EGQ9CLMXYXETK","address":"MALWGYJXTNBTFXNTBMSRIEZKFHL99ANUN9ANBAENPUCVHBIHTTJ9EFJYPDAVJBPASP9J9P9RWROIIE9QX","optimalPurchaseTarget":-100,"optimalPurchaseTargetScore":-100,"availablePurchaseTargetList":[],"optimalSaleTarget":-100,"optimalSaleTargetScore":-100,"latitute":"52.406773","longitute":"0.030717","amountDemanded":"3","pricePrefered":"15","distancePrefered":"15","energyTypePrefered":"3"},{"index":5,"seed":"CUFGHO9QAQKMNRM9GKSPQD9NDLPNDKNBQYLYYEWQEYCLJXRHTWS9QPUXFKVIK9LH9NDHIQTYMNA9BNFSE","address":"LYOLCTFHBK9EFXNTNDMNZJFQNU9IKXVUBYIPDEVAQEJZMLXIYYUYCDODTQFTTKHNMCCKHJJXVIEEPTUHZ","optimalPurchaseTarget":-100,"optimalPurchaseTargetScore":-100,"availablePurchaseTargetList":[],"optimalSaleTarget":-100,"optimalSaleTargetScore":-100,"latitute":"51.547190","longitute":"-1.254807","amountDemanded":"5","pricePrefered":"15","distancePrefered":"11","energyTypePrefered":"2"},{"index":6,"seed":"PTLEMYMVJJAAOJAKJNDUFGUJPJLWEHDRYSTFURBENSHQCGEYWNUUAFPTWNMEOJOHXEBYOCGSLEROQATMM","address":"VCULALUOPTFWYTTFSYYJITTYDSULAGFQUXKZ9YYFTBOWAYMTVSBIXPOUXWSNOETPHSLMLROUSUXW9OYQ9","optimalPurchaseTarget":-100,"optimalPurchaseTargetScore":-100,"availablePurchaseTargetList":[],"optimalSaleTarget":-100,"optimalSaleTargetScore":-100,"latitute":"50.959809","longitute":"-1.718630","amountDemanded":"6","pricePrefered":"14","distancePrefered":"14","energyTypePrefered":"1"},{"index":7,"seed":"CQHDTSUUW9XFIIBBHMBDUWXJVKJGKKBXWOEVKTVVTY9IURUARRE9NW9MVHWJPOVDJLODCMINKQJAAO9HW","address":"ZWARAFKGPNEKMBPWTCMNPVKVHKVBNEFQQHAWM9LW9RMZA9RGKNFDBHJDODEQ99HXROYNCHRDXTEMXZZND","optimalPurchaseTarget":-100,"optimalPurchaseTargetScore":-100,"availablePurchaseTargetList":[],"optimalSaleTarget":-100,"optimalSaleTargetScore":-100,"latitute":"51.888352","longitute":"-2.177050","amountDemanded":"4","pricePrefered":"15","distancePrefered":"11","energyTypePrefered":"3"},{"index":8,"seed":"KW9WGLFQOIGDPKBLSJLQJXVWLKMTLXWULWOUQSAOJTTCOXIGIAEXYKJLYYVIPWBWJOOPAASCWAFUVRSTS","address":"GSXONARBGQPU9UNKFQHBGYLWYISLTTXTYBIDKYNKBXZFWLOGOLUC9OJRMVTFOMXCULYCWFCHIPFGGWVPD","optimalPurchaseTarget":-100,"optimalPurchaseTargetScore":-100,"availablePurchaseTargetList":[],"optimalSaleTarget":-100,"optimalSaleTargetScore":-100,"latitute":"51.542992","longitute":"-2.115298","amountDemanded":"3","pricePrefered":"14","distancePrefered":"12","energyTypePrefered":"4"},{"index":9,"seed":"SJQATEQQTGYAGDLIQXBATXROCWWUFWS9MHKGECGYMHDVJDCUDSESJYMWYRNVUDAI9KUGFLIOS9KIQLSDQ","address":"OMWMCCSPMQJDFOOWYPJJGMPDVGIXRUWJCJFEFQFGBDLVAC9DAHGCJ9APLEW9DNBRA9GWMEJQHOKA9YZLX","optimalPurchaseTarget":-100,"optimalPurchaseTargetScore":-100,"availablePurchaseTargetList":[],"optimalSaleTarget":-100,"optimalSaleTargetScore":-100,"latitute":"51.338157","longitute":"-1.022569","amountDemanded":"4","pricePrefered":"16","distancePrefered":"14","energyTypePrefered":"3"},{"index":10,"seed":"CLIWMHLO9PFCFWXTHUQKPBTTUVTJDXEMOLDPSJTGQLMLHHNNFJXVMDDGEWPAYLIWPGMCDYUD99K9PJOGC","address":"PDZMCRFAHFWQZZNGNXVBYTNPYUNPTWZBZPJHMXFKFQXWPODETKLGNCQ9BVUWALQLZEJEMGRCITFMVUQRD","optimalPurchaseTarget":-100,"optimalPurchaseTargetScore":-100,"availablePurchaseTargetList":[],"optimalSaleTarget":-100,"optimalSaleTargetScore":-100,"latitute":"51.962242","longitute":"-2.070623","amountDemanded":"3","pricePrefered":"16","distancePrefered":"15","energyTypePrefered":"1"},{"index":11,"seed":"QPWMYTAJSMTXDLPSJX9KOOMTJNTGOVBBTMXG9TRDYGVQXBJBROLVFUTCSSRXX9O9WHDBWXO9TAXXFUTPV","address":"UTUBAXYNQGFPWUWZFAGIZQEYFRCI9JWDN9EEDNXCAHBCVPYSMWKRONLAJHU9YFGLAWMQ9TOUGGQI9YPEC","optimalPurchaseTarget":-100,"optimalPurchaseTargetScore":-100,"availablePurchaseTargetList":[],"optimalSaleTarget":-100,"optimalSaleTargetScore":-100,"latitute":"51.153298","longitute":"-1.938959","amountDemanded":"4","pricePrefered":"15","distancePrefered":"13","energyTypePrefered":"4"},{"index":12,"seed":"AIFJEGGIQQMPYFPLHSOPMEPJGRVCL9YCLEHMOQSQJDXPQRSKCVOCCXSDFIWHUUKUTNGOXLAIXCDXEEWKD","address":"RUW9GYCATWPGFHUDISGOFQFCN9AQOTWZKNXARR9RLKKBGIJNCFYPFTFERUSSHD9OSJQCGMBNHOWNIIWHX","optimalPurchaseTarget":-100,"optimalPurchaseTargetScore":-100,"availablePurchaseTargetList":[],"optimalSaleTarget":-100,"optimalSaleTargetScore":-100,"latitute":"52.138079","longitute":"-1.515171","amountDemanded":"3","pricePrefered":"16","distancePrefered":"11","energyTypePrefered":"3"},{"index":13,"seed":"AJJPBURIOSPJHTCANKWLXQCFXPXFPAWFWRHBWGWBEEPAPGWXQNBXIMQNBPKLNSXYLDPICIHIPMMNJEIDU","address":"BJNXPKRTXDCWHQMLNMSQAFSYCNHSRWVFDFKMPKU99U9FZV9CXZMLHTLBUSCKBXGZDWCOXGOKMIOIVVCKZ","optimalPurchaseTarget":-100,"optimalPurchaseTargetScore":-100,"availablePurchaseTargetList":[],"optimalSaleTarget":-100,"optimalSaleTargetScore":-100,"latitute":"52.067882","longitute":"-1.778723","amountDemanded":"3","pricePrefered":"14","distancePrefered":"12","energyTypePrefered":"2"},{"index":14,"seed":"LXGHSBBTWECAUMKBSBGFTGWGRAPNUMHSVNSCPHUGDOWVMOS9HKUOSVIYPSTBQQGHXXGP99GLIUNGJEJAO","address":"MRBCHSFMKUBUDIDFNUHSGREHCUJYYHYJZGEEQEJVHBYJOBFKV9ZQXPTOSHHPDFBJGKEHLTGEILXEKRVLB","optimalPurchaseTarget":-100,"optimalPurchaseTargetScore":-100,"availablePurchaseTargetList":[],"optimalSaleTarget":-100,"optimalSaleTargetScore":-100,"latitute":"51.891085","longitute":"-1.916640","amountDemanded":"2","pricePrefered":"16","distancePrefered":"11","energyTypePrefered":"3"},{"index":15,"seed":"9LXH9ELYIFETGQIBEVJCGCPYSSCTFUOPCEYWIPA9ADMGRTDO9GOHNVUNCHQQHFGDEYTGG9ORIRGWDQXBA","address":"RQRGPOUPIDJJONWSPDGCYUXFXATCSDW9KJONZPBPJWDVQUWLE9EEUWBEOZYLUOWSXPBKQCETIFWVNGSUA","optimalPurchaseTarget":-100,"optimalPurchaseTargetScore":-100,"availablePurchaseTargetList":[],"optimalSaleTarget":-100,"optimalSaleTargetScore":-100,"latitute":"51.663836","longitute":"-1.720565","amountDemanded":"1","pricePrefered":"14","distancePrefered":"13","energyTypePrefered":"3"},{"index":16,"seed":"OR9JLHPVOIQQRHWICSRCENYDPTQXAGLE9XGDCIFWWEXPIEGDACQRFOHEJNQKGHIODQXVOTFYNLJUVLT9T","address":"XX9WNW9AJFR9EKNOYZHRRIBBOHWGZIPWMI9CFKHAKC9FPMAQAQAZ9T9SDQEDBMDHTFXAJERLDXOSRPJSD","optimalPurchaseTarget":-100,"optimalPurchaseTargetScore":-100,"availablePurchaseTargetList":[],"optimalSaleTarget":-100,"optimalSaleTargetScore":-100,"latitute":"51.169279","longitute":"-0.166455","amountDemanded":"5","pricePrefered":"15","distancePrefered":"11","energyTypePrefered":"3"},{"index":17,"seed":"LKXDUHKSD9OURWUAQI9XDSHKUMGESHXDTYKHDKHO9FW9VNJHEQLFHWSOJPVFHCTQKQ9GQMRKVGQQQUQGR","address":"DQXXMZSIZFIATRLHXBAONELHOHJEELXNMHOFBLRPCNRR9MIOZVKCGGULTNJ9EWFSOBOZLOTWJZGZNKCN9","optimalPurchaseTarget":-100,"optimalPurchaseTargetScore":-100,"availablePurchaseTargetList":[],"optimalSaleTarget":-100,"optimalSaleTargetScore":-100,"latitute":"52.408663","longitute":"-0.960904","amountDemanded":"3","pricePrefered":"14","distancePrefered":"13","energyTypePrefered":"3"},{"index":18,"seed":"DIVTRWMCYM9NHUOYHSTJBGUDAOFXYKWEDFBTGUVTKSKYPQFOCOMWNRJLEMQPOHSNKCRWMQPATGAAALVVI","address":"VWASKWOKMPADYHJEGRXHNEJYSE9ZCRHBRPCUBTGLWAETJLFPUNUWXBNCITOTGRAJNPIRHPCZCV9WZRKG9","optimalPurchaseTarget":-100,"optimalPurchaseTargetScore":-100,"availablePurchaseTargetList":[],"optimalSaleTarget":-100,"optimalSaleTargetScore":-100,"latitute":"52.058490","longitute":"-1.682430","amountDemanded":"4","pricePrefered":"16","distancePrefered":"14","energyTypePrefered":"1"},{"index":19,"seed":"EUHXDGRUCMYGGJTMPURTLAITPRO9QJAQMO9HMDYFKKRPHVUMWJNNVJNJCIM9OMKUFD9WYPIEOTUPYJXLO","address":"MEUBZFHLJLEUGVHRREQBD9AJFQGOMPVKKKGJFRASQCFLZFJGDRMEXJJSYTN9FKDKWAHSIFOHJBDVYQBGC","optimalPurchaseTarget":-100,"optimalPurchaseTargetScore":-100,"availablePurchaseTargetList":[],"optimalSaleTarget":-100,"optimalSaleTargetScore":-100,"latitute":"51.084470","longitute":"-1.918928","amountDemanded":"6","pricePrefered":"15","distancePrefered":"11","energyTypePrefered":"1"},{"index":20,"seed":"I9DWQDXXENHYKRCNRBAVQCRRFCBRIKASMJMSYXHMDBFUCYQFYFVJUDSXE9TMLHNLVREOIUENFMTPEYLI9","address":"CMFFA9T9PWISNMJTFZHMNZXGCPACHPT9UZMTG9MZCOJSUBZAXRVSPOEVRCHENFCLQOPAZGNZKATOVUTOY","optimalPurchaseTarget":-100,"optimalPurchaseTargetScore":-100,"availablePurchaseTargetList":[],"optimalSaleTarget":-100,"optimalSaleTargetScore":-100,"latitute":"52.308971","longitute":"0.240047","amountDemanded":"1","pricePrefered":"16","distancePrefered":"13","energyTypePrefered":"3"},{"index":21,"seed":"YRO9EETTOQGQGSMPOMTYDFRUPJCIWOCMJRWGMBT9QFY99VVXTFOISPKCJYIBYKWEIIYHUNXNTINXXPFXP","address":"GHWC9QNQRZXG9BRYHNFMCGZBGONXOAO9RZBTSZMQVLDPTCEZESZJMWQMEXIAKGSTZQQNDAPTTDWKPWMVB","optimalPurchaseTarget":-100,"optimalPurchaseTargetScore":-100,"availablePurchaseTargetList":[],"optimalSaleTarget":-100,"optimalSaleTargetScore":-100,"latitute":"52.388985","longitute":"-0.803409","amountDemanded":"2","pricePrefered":"15","distancePrefered":"13","energyTypePrefered":"3"},{"index":22,"seed":"MFIQNKQEECENFJCYAELXBJRMIM9JR99PYDOVLHPCINGHAHHRREFBGKMP9URVYFFM9P9EMKKLH9CHPTPRS","address":"HXZUXHXBPPDXUGUFZVZOYRHLRUHNUZZPHIS9WIIXQLUJKRMHAUXVQLFTWHX9ICX9MUAAGNIFJWI9YNMA9","optimalPurchaseTarget":-100,"optimalPurchaseTargetScore":-100,"availablePurchaseTargetList":[],"optimalSaleTarget":-100,"optimalSaleTargetScore":-100,"latitute":"51.411212","longitute":"-2.365430","amountDemanded":"3","pricePrefered":"15","distancePrefered":"15","energyTypePrefered":"4"},{"index":23,"seed":"INWCIXEUCHBOORRU9WGSEUIKACVROGWYOYRTAIEGEJGFEFIKQSYWJVJCGVMFTPBW9YRIPBYPFIUORDYXU","address":"CUCDOMPHXN9QVYILVACFWTFXIVSRXNQXLZTRPYHEJISBZBKZZPRYRR9XVZTQAJOJKAZNVFSTZYVWRENJD","optimalPurchaseTarget":-100,"optimalPurchaseTargetScore":-100,"availablePurchaseTargetList":[],"optimalSaleTarget":-100,"optimalSaleTargetScore":-100,"latitute":"51.593677","longitute":"-0.488011","amountDemanded":"4","pricePrefered":"15","distancePrefered":"13","energyTypePrefered":"2"},{"index":24,"seed":"9LQMAGFIAODOAUJV9FAFEROTMGQVGRINMLXXWOIKPUWJTQIURWW9STJBFXQDJSBTQJLXEQMCS9OMR9DDS","address":"UYGURMIAOPXMGTHCMIYXSTCABEIDTWDUJAK9HVZRDCAQFUSKCRXRTLV9ILUMAGU9JJGNROOSKNPFLBJYD","optimalPurchaseTarget":-100,"optimalPurchaseTargetScore":-100,"availablePurchaseTargetList":[],"optimalSaleTarget":-100,"optimalSaleTargetScore":-100,"latitute":"51.857005","longitute":"-1.500925","amountDemanded":"2","pricePrefered":"14","distancePrefered":"14","energyTypePrefered":"2"},{"index":25,"seed":"LUYCJHJMSGSJKNLKBSBLKKNJFSXWCKSSRFDBIFG9J9CQUOJYMSXHOORIPSDQKNBTKNOJXLULLPETUBCYE","address":"IBNBNGCWKEFCDAGRRIOBKTLLSIRKPMTFYWKAKMVOAILCQWHMKUY9P9YSNXZFBUVJUXJPSXRVHRJJMJDHW","optimalPurchaseTarget":-100,"optimalPurchaseTargetScore":-100,"availablePurchaseTargetList":[],"optimalSaleTarget":-100,"optimalSaleTargetScore":-100,"latitute":"51.693650","longitute":"-0.035625","amountDemanded":"5","pricePrefered":"15","distancePrefered":"15","energyTypePrefered":"2"},{"index":26,"seed":"NNODADV9TGOUHVXPKDBXNEIOSC9CVUSFSAHLYSXBXJVRXGOYSLGFXBODTUJOVMBCACSLIHXTNKIDAHSNK","address":"FOMRYYKJDYGIODZLCGSGA9YMKMXHJMQBDUKLLCQNNMNCHSNDFKEFFEPDOT99OPTICHPFJADXFDRCOCGND","optimalPurchaseTarget":-100,"optimalPurchaseTargetScore":-100,"availablePurchaseTargetList":[],"optimalSaleTarget":-100,"optimalSaleTargetScore":-100,"latitute":"52.141119","longitute":"-0.579351","amountDemanded":"6","pricePrefered":"14","distancePrefered":"12","energyTypePrefered":"3"},{"index":27,"seed":"IRNXIOLOMJRUALSWEKMNXRXNWFHTYHTYOSSFUVHEQTJQXKXCUSLHQINQHWYXTXVARHVQTMSFJGLGOPEVY","address":"OTIBSFQSVUUXYXQFRLOWSKLHMVGC9VEGGKHXOO9GUNABOARUFFFLKGTUAFB9VWKVITACQSENLMHKT9QTC","optimalPurchaseTarget":-100,"optimalPurchaseTargetScore":-100,"availablePurchaseTargetList":[],"optimalSaleTarget":-100,"optimalSaleTargetScore":-100,"latitute":"52.048411","longitute":"-0.811366","amountDemanded":"4","pricePrefered":"15","distancePrefered":"12","energyTypePrefered":"0"},{"index":28,"seed":"MLPYOYDMRHOVLOFPASTKOONFJPYKFQALWHYQYWXYE9ENLJTPSOEIISWKYRFI9UMFVKLIRLBFIRXKDNROG","address":"AB9VIYCSGEWPVVQCPEDOJFPRJVRSFJLLZZGKD9PHONGIRLIZJGNBPJQZZPJGXHJVNYFWGRSZTDIWYUDMW","optimalPurchaseTarget":-100,"optimalPurchaseTargetScore":-100,"availablePurchaseTargetList":[],"optimalSaleTarget":-100,"optimalSaleTargetScore":-100,"latitute":"51.080305","longitute":"-1.150574","amountDemanded":"6","pricePrefered":"14","distancePrefered":"14","energyTypePrefered":"3"},{"index":29,"seed":"YUYDDVIBGPIECJDFSCPPLUVCXFYYHVTOFOJEKJWCTDRVCAWGKNKGUGAPNVVJKUQYDLQOVHYHMM9DSCCTU","address":"XFBJZKALPLKMFADNEZLBAJJOUZQZQFOFFDASDADKDCXHJQEIDSXAJLXLYAVPOTI9GWTYVBREZCBYWFAAW","optimalPurchaseTarget":-100,"optimalPurchaseTargetScore":-100,"availablePurchaseTargetList":[],"optimalSaleTarget":-100,"optimalSaleTargetScore":-100,"latitute":"51.203050","longitute":"-1.270770","amountDemanded":"4","pricePrefered":"15","distancePrefered":"11","energyTypePrefered":"3"},{"index":30,"seed":"MNYFIEXVOYOVXUEETG9UIWTYGROD9DSYFOMTAUBMFBSULUOBKNAPFLQLBAYKVCY9EWTSBQQCSGY9BCXWF","address":"OOCUYDJSLGUJULLYOWZOQLJWI9FUUVWPYOSOJGULGYVEZJCJJZCCAWJLKP9FQZCV9HFULBUB9LTFKMRDC","optimalPurchaseTarget":-100,"optimalPurchaseTargetScore":-100,"availablePurchaseTargetList":[],"optimalSaleTarget":-100,"optimalSaleTargetScore":-100,"latitute":"52.278062","longitute":"-1.200139","amountDemanded":"5","pricePrefered":"16","distancePrefered":"12","energyTypePrefered":"3"},{"index":31,"seed":"MHSIBXJOKIMECKPLYXITNPKQBWYWFVUEOOHILMJPLG9CQKFTPDPJDKMWNINEPDONNPM9LYSNODTOIAQHI","address":"W9CMBTW9IFQULITLMOSREYXIOKZMCMHMDOSUWMDLU9ZJSSQYYP9JGNI9GCXGIVLQRGQV9KCOHCSDX9LD9","optimalPurchaseTarget":-100,"optimalPurchaseTargetScore":-100,"availablePurchaseTargetList":[],"optimalSaleTarget":-100,"optimalSaleTargetScore":-100,"latitute":"51.042355","longitute":"-1.002254","amountDemanded":"6","pricePrefered":"15","distancePrefered":"12","energyTypePrefered":"2"},{"index":32,"seed":"IITKSXDKOOPRGUOIPQDITQYDFRTTVWIMSASJQWLGPSAKUQCHNEAXDPPMDOW9MAN9UCUNCKTAAIUTEFQMO","address":"UQMFVWESCPSHUAZDYHRGCGIAMHAEPSZBQVCIMFPALWUKWWHCUWUBBEKMNCOQKZJ9GYOLIRGIEPJLXZHUA","optimalPurchaseTarget":-100,"optimalPurchaseTargetScore":-100,"availablePurchaseTargetList":[],"optimalSaleTarget":-100,"optimalSaleTargetScore":-100,"latitute":"51.584407","longitute":"-0.402491","amountDemanded":"3","pricePrefered":"16","distancePrefered":"13","energyTypePrefered":"1"},{"index":33,"seed":"LBKTREVBCSPLBOBNRTHEHUFHTYNOEJBKNJALKTJRYIJURYIIODPOXGXX9FPIJEAMRRGFXOYEIMIOLUK9Q","address":"9GEQBGAMKEGL9OWQWDGQOZZDOUKEJMEBAVLDEDCUSLRCAJPMJGLCVAGMSBEHQINFXJPWMTVWFLCKOYNDA","optimalPurchaseTarget":-100,"optimalPurchaseTargetScore":-100,"availablePurchaseTargetList":[],"optimalSaleTarget":-100,"optimalSaleTargetScore":-100,"latitute":"52.437330","longitute":"-0.579489","amountDemanded":"2","pricePrefered":"16","distancePrefered":"11","energyTypePrefered":"2"},{"index":34,"seed":"MAKTMUEGQDUDRUHXB9D9SDCYDPKSGBXXQALHIP9XQKFTQHNMSUESYCBLLFFGKUTMFOE9BWFGWYEJIRUFB","address":"ERRKS9VHGNHQFDEFEXNDFDFSUWH9MNIPSLWZFZRRBMQBGNOZOHAGJUOJKWHHZJJQVDIYZDSREZZTFVMMC","optimalPurchaseTarget":-100,"optimalPurchaseTargetScore":-100,"availablePurchaseTargetList":[],"optimalSaleTarget":-100,"optimalSaleTargetScore":-100,"latitute":"52.014655","longitute":"-0.010333","amountDemanded":"2","pricePrefered":"16","distancePrefered":"12","energyTypePrefered":"1"},{"index":35,"seed":"KLDTYJCLSE9KKDMJ9UIPKKOUGGCSJORPSFV9RNDYJFLCRARXTRELNLCUEAA9A9GBMTDMAGLVAQLSASPMV","address":"AQVZGWGEK9YJ9TFOJKYBEKUXWOKHI9OYPPIEJKM9BETKPHGCKTLDNALSBGRFZNDPEITTAQOSKHVAHVCSX","optimalPurchaseTarget":-100,"optimalPurchaseTargetScore":-100,"availablePurchaseTargetList":[],"optimalSaleTarget":-100,"optimalSaleTargetScore":-100,"latitute":"51.614861","longitute":"-1.359426","amountDemanded":"4","pricePrefered":"16","distancePrefered":"11","energyTypePrefered":"2"},{"index":36,"seed":"KUSCSJ9WUDJGBTVVLVBERLMUWVQVEIW9KGBEGRVCOADEMCMPYTGRJDCPXKUQBTYJANLDGGREJR9USWHYD","address":"GUHUFMSP9ZCQTGTBQBOQQDVKIQIVBNB9KJMBRBDUYBCAWJBSMSGCZ9UHYSCUNMBSPCNCRUYGNL99VNB9D","optimalPurchaseTarget":-100,"optimalPurchaseTargetScore":-100,"availablePurchaseTargetList":[],"optimalSaleTarget":-100,"optimalSaleTargetScore":-100,"latitute":"51.056357","longitute":"-0.651294","amountDemanded":"4","pricePrefered":"14","distancePrefered":"13","energyTypePrefered":"2"},{"index":37,"seed":"XUDRDTATLWQBEXOHEOIHMSXOLOKWMRUGVBFAEFKPCKSTIANXXFHCROODARMTMIHINMJKAKYJLJMGIMNWW","address":"HVNMTZFBPHLFZUWDSWJBTB9WZOMMSWQPDPPOOAKXETMLGBTIOPEARIAYVZRNYDMV9HKKISFRQMVQDTONW","optimalPurchaseTarget":-100,"optimalPurchaseTargetScore":-100,"availablePurchaseTargetList":[],"optimalSaleTarget":-100,"optimalSaleTargetScore":-100,"latitute":"52.396865","longitute":"-0.051986","amountDemanded":"4","pricePrefered":"14","distancePrefered":"13","energyTypePrefered":"2"},{"index":38,"seed":"HCQOYDJJTNMECRYHNWLUPIDQSBXGPIATCTHLM9RRNAWIXCHIYFJRYEBELLSIYTM9NNKWIGUFYORKSMEGR","address":"WGSPFRLFOVPWLMUWYDSDVBNLURNVTSGQ9DOFUMGAFKCATVEX9GCUFDEYZPSTHEEUZAWHKYLHBZDMXWQLW","optimalPurchaseTarget":-100,"optimalPurchaseTargetScore":-100,"availablePurchaseTargetList":[],"optimalSaleTarget":-100,"optimalSaleTargetScore":-100,"latitute":"51.184288","longitute":"-1.427940","amountDemanded":"3","pricePrefered":"15","distancePrefered":"13","energyTypePrefered":"3"},{"index":39,"seed":"MGLYCUFRVVVCEXINWQRTJSDOPUCGHOJXCTLNWFWW9AT9CCVKOBPTP9ARKUPRBTDQ9FF9NFVQAYINHSG9E","address":"RURMSQUKYEXDQHYWBFQIFWOLTVL9HWBP9ZXFOPJMEAGHEETWNBBJOGIIQJDIOMKVFMQYUWWYQYDQXIKKC","optimalPurchaseTarget":-100,"optimalPurchaseTargetScore":-100,"availablePurchaseTargetList":[],"optimalSaleTarget":-100,"optimalSaleTargetScore":-100,"latitute":"51.077479","longitute":"0.283620","amountDemanded":"2","pricePrefered":"15","distancePrefered":"11","energyTypePrefered":"3"},{"index":40,"seed":"BWM9GRFXBVYEEIVUDCQEBSOJINQVJ9OKXMLSNDALFGDBGM9YCSKSEXEW9SFWGOFXLFAF9TOENOQPIPJ9B","address":"LCKOAYZNURAQFBYPKSQURILPE9YMPQEOL9QBSCGEZATDCOJ99JWDOVZXSPDFZZHYDCIQZWMLBBHWRWBED","optimalPurchaseTarget":-100,"optimalPurchaseTargetScore":-100,"availablePurchaseTargetList":[],"optimalSaleTarget":-100,"optimalSaleTargetScore":-100,"latitute":"51.595833","longitute":"-2.194701","amountDemanded":"5","pricePrefered":"16","distancePrefered":"15","energyTypePrefered":"1"},{"index":41,"seed":"JCBODCITXEAFEIAMCMNMVKJQMGSCDWWHSWWEJXHDIACOEYRUVMOJVQYTRNTQHLYI9FRPSXRFOQDBCYDV9","address":"9QKOT9SDKVUVDTGXTCBLVOQJJZKVOEYFYCCDHMQCHWQCFWWABHPYHVRXPKKIHDEOLVLFKGCXILZJBWLUZ","optimalPurchaseTarget":-100,"optimalPurchaseTargetScore":-100,"availablePurchaseTargetList":[],"optimalSaleTarget":-100,"optimalSaleTargetScore":-100,"latitute":"51.310238","longitute":"-2.362464","amountDemanded":"2","pricePrefered":"14","distancePrefered":"11","energyTypePrefered":"0"},{"index":42,"seed":"ASBHDNRWLKBWIBGQ9NXYUQLXEMWJOKTHGWTNPFFERMBJLCGXSLQBIRVWDHJGSWJKGCANQNXESGLOUVNFV","address":"QVKQEWMZWNIAQUFTLEOZYUDTHJHZ9GEXXZRCOQSMMLXMUVNDPBNDKJNRCMDJELIZLWPSLZ9NOTPNTGHFC","optimalPurchaseTarget":-100,"optimalPurchaseTargetScore":-100,"availablePurchaseTargetList":[],"optimalSaleTarget":-100,"optimalSaleTargetScore":-100,"latitute":"52.306397","longitute":"-0.058237","amountDemanded":"5","pricePrefered":"14","distancePrefered":"12","energyTypePrefered":"2"},{"index":43,"seed":"EBNUTW9RUHASDBOUPBHWPSHJQPTCMT9LVPCYEEQRCY9HNSFFLJBXCIYXVYOGAGYTIVYQPDUTYMYRQMMKH","address":"KQPHUOSTA9YNNRVNCRYJDAYRM9DTXKKJWNDZRSIHBEBXDFDUBXMJDZWOEUSKEMKMFBKTZHMVAGAYNQLVB","optimalPurchaseTarget":-100,"optimalPurchaseTargetScore":-100,"availablePurchaseTargetList":[],"optimalSaleTarget":-100,"optimalSaleTargetScore":-100,"latitute":"51.446083","longitute":"-0.036692","amountDemanded":"4","pricePrefered":"16","distancePrefered":"13","energyTypePrefered":"1"},{"index":44,"seed":"FBKYEE9YUOMXHWVRRDCRQKXIICCVTLYUWDXSEAWEUHCTHMXIYHFVJYEDUFUWHBNLOYJCLJGLHFQQAJRRM","address":"IESZZEYMGKFXMXZNZLXFTTAZOHFRDXUCIUPFQLEQBYJXJMOCU9ZNTFWMYMMTYBDTTDGAD9MYDRDQZAAYW","optimalPurchaseTarget":-100,"optimalPurchaseTargetScore":-100,"availablePurchaseTargetList":[],"optimalSaleTarget":-100,"optimalSaleTargetScore":-100,"latitute":"51.163341","longitute":"-1.574189","amountDemanded":"2","pricePrefered":"15","distancePrefered":"12","energyTypePrefered":"0"},{"index":45,"seed":"MLDKPADQQGQXFNOODAMEDFHRFWIUL9MRFOHWWXCAOHCQWPGFAMYLMMOPRGMLNTPT9KLUEBAV9XNPEXYXP","address":"FWFQBHYOFHLGTXJBSFGTVESK9HWDXEYUVHWNVTGUEIBKTDPEAHSXALIBETNAXQOOOKKWMPBXAXSBSKDND","optimalPurchaseTarget":-100,"optimalPurchaseTargetScore":-100,"availablePurchaseTargetList":[],"optimalSaleTarget":-100,"optimalSaleTargetScore":-100,"latitute":"52.229273","longitute":"-0.581387","amountDemanded":"2","pricePrefered":"15","distancePrefered":"11","energyTypePrefered":"3"},{"index":46,"seed":"OLGVPN9CGVNMJXUYM9WJUPNGMHGRAWO9IGPBNMTOPNXXWXGNSUSTCXDKJQBJUWBPGCHFXKPQNVCDOC9WB","address":"YGFQOELLHZZBITFJOIHWNEGMCSHOSIIWKACXINRJTZOAQJBGCWDMWI9FYPRNFKHFSBLQLXGSSFBKXFCX9","optimalPurchaseTarget":-100,"optimalPurchaseTargetScore":-100,"availablePurchaseTargetList":[],"optimalSaleTarget":-100,"optimalSaleTargetScore":-100,"latitute":"51.404943","longitute":"-1.016064","amountDemanded":"1","pricePrefered":"16","distancePrefered":"14","energyTypePrefered":"2"},{"index":47,"seed":"JXQVUUKWDCEXGHNDUFVXFDNTYEIE9IGKSWUYCVGEEIVQSCAINKXGUMBCEKLWMJDGO9KYWUNQYXLTQEXWG","address":"IIMPIALXBGFCOSYOCODBZTDPYEWBTFPCEQR9FAMFDGWKKOTZDEHPUHGNMNNEWBGQ9JPWWYBPPGKOUAITB","optimalPurchaseTarget":-100,"optimalPurchaseTargetScore":-100,"availablePurchaseTargetList":[],"optimalSaleTarget":-100,"optimalSaleTargetScore":-100,"latitute":"51.626196","longitute":"0.270993","amountDemanded":"4","pricePrefered":"15","distancePrefered":"12","energyTypePrefered":"2"},{"index":48,"seed":"KWINYKPIKJVCUQTRNPSXEHUQMYHUWIJJRKMCJ9QUAKEHUKJUSSB9XSWTNPVXFJWHYJDDPESGRQDRWVUDG","address":"LYICFLONGFSBDWKRCTRIGBBPZUQYTNZUQLBFTDHRAHMXVBKYPQSSWOGLBVOJHP9JQELJCKIOHIFNSLYGA","optimalPurchaseTarget":-100,"optimalPurchaseTargetScore":-100,"availablePurchaseTargetList":[],"optimalSaleTarget":-100,"optimalSaleTargetScore":-100,"latitute":"52.414152","longitute":"-2.375586","amountDemanded":"2","pricePrefered":"14","distancePrefered":"14","energyTypePrefered":"2"},{"index":49,"seed":"BANEOHHWHSULLOIS9RJPDCGVJRBFVTOSJKPWCUQFDYEKCGYCILEUCWGWOINOSSFNFTBIJSTLYROSCGWUM","address":"WNGROILJRJXJQJIJFQNXGMKYDYGBVEOPKFHWGEFGZLRNXQLOUW9FXWUJPVSPDZEIUENUOEFY9BPZYMUCW","optimalPurchaseTarget":-100,"optimalPurchaseTargetScore":-100,"availablePurchaseTargetList":[],"optimalSaleTarget":-100,"optimalSaleTargetScore":-100,"latitute":"51.294259","longitute":"-1.849752","amountDemanded":"5","pricePrefered":"14","distancePrefered":"13","energyTypePrefered":"1"},{"index":50,"seed":"ETJB9QWJQFTVLAOFHUDBTMEIJKEQDUUOBF9MDRKTRPGNSPVNPBUJLH9MO9HBLLTLYTDYWUGYHXSREKEJH","address":"YQDWEWLVSUYXRCBFHYD9ZDOIINI9CVWIW9QBXIORDVNJ9ZOQPLYENEKUDSZPDQRRTOBYXMZ9OJ9OLMCMC","optimalPurchaseTarget":-100,"optimalPurchaseTargetScore":-100,"availablePurchaseTargetList":[],"optimalSaleTarget":-100,"optimalSaleTargetScore":-100,"latitute":"50.997005","longitute":"-0.440855","amountDemanded":"2","pricePrefered":"14","distancePrefered":"11","energyTypePrefered":"4"},{"index":51,"seed":"BYFGGRHTUUCLMEDULWORUUMGGPOQNNPCXJUXAPXAWA9YOLXKN9YYTGFWSKTWLWPUHXGRNVTGMHHPAMYMH","address":"ORSHGOG9MIPQ9JCVSRT99TLWTOZJWWGWYVNWVERQSPFOAFFYZLXAXPRJSUJMC9HDKDVVBIFSIWBWYZVXY","optimalPurchaseTarget":-100,"optimalPurchaseTargetScore":-100,"availablePurchaseTargetList":[],"optimalSaleTarget":-100,"optimalSaleTargetScore":-100,"latitute":"51.022561","longitute":"-0.462767","amountDemanded":"2","pricePrefered":"15","distancePrefered":"13","energyTypePrefered":"3"},{"index":52,"seed":"AOKJLSISINFMBHXCVKDPXHNWHDEDUOSRSSKE9AEOGPYJYUDS9BXYJHHKXASXWRJGDAEMVHBXXQGHDRVCR","address":"ENFIKXKZOKZHYMSYBVRI9DKT9GKCJJWJFCPXOTZOCZHGDVPQ9BSISUOENVBNMKB99VCVISGPZMFXCWITW","optimalPurchaseTarget":-100,"optimalPurchaseTargetScore":-100,"availablePurchaseTargetList":[],"optimalSaleTarget":-100,"optimalSaleTargetScore":-100,"latitute":"51.067404","longitute":"-1.082886","amountDemanded":"5","pricePrefered":"15","distancePrefered":"12","energyTypePrefered":"4"},{"index":53,"seed":"GOWUAFI9NNWJKYQILRGEVSOQSUR9QRMSDEDGLSVKLBBJESBHXDSXYCBXQKCNLX9FOACXV9DMAN9GIXHPH","address":"NAESPPDDAMGHTLMAVPGDDCMGOSTRW9RFBF9YNJEGPWZBYGSAXIXQIOYVCNFMPBYCDHYXPZIPVWRPPAIHC","optimalPurchaseTarget":-100,"optimalPurchaseTargetScore":-100,"availablePurchaseTargetList":[],"optimalSaleTarget":-100,"optimalSaleTargetScore":-100,"latitute":"50.973703","longitute":"-1.834373","amountDemanded":"4","pricePrefered":"15","distancePrefered":"13","energyTypePrefered":"0"},{"index":54,"seed":"IUC9WQNGGIEFBYKGASRHIEONCSKLXUMFLDIAXDEQVRFSIPTWSH9WCVHHHK9MJTGYUMAA9FPADTHKSRWYV","address":"ULNDEWAOWERVBOJWZRUDLNTSIFEHUJSCOJVXDTNEEDJPRXOTNNZJVQOZKJSSMM9XVCENIROCUBPMEBKOY","optimalPurchaseTarget":-100,"optimalPurchaseTargetScore":-100,"availablePurchaseTargetList":[],"optimalSaleTarget":-100,"optimalSaleTargetScore":-100,"latitute":"51.342473","longitute":"0.052583","amountDemanded":"1","pricePrefered":"14","distancePrefered":"14","energyTypePrefered":"4"},{"index":55,"seed":"KBVNHRLKYKSDKWJKGPCPOXVEXQVEDDTVURQE9UYIKANAKTDCKOSSVSSDUQQKSITRRJPUCXSLLYFVKI9OG","address":"AZTRKIXKFFQJYBHWAHKVNFFFS9VFOAUAQNCQIXSKQUOGCVMDSJZUJWWJBDQLYCZIQYMWEADBPTYKNTYU9","optimalPurchaseTarget":-100,"optimalPurchaseTargetScore":-100,"availablePurchaseTargetList":[],"optimalSaleTarget":-100,"optimalSaleTargetScore":-100,"latitute":"52.329981","longitute":"-0.824918","amountDemanded":"3","pricePrefered":"16","distancePrefered":"14","energyTypePrefered":"0"},{"index":56,"seed":"YBYX9FS9PIXMKARBPRIDYYRVVLTPDMDGYXPLYF9KIOALKIVIMCS9BKQOSQ9KTSTHHNXBGEXBKYCOCYYKE","address":"ORZN9UTHQLGSSGUAXPAROA9BTTVIRILGZHFFL9EBVULPJBKNCBEZYWHDTPNTOODXIXHRYQURG9U9CSZGC","optimalPurchaseTarget":-100,"optimalPurchaseTargetScore":-100,"availablePurchaseTargetList":[],"optimalSaleTarget":-100,"optimalSaleTargetScore":-100,"latitute":"51.603612","longitute":"-1.629677","amountDemanded":"5","pricePrefered":"15","distancePrefered":"10","energyTypePrefered":"1"},{"index":57,"seed":"KBUR9PQKVCWALLIXQTRKBGDGLQYOYSKABIKNIIAIJVRDPE9WOBLBPCXKQKTROKHOSPPAVLUUTRQUDI9TY","address":"WBWKQGDZLOMKAWALIRYHTEQJNQMHXJPY9NJICSAHBDCHFWIEEIPULT9RSF99JTPDDGITEXYWKYACRCWNW","optimalPurchaseTarget":-100,"optimalPurchaseTargetScore":-100,"availablePurchaseTargetList":[],"optimalSaleTarget":-100,"optimalSaleTargetScore":-100,"latitute":"51.404767","longitute":"-1.509884","amountDemanded":"1","pricePrefered":"15","distancePrefered":"12","energyTypePrefered":"2"},{"index":58,"seed":"FJTXEMOTYGETCUNBYBXQLGEUYHOAPHKPICVLLRSBCBKXMQRULVVSDMMOYVLFIKDDAWQRUYFY9RDLFB9K9","address":"UZOVGTSOTYDTHYGRREMJDUBDADXFGRKBPIGEXEGLVVGHPUTS99LGRIIYNUMCXTWJCFCZCEFGSHEIVITHD","optimalPurchaseTarget":-100,"optimalPurchaseTargetScore":-100,"availablePurchaseTargetList":[],"optimalSaleTarget":-100,"optimalSaleTargetScore":-100,"latitute":"51.924211","longitute":"-2.357243","amountDemanded":"4","pricePrefered":"15","distancePrefered":"11","energyTypePrefered":"2"},{"index":59,"seed":"B9VQP9TLOUBIGRVPDWOSLRAVBPCRO9AUQU9VPRSWRXULNXB9N9Y9GLSCKYQAYOAVNFCT9XHVAKJIIDUUO","address":"QCONKGOOYBUYVSIVWPNWHTUYUOHBELRFJFTESEXWBYWPMNQYRNKBS9HADFDEXRXNBUALTAHTEUQMHJYT9","optimalPurchaseTarget":-100,"optimalPurchaseTargetScore":-100,"availablePurchaseTargetList":[],"optimalSaleTarget":-100,"optimalSaleTargetScore":-100,"latitute":"51.089967","longitute":"-0.743525","amountDemanded":"5","pricePrefered":"15","distancePrefered":"15","energyTypePrefered":"3"},{"index":60,"seed":"TMAHUBQ9YLCIJWAQXXPTQDUGITDHDHSQBASFQUBAYREFYXTLLSTFKMEYFNN9IXLTBFJYXNDE99KLRSP9P","address":"ADX9SEHJSEYXBAK99UHDCLTONCNACFJMI9WRAYFJEPLWZVPBUVVVAYGN99VRTE9KFR9X9KUFOZZXJLEIY","optimalPurchaseTarget":-100,"optimalPurchaseTargetScore":-100,"availablePurchaseTargetList":[],"optimalSaleTarget":-100,"optimalSaleTargetScore":-100,"latitute":"50.989126","longitute":"-1.980511","amountDemanded":"2","pricePrefered":"15","distancePrefered":"12","energyTypePrefered":"0"},{"index":61,"seed":"TUQNFKRTIRNQQABXUXLQOEDLIOXIQMGKSCUUYBDQBCXJPDUDC9AFNJDOJFFG9HXHWIE9AQQTFUDQMVCJR","address":"VULRKZ9WSIVRHDCXM9AQOMWVUJNMJLQHU9LUUMYHJAOSGPCQGLNLGEFFTHQUMMNHMFAWGXAGIDKPQATPD","optimalPurchaseTarget":-100,"optimalPurchaseTargetScore":-100,"availablePurchaseTargetList":[],"optimalSaleTarget":-100,"optimalSaleTargetScore":-100,"latitute":"51.274420","longitute":"-1.806723","amountDemanded":"2","pricePrefered":"16","distancePrefered":"11","energyTypePrefered":"3"},{"index":62,"seed":"QNHHSWM9RKMJADGFVQNIDRCBICVFGMT9BWSRTGRFIUFAFCXHVTKMRJAWACHQLMGTCLHOS99KYESAUXW9P","address":"PZUUXQMZRMCM9NYLRRCMODRBNKHAYBCLKTDOVYKSPQOSHUNECMRSURCKGNHPBAOBUJAKEL9IRZFIPRGHB","optimalPurchaseTarget":-100,"optimalPurchaseTargetScore":-100,"availablePurchaseTargetList":[],"optimalSaleTarget":-100,"optimalSaleTargetScore":-100,"latitute":"52.291942","longitute":"-2.329427","amountDemanded":"3","pricePrefered":"15","distancePrefered":"12","energyTypePrefered":"2"},{"index":63,"seed":"VESMJIPDEGTXYNTPWLFCGGX9DQAHNBL99UIBAGUPMYERCADVHSIHEQDSIQKKVXKIIFURFGTG9BCJHOQHP","address":"IIBOATEXHCJCRRUZQKCCAMYONMWJDUXPOHAUZYLXIL9CRDOVJXX9CONSIVJWYRS99IPBMTRXE9FOUBDU9","optimalPurchaseTarget":-100,"optimalPurchaseTargetScore":-100,"availablePurchaseTargetList":[],"optimalSaleTarget":-100,"optimalSaleTargetScore":-100,"latitute":"51.111708","longitute":"-0.363655","amountDemanded":"3","pricePrefered":"15","distancePrefered":"14","energyTypePrefered":"4"},{"index":64,"seed":"OQRQKNXNAXVIXYETMXMKPLPWGGUBDXOKSWCHGBW9YVEFMLOKAKQLMWLVFLFEIKSWPLVNSHUFCBLGYBPOC","address":"KV9VLBIIGFGAFDTCXQTKASNUPYIXKFSBZESPRFEZANDOHD9DCPNGOGUP9NYERAOEPTAFCDWNCIZMMJKYD","optimalPurchaseTarget":-100,"optimalPurchaseTargetScore":-100,"availablePurchaseTargetList":[],"optimalSaleTarget":-100,"optimalSaleTargetScore":-100,"latitute":"52.435059","longitute":"-0.910441","amountDemanded":"3","pricePrefered":"16","distancePrefered":"14","energyTypePrefered":"3"},{"index":65,"seed":"USUYSSRQX9UEVGNIFQKLUUJEXOOAFKPHQJHHYQELBJWUFEJOVPTQEFG99SLRXEWGEQAAJATHLDAUGEGQO","address":"LDYHMQUHHLLONZSTFZGSHEWZOBBJC9FTITAKGLNJ9UKPJCPXYIQVZVU9SUUENKOTEKVEGDIZTRAYWSGCA","optimalPurchaseTarget":-100,"optimalPurchaseTargetScore":-100,"availablePurchaseTargetList":[],"optimalSaleTarget":-100,"optimalSaleTargetScore":-100,"latitute":"50.959731","longitute":"-0.075798","amountDemanded":"2","pricePrefered":"14","distancePrefered":"14","energyTypePrefered":"3"},{"index":66,"seed":"PAHIJSIMGFTPXN99IXNUKVTYD9QOWYOBECROWEVICCXVGVKGQDO9YDIIGMOFDJVLPXSLNJRMYVBPQHWOO","address":"NBKWRTZBBEZQQTQSBJYRATHICYITMVOGFXRTIJSQCPNZGQGGRLNWSPNRHEWIFBHEMGONRYHTCWSXTILTA","optimalPurchaseTarget":-100,"optimalPurchaseTargetScore":-100,"availablePurchaseTargetList":[],"optimalSaleTarget":-100,"optimalSaleTargetScore":-100,"latitute":"52.299293","longitute":"-2.238818","amountDemanded":"4","pricePrefered":"15","distancePrefered":"14","energyTypePrefered":"2"},{"index":67,"seed":"OYQLVNARAHAVJI9AHCCSPOAOWWIPTYSHOUEORYQTHTMSRJLUM9LLVYJCBTP9RJFHKBLBKYMHIIJXNENCJ","address":"ZHBHOFYKDAVEESRJ9VSLGAUYIOUWGRY9ARZVSQXOUTPBJYYDCHHHPESPKW9IQTCFNG9REKTORPYVERI9Y","optimalPurchaseTarget":-100,"optimalPurchaseTargetScore":-100,"availablePurchaseTargetList":[],"optimalSaleTarget":-100,"optimalSaleTargetScore":-100,"latitute":"52.209869","longitute":"-1.661061","amountDemanded":"6","pricePrefered":"15","distancePrefered":"12","energyTypePrefered":"4"},{"index":68,"seed":"BMUILVHHVLJKMAQMG9ISW9LFROROVRKITPXEYUEYNTOIJCW9LLSOEFBXLFSUKYOHHQIKECITOK9HXEXBA","address":"GVPW9URVLGNXLYUPBTBMITPYNNMSGZEWJAURNDEXJXGWG9WTZUZAHPXBAQ9RALPYWQIPQLMAKYUQEXTTA","optimalPurchaseTarget":-100,"optimalPurchaseTargetScore":-100,"availablePurchaseTargetList":[],"optimalSaleTarget":-100,"optimalSaleTargetScore":-100,"latitute":"51.168841","longitute":"0.183183","amountDemanded":"4","pricePrefered":"16","distancePrefered":"15","energyTypePrefered":"3"},{"index":69,"seed":"YIXKSJA9SGIPBQQDJVQY9MVCRBJQJGUNKVWFIESJKDDKUGSDTIHXYNBJPARYRCLPSTVLYBPQDOULLPCRD","address":"VXPRWIDHVCCZE9PWXT9XXCLSBHZ9YTMZDRTIVCQWOQVHLSDKYB9ZIMKH9JDVLRRJYTCDF9BJBM9LROZUD","optimalPurchaseTarget":-100,"optimalPurchaseTargetScore":-100,"availablePurchaseTargetList":[],"optimalSaleTarget":-100,"optimalSaleTargetScore":-100,"latitute":"51.635773","longitute":"-0.849264","amountDemanded":"5","pricePrefered":"16","distancePrefered":"12","energyTypePrefered":"0"},{"index":70,"seed":"9TPKPALYIHEJRAXH9NGGGO9QENBJOOJKIESMJHXBUVMBLEPECCCBDAQNJVUQXXWIORRFAETJRBMBFQJBX","address":"NIFAWRDYXLYJBXKYOEEHWYBBTYSYTRDMBVX9SUHGAELUWTXXXVFDIIBKCRYGSIEIPSLAFTRGZPUY9PYKX","optimalPurchaseTarget":-100,"optimalPurchaseTargetScore":-100,"availablePurchaseTargetList":[],"optimalSaleTarget":-100,"optimalSaleTargetScore":-100,"latitute":"51.717898","longitute":"-0.369974","amountDemanded":"2","pricePrefered":"15","distancePrefered":"12","energyTypePrefered":"1"},{"index":71,"seed":"EDTQJEOQTQMNNABKEMFYMIEYSQTAPMOXBERQX9PMTJQDSYPQGEWOSY9TRVONNMXIJJOSMQLVDJPPNCVSO","address":"9WFNDPEOQXWT9CLWBZETMGKGDWAOUDFLOHLFIZCRCUGEPUYBFPIYZHXKCWIPPKUVUAKWYQZEQSJEYUWP9","optimalPurchaseTarget":-100,"optimalPurchaseTargetScore":-100,"availablePurchaseTargetList":[],"optimalSaleTarget":-100,"optimalSaleTargetScore":-100,"latitute":"51.044041","longitute":"-1.639871","amountDemanded":"1","pricePrefered":"14","distancePrefered":"14","energyTypePrefered":"4"},{"index":72,"seed":"J9WNTUBHKLFBPFABUFULHFVVLQHWWBDGGKXVIPTS9GTFGCMBDXJA9GBDICUMDHXYCJSSWFJBKVUDPOCYD","address":"QHV9FTIJUOPT9TYRVBQEXWYHYQSERUKTWBRBBKTNGLEWAKVOXPFONGMABDFOCVLWCBVZJPDLYOXWHFTYX","optimalPurchaseTarget":-100,"optimalPurchaseTargetScore":-100,"availablePurchaseTargetList":[],"optimalSaleTarget":-100,"optimalSaleTargetScore":-100,"latitute":"52.014198","longitute":"-0.872473","amountDemanded":"2","pricePrefered":"15","distancePrefered":"11","energyTypePrefered":"0"},{"index":73,"seed":"QYCYXT9FEEWIMODJOUPINXXUIUWOSVAMBNICEUSVDBJYPMXXMLXSLSDQVTPOIOOTCOXUNCWBKGTONYJHA","address":"9JNQ9FLUSQXICVOEUHWFQS9ZWBZFNQAWBNOPLXQHLSRJOFUHEQVEIM9RHPXAYTEQCLOMZBVUGIKKBTSOD","optimalPurchaseTarget":-100,"optimalPurchaseTargetScore":-100,"availablePurchaseTargetList":[],"optimalSaleTarget":-100,"optimalSaleTargetScore":-100,"latitute":"52.383921","longitute":"-1.056697","amountDemanded":"6","pricePrefered":"15","distancePrefered":"11","energyTypePrefered":"2"},{"index":74,"seed":"KHHLUMGNRUUAQADLDXX9VQQMTRJ9DXMJSV9AEPKAMPRPFKQMTGHKECBVIHCPKIGMVKTVRAFBJNDVNPCTD","address":"B9RT9NGCEYBAABXFTWNYYFTNQPPAGKOE9ZQBEGVBZVVKAOZFRDMOS9NLTFRC9JJDETWWJMMCDWNOPVMKW","optimalPurchaseTarget":-100,"optimalPurchaseTargetScore":-100,"availablePurchaseTargetList":[],"optimalSaleTarget":-100,"optimalSaleTargetScore":-100,"latitute":"51.046552","longitute":"-1.733793","amountDemanded":"5","pricePrefered":"15","distancePrefered":"12","energyTypePrefered":"2"},{"index":75,"seed":"PVNDQKMGYJYOKDLPQFSMSGFHTXXVMDEDGFSHLXPMWSKBABJL9EDVWXQEHLXFTVMVWMMHILJSWCICVDKPU","address":"EMJSKHHEYCSXTXO9XOIMKVFVJFWOEAJKQJQMRUE9WZUH9NWMXDCLWSCKIOUPNTMUEOMSCQICAHQSIUMNX","optimalPurchaseTarget":-100,"optimalPurchaseTargetScore":-100,"availablePurchaseTargetList":[],"optimalSaleTarget":-100,"optimalSaleTargetScore":-100,"latitute":"51.009523","longitute":"-0.259804","amountDemanded":"4","pricePrefered":"16","distancePrefered":"11","energyTypePrefered":"4"},{"index":76,"seed":"NXDO9URHDKWGRAMUQNVDFYXGWYVUGESTKIHHSOKNCA9UFKJHGPFDCTVPYXGW9XQJDOPDSUGR99FXAPVJP","address":"DALPTAVAONCGXYDKJMJUMXXZXHETH9PHLWAQRACXBAGOJHHVUVZDXYIIWBBLXUWAPYCFROVGUXYVYJTEC","optimalPurchaseTarget":-100,"optimalPurchaseTargetScore":-100,"availablePurchaseTargetList":[],"optimalSaleTarget":-100,"optimalSaleTargetScore":-100,"latitute":"51.778195","longitute":"-2.113363","amountDemanded":"2","pricePrefered":"14","distancePrefered":"15","energyTypePrefered":"4"},{"index":77,"seed":"UFDMCJBTIGHFLDUSVIPSMBFYEDWXCTCPSMALQQSMBSFQKGVB9IYGIHCLWUMKHTNTQOVNYCRNWORMERJFD","address":"OHGWX9RVTDQUBISEGRMP9TRXBBNEEMIXCWTWZHIGYWUYJPHEMEQYPGYUDLWNWMPLPWQMLZGHLYKNKZIP9","optimalPurchaseTarget":-100,"optimalPurchaseTargetScore":-100,"availablePurchaseTargetList":[],"optimalSaleTarget":-100,"optimalSaleTargetScore":-100,"latitute":"51.835354","longitute":"0.160640","amountDemanded":"4","pricePrefered":"15","distancePrefered":"12","energyTypePrefered":"4"},{"index":78,"seed":"AOGWXHFSXXF9HQQWTIQKLSMYSYQNPGLNXMNOXYMVJMAIHHAIKEGJFCKPRETPCXWHOSTQGCEKVRPUGBRAP","address":"GRHALVJR9LAGXOAXGMBALE9KBEKQOGRZPYOMCKWPTAUFPALDXABFWOUYMYMPIDKRKIGWRIVCJTDVTGRVW","optimalPurchaseTarget":-100,"optimalPurchaseTargetScore":-100,"availablePurchaseTargetList":[],"optimalSaleTarget":-100,"optimalSaleTargetScore":-100,"latitute":"51.836689","longitute":"-1.157144","amountDemanded":"4","pricePrefered":"16","distancePrefered":"12","energyTypePrefered":"2"},{"index":79,"seed":"ISWUDQN9CITVADGWQDTOAJC9OHJGXE9U9QLIXTXYSDV9J9POLS99LCBPKYPHSCNBTRJGQRBXWKLPJREVC","address":"SRYQ9JW9XVARUEGXTZODVFBWWUMKFAARSNFPMWSUKLDUY9DAAUUDTSSZUXVUVFIBCHAQQ9O9KOKWYJAIC","optimalPurchaseTarget":-100,"optimalPurchaseTargetScore":-100,"availablePurchaseTargetList":[],"optimalSaleTarget":-100,"optimalSaleTargetScore":-100,"latitute":"52.258072","longitute":"0.096482","amountDemanded":"4","pricePrefered":"15","distancePrefered":"14","energyTypePrefered":"3"},{"index":80,"seed":"DMADHPLBY9WCCDTBXMKK9UTKS9VPKULQDMVLEBLJU9JNLHDYGSQYQLELRXO9XKVQWSMNSKPFJTYFJKGHR","address":"GAAPVTZUWCWOBOFVRQIONTCMFGRZAFRUQIPQSJDOMXJZNCCRSAYVRPNPYCTJDIYKTDJZSWOLCYQQXFATW","optimalPurchaseTarget":-100,"optimalPurchaseTargetScore":-100,"availablePurchaseTargetList":[],"optimalSaleTarget":-100,"optimalSaleTargetScore":-100,"latitute":"52.112785","longitute":"-0.876412","amountDemanded":"5","pricePrefered":"15","distancePrefered":"11","energyTypePrefered":"2"},{"index":81,"seed":"YBNSWUFRBXYMTU9CWDKREOENGGXOAPHOKUAOTAHBXHNMGWYHRNKUCCBEWBVOLIJJSEELIKEUHOLKMNU9Q","address":"ERKTFMJDDPDCI9ZRTCNESYLPPBLXMHGMBRPMRBRXJRYJOOLESOKPXNQNVY9KN9FIPSNPJYSZJWPKZGQOW","optimalPurchaseTarget":-100,"optimalPurchaseTargetScore":-100,"availablePurchaseTargetList":[],"optimalSaleTarget":-100,"optimalSaleTargetScore":-100,"latitute":"51.610493","longitute":"-0.011043","amountDemanded":"5","pricePrefered":"15","distancePrefered":"12","energyTypePrefered":"4"},{"index":82,"seed":"DYEJLDFTCAYWGLWXJHDQSQAGYNJBXWMKSWUGRPERTEETTIEJHKNPUNV9DLSMJFNVRJLHQ9RSIQPDFLIVF","address":"QIUXCFBUORR9FCYPXUHNJHURKJEWEFPELFTHKMVULQMTIGENSBMZRACWPJFS9GCMGRNODXIZYEFLXMZBD","optimalPurchaseTarget":-100,"optimalPurchaseTargetScore":-100,"availablePurchaseTargetList":[],"optimalSaleTarget":-100,"optimalSaleTargetScore":-100,"latitute":"51.299388","longitute":"-2.302756","amountDemanded":"3","pricePrefered":"15","distancePrefered":"12","energyTypePrefered":"3"},{"index":83,"seed":"UYLSRBJSJXVSRGL9WBGOVGBFGPRCEMMLHSGFOQC9DVMOODVLYQKOUJHAIFGVLTXMOHTTHTDVQ9NXVFSHS","address":"WJCSDVLCBBXMZQOGJFLHTSDMBSATAFEZQBJOEGPNFSCFGVBGIOEDNRKHRNPZEPZELUXULS9QCNNAQS9XW","optimalPurchaseTarget":-100,"optimalPurchaseTargetScore":-100,"availablePurchaseTargetList":[],"optimalSaleTarget":-100,"optimalSaleTargetScore":-100,"latitute":"51.292823","longitute":"-2.368561","amountDemanded":"6","pricePrefered":"15","distancePrefered":"12","energyTypePrefered":"3"},{"index":84,"seed":"OC9OGHVSYOQUMIGPVLNAJSILFIRVQK9IHVGWNYDGNXXRYEFKSQRAXJPNKOWUMVNBTDFTGDBSIAYNJOBTX","address":"LTJGHNIPHEJNKWWZJOGTVHLFDRBQMNCPVVIQFATWTULQKRS9FTQXHEIQUOVOLIQQOLODZZ9TXTUWFPNYX","optimalPurchaseTarget":-100,"optimalPurchaseTargetScore":-100,"availablePurchaseTargetList":[],"optimalSaleTarget":-100,"optimalSaleTargetScore":-100,"latitute":"52.326762","longitute":"-2.011495","amountDemanded":"2","pricePrefered":"15","distancePrefered":"10","energyTypePrefered":"3"},{"index":85,"seed":"XMJGKXNLXPRHEJYCUPYUUTFNXPQMCNPXY9ATNCMTDMGSRPBSIIB9QKNWLDCGTHEJHYRDJDDYAEDXJFMLV","address":"EPEAXCUSYAZWJVXVWZNBDLOKTTDCVULBCIVXKDZFWCZVJVKSYVUGPKVZUGUCTYRHBKLSFKZXIVC9DEGYZ","optimalPurchaseTarget":-100,"optimalPurchaseTargetScore":-100,"availablePurchaseTargetList":[],"optimalSaleTarget":-100,"optimalSaleTargetScore":-100,"latitute":"51.939468","longitute":"-0.725579","amountDemanded":"4","pricePrefered":"16","distancePrefered":"13","energyTypePrefered":"2"},{"index":86,"seed":"RCCN9O9CJTVRNMKKDKEUDHCEPJXGSAHEVRCKYMSLT9FWHJALSGTXCOYVMANOCJTB9DVUA9SDAEAKADNCK","address":"WBNRYKVMJOTPXQCSMSWRAWIEPKIXITXKELMBPXUTMCZQMGKFIKDHKIAFJMAABNWXRCTPZEPZTSMROMJUC","optimalPurchaseTarget":-100,"optimalPurchaseTargetScore":-100,"availablePurchaseTargetList":[],"optimalSaleTarget":-100,"optimalSaleTargetScore":-100,"latitute":"50.993158","longitute":"-0.260588","amountDemanded":"5","pricePrefered":"16","distancePrefered":"15","energyTypePrefered":"1"},{"index":87,"seed":"OWFYECQVCVMNXJHEQJJORRRPBYOWQUUIK9QHKFLBQHOBRQLWFRVWKSIDWLIXVCOODQUKFDL9CEKNXTFOP","address":"VELDPUYXEXAITLPM9NDIDSTB9LHZDKDNHBYQZC9IZHPWKJYHL9WYAPEBNHWYLLVHYWOFSIERZOTYGVACW","optimalPurchaseTarget":-100,"optimalPurchaseTargetScore":-100,"availablePurchaseTargetList":[],"optimalSaleTarget":-100,"optimalSaleTargetScore":-100,"latitute":"51.201166","longitute":"-0.509866","amountDemanded":"6","pricePrefered":"15","distancePrefered":"11","energyTypePrefered":"4"},{"index":88,"seed":"CSKEBLKXIGEFBRYGIHJLJVLJVVBPJSPFBIOOTO9IJLVJWGLRYVJCWGLLOWUITFBALPHJYDYFQVISINLNS","address":"LCPGNI9CEIXYABMENCBHM9NJJUZYXRIRPEKIRIZOYVYAFNYSFJUAFDXQZXMNZR9UXTPDHLXCUXGGZEQZA","optimalPurchaseTarget":-100,"optimalPurchaseTargetScore":-100,"availablePurchaseTargetList":[],"optimalSaleTarget":-100,"optimalSaleTargetScore":-100,"latitute":"51.143368","longitute":"-0.488949","amountDemanded":"4","pricePrefered":"16","distancePrefered":"14","energyTypePrefered":"2"},{"index":89,"seed":"VIKMNCK9QDRU9GO9GGDJQFOEBTHJXJYJDCTYJUJPOIOMVVLRPLVDRVHH9FOAXYXPDJXAPBQSM9OFIRBLQ","address":"KXK9LMUEQVTDSKIHAZQIUYVOZFFKXCFGGOCIZSCFYDYAGF9MOKUFGOLFRX9OBWCPNXEHZVVENK9IORLRD","optimalPurchaseTarget":-100,"optimalPurchaseTargetScore":-100,"availablePurchaseTargetList":[],"optimalSaleTarget":-100,"optimalSaleTargetScore":-100,"latitute":"52.402088","longitute":"0.104765","amountDemanded":"3","pricePrefered":"16","distancePrefered":"14","energyTypePrefered":"3"},{"index":90,"seed":"VWFIVUXEPBHQVDWBDCIGMNNDFRUJYMHUSCYITTWNYAMGODTYYDSFVYLJFMGEIFPQOPGDLCHQQLFLPHM9T","address":"INERZCNJEZFHQOYZYLFIMYSTSQXYRVEVAIJRGVOTXTOO9SFFVFNMPRLT9JBRSMMJKYUBCFTVTVZ9AYNF9","optimalPurchaseTarget":-100,"optimalPurchaseTargetScore":-100,"availablePurchaseTargetList":[],"optimalSaleTarget":-100,"optimalSaleTargetScore":-100,"latitute":"51.357089","longitute":"-0.541882","amountDemanded":"5","pricePrefered":"15","distancePrefered":"11","energyTypePrefered":"2"},{"index":91,"seed":"G9MFGVVNOIFPSNYEDLHOOKTRIPQBAXBVEFXTICLI9JKGJIJSPSTRUWRVWLPJDILPAYBC9BISBVVUSWIGQ","address":"RVOAPWJCEMEYPHFCZECLJHWTL9XOIOKDCUEQFMWKZYNTFWERGKDVQCXDDOBZSUGVPOZRPGHYGUUIBZVTW","optimalPurchaseTarget":-100,"optimalPurchaseTargetScore":-100,"availablePurchaseTargetList":[],"optimalSaleTarget":-100,"optimalSaleTargetScore":-100,"latitute":"51.681399","longitute":"-0.326863","amountDemanded":"5","pricePrefered":"14","distancePrefered":"13","energyTypePrefered":"0"},{"index":92,"seed":"RKLSEUVOLIOGQXOWLEJPXFGNNRKQFUA9DKULXLLWJRISSRQMFRSGCQBQNYGOLOX9WNSENPTQ9HHEHRCQO","address":"TVXFJVSTBI9AQEVIWXL9VWRPFWWBKPPJFS9UDQKNQKUFHGYIGDLZZJTXVCAZQZWERWSBKBWKNRPRPTGBW","optimalPurchaseTarget":-100,"optimalPurchaseTargetScore":-100,"availablePurchaseTargetList":[],"optimalSaleTarget":-100,"optimalSaleTargetScore":-100,"latitute":"51.919345","longitute":"0.097365","amountDemanded":"4","pricePrefered":"15","distancePrefered":"10","energyTypePrefered":"2"},{"index":93,"seed":"JJUAHRLMBOGULHJAOVEWXFEESXRCPCAIDMDOEVAUSOW9GPQENLWH9AFFPQO9TPPDJL9H9CQMQYBM9OWEH","address":"EFQNXLZTCFOYTOMBNUSKPBBIVOCPNITL9Y9TOUNUKZNDQVYINZN9TFBOMEJOOFIDXMQNFGNRHEXZFIGHB","optimalPurchaseTarget":-100,"optimalPurchaseTargetScore":-100,"availablePurchaseTargetList":[],"optimalSaleTarget":-100,"optimalSaleTargetScore":-100,"latitute":"51.409642","longitute":"-1.615859","amountDemanded":"2","pricePrefered":"16","distancePrefered":"14","energyTypePrefered":"3"},{"index":94,"seed":"DAUEUUJ9RWTCWTNQ9DXUNREP9EVWFBXUJORDLAFJAFJKSSPGTSDSXLPKEQSVUTSPSS9INRILMNXAHJVYP","address":"9VT9OUEKCTSKRVLWWVJCKPIZWPPHECJVQPKMPAYVNGOXBPADOKRRWIBBGPDNMC9YKQNDKDLCVHKF9EGMY","optimalPurchaseTarget":-100,"optimalPurchaseTargetScore":-100,"availablePurchaseTargetList":[],"optimalSaleTarget":-100,"optimalSaleTargetScore":-100,"latitute":"51.744030","longitute":"-1.616129","amountDemanded":"2","pricePrefered":"15","distancePrefered":"12","energyTypePrefered":"2"},{"index":95,"seed":"SSTSCDSBXGKQTABCVIGQKHSDKSD9SNQLJNBPUXLBKFRDHCKKJVIBGHAKJECIWIMPGGMECFWSEQGCHDUMX","address":"BQPKMCRMPNMR9RXYNTXXZCKLGNBPYADNN9SFKJMINRSK9QFLXMWEAMNDFDNYUKXISSJPIVTP9OTCSXKAA","optimalPurchaseTarget":-100,"optimalPurchaseTargetScore":-100,"availablePurchaseTargetList":[],"optimalSaleTarget":-100,"optimalSaleTargetScore":-100,"latitute":"51.855607","longitute":"-1.723255","amountDemanded":"4","pricePrefered":"16","distancePrefered":"11","energyTypePrefered":"1"},{"index":96,"seed":"SDHOEJOYXGGIY99PHHUQJ9RCLRM9JFLLATPGBSYJVMOJIPVPG9O9YXKQABWMGFGULHRLQEWQIDSCOWCOO","address":"TVSVVCYJNUBTUZMAUXPWMOIYLVVPMOWPAFGHZIIXSNOYPTYGME9IALOZVPQVBWZAFKUFWMMWBAIEWE9MC","optimalPurchaseTarget":-100,"optimalPurchaseTargetScore":-100,"availablePurchaseTargetList":[],"optimalSaleTarget":-100,"optimalSaleTargetScore":-100,"latitute":"52.069410","longitute":"-0.219442","amountDemanded":"3","pricePrefered":"15","distancePrefered":"14","energyTypePrefered":"4"},{"index":97,"seed":"XNEBXGVQRCPIIKNMSCYLHGGTCPLGCOAVLGEBFWXQPVRIVFJPNDRAQGCKGVSDGLNJSHVYOX9LV9MIQPRNA","address":"WSDZWLEW9XAAZMEJYMDNIIDOGWXCDOZCVNVRYJMEPHVMEHYOQAWVDKQATAVWCORSHSCVCHBLIDWCUXNQX","optimalPurchaseTarget":-100,"optimalPurchaseTargetScore":-100,"availablePurchaseTargetList":[],"optimalSaleTarget":-100,"optimalSaleTargetScore":-100,"latitute":"52.054081","longitute":"-2.043262","amountDemanded":"4","pricePrefered":"16","distancePrefered":"13","energyTypePrefered":"1"},{"index":98,"seed":"WW9FOMWNBHJRKDFUBWLBBIGGKDQEAVDW9HBYVUDVJEMOQEYX9KYKSXTPEHWGBDRQRQXJBGCIMSKDPRDTX","address":"R9SSLZEDZXMPFVZQPPRFIEGNGABEOIDWBTJWXSMQQPZLGZUYBL99HWZMPMHPXXQGQKAKIIYIKWLTXJQK9","optimalPurchaseTarget":-100,"optimalPurchaseTargetScore":-100,"availablePurchaseTargetList":[],"optimalSaleTarget":-100,"optimalSaleTargetScore":-100,"latitute":"51.768240","longitute":"-1.616316","amountDemanded":"4","pricePrefered":"15","distancePrefered":"12","energyTypePrefered":"0"},{"index":99,"seed":"SYKBJUTRPXMSWFDPVVPQOBSIVYLYSNVQNIGSAYEOE9BOUKAEOPSOQLBOIHPWOCYFNRUGNGQEOVJSCOWQU","address":"IZORZKTRBCZPBJWO9RSHJGOD9XK9VQJOXYYCNCGMNEDQGTDSFRYRLGPDPQMHAIFPOJKOQMB99EIABNRAD","optimalPurchaseTarget":-100,"optimalPurchaseTargetScore":-100,"availablePurchaseTargetList":[],"optimalSaleTarget":-100,"optimalSaleTargetScore":-100,"latitute":"51.035651","longitute":"-0.099796","amountDemanded":"2","pricePrefered":"15","distancePrefered":"12","energyTypePrefered":"4"},{"index":100,"seed":"EMJ9UDYAKTDKAOKQKICITJVMHSOCQNSRTDASAQ9KNYSJODGWNTVG9SIVMCYHDG9CKIWQDTVIAOJLSYQCC","address":"PGPLJHXCKQYKXBOSLDWLISAYMDGOGLNQGARLRUPDBGFQTYNCXHYZQG9GRZRONCMAHOVDGKVOSHAKXYLEX","optimalPurchaseTarget":-100,"optimalPurchaseTargetScore":-100,"availablePurchaseTargetList":[],"optimalSaleTarget":-100,"optimalSaleTargetScore":-100,"latitute":"52.058396","longitute":"-2.164910","amountDemanded":"6","pricePrefered":"15","distancePrefered":"10","energyTypePrefered":"3"},{"index":101,"seed":"SKQDEKPQFVYTJW9Y9QONNNXHSTPIPCFXRQCYRRBWSAHEDNQLHDVJQDDXSGY9QTNSKCPKDIRGBRNTYSVFS","address":"TYZEOWNGRFOJRQKIFPMRJJCZAYNRBUEIMU9LGZ9NZPFWNWBRBZPPHWMOW9VTNXYFJNVIVSHYIYSJJWIJC","optimalPurchaseTarget":-100,"optimalPurchaseTargetScore":-100,"availablePurchaseTargetList":[],"optimalSaleTarget":-100,"optimalSaleTargetScore":-100,"latitute":"51.341410","longitute":"-0.309750","amountDemanded":"2","pricePrefered":"16","distancePrefered":"14","energyTypePrefered":"2"},{"index":102,"seed":"IMXTNSLFXPATFVSRTJQBSJAQPFOUORNMPFCTKDCTTODMTWDHSLALMET9O9NRRFTGMPRHOIVUJKQHGDMRS","address":"OXJTRGKB9VJG9QRAF9AQFNSDLILGTXCIWMCEMHUQNWLFACAJFOAOWMQEKEYNPDMJWCOHQ9GQNMBSGMQCX","optimalPurchaseTarget":-100,"optimalPurchaseTargetScore":-100,"availablePurchaseTargetList":[],"optimalSaleTarget":-100,"optimalSaleTargetScore":-100,"latitute":"52.416932","longitute":"-0.665814","amountDemanded":"4","pricePrefered":"15","distancePrefered":"11","energyTypePrefered":"2"},{"index":103,"seed":"TPJXDV9SBXCFUWTWLGJIBHSQF9DIVOTK9UUPILRQCHRDDXYTUSEJQYWAGSTXSTUUHVPEQGIVTNIKJDKGI","address":"PXQJIRIJLQYTVCMRDWEXKYGIFZCVSTLGYPIIUFUFZQPBAXAPBHOURGGGSCHFNCJFUMCKMTYPKLQLIXKUW","optimalPurchaseTarget":-100,"optimalPurchaseTargetScore":-100,"availablePurchaseTargetList":[],"optimalSaleTarget":-100,"optimalSaleTargetScore":-100,"latitute":"51.768942","longitute":"-0.402752","amountDemanded":"4","pricePrefered":"15","distancePrefered":"11","energyTypePrefered":"0"},{"index":104,"seed":"SUILLWVUIGFRHM9MGCDGRVURUUDUBYWQWHUHUCSQR99RCQ9XFLAW9JWAOMYKIOYVRLVNYQMXBMWV9LADM","address":"WRWZCQULYSXWBEYEGXN9DMNFBJZGTETYI9ETRWYBOABQYDQEHCN9RGWO9UUGXPQKWWSYMATEOYTHVLFSD","optimalPurchaseTarget":-100,"optimalPurchaseTargetScore":-100,"availablePurchaseTargetList":[],"optimalSaleTarget":-100,"optimalSaleTargetScore":-100,"latitute":"52.431954","longitute":"-0.350521","amountDemanded":"2","pricePrefered":"15","distancePrefered":"15","energyTypePrefered":"3"},{"index":105,"seed":"CFTKUMJCFFMWNBSWGXLGCBJLKQQTOVGHNBRHBVTQIDJLJEAKCKOUNXPTQCLBSDEQHXEGRPKTYLJUIXIMS","address":"IXAHQZQ99CBFOHVYZYSUUVTKJP9EOSCHZHCPNXHZHTWGARRJ99IKMWPBACYFOSRRZCWSWCUPZPPGLFNLZ","optimalPurchaseTarget":-100,"optimalPurchaseTargetScore":-100,"availablePurchaseTargetList":[],"optimalSaleTarget":-100,"optimalSaleTargetScore":-100,"latitute":"51.041087","longitute":"0.048519","amountDemanded":"4","pricePrefered":"15","distancePrefered":"13","energyTypePrefered":"3"},{"index":106,"seed":"EOQNBLBFFHWFVOIOROEBXSRIQVTSPFNVXNOCTFODB9EWKGOL9LOXNFRR9QCTPHKNJJELRQVMCSD9FVNVP","address":"W9DL9CW9NIMJ9YABORCETBCX9PPMNEODIAODOTA9IZQFIQQY9TPCPPMAKZLFKNBZZXEFACZHVNDULIZJB","optimalPurchaseTarget":-100,"optimalPurchaseTargetScore":-100,"availablePurchaseTargetList":[],"optimalSaleTarget":-100,"optimalSaleTargetScore":-100,"latitute":"52.080691","longitute":"-1.339497","amountDemanded":"5","pricePrefered":"15","distancePrefered":"11","energyTypePrefered":"3"},{"index":107,"seed":"LAAIECFHCYIALISGIJXIVHMPCTSCYAMU9DTDHR9SOWUXOJJGSOCBTQC9ODHCCKWSLDDVDIEWEJVD99USC","address":"WRFQAFOIPEKRPVJDGZDNPGJSMYDJSESVL9JCSILCULOFJXKMMCFWZVQJLHFANDQYPVMMYMYIJMLRZTSUW","optimalPurchaseTarget":-100,"optimalPurchaseTargetScore":-100,"availablePurchaseTargetList":[],"optimalSaleTarget":-100,"optimalSaleTargetScore":-100,"latitute":"51.746572","longitute":"-0.378085","amountDemanded":"5","pricePrefered":"14","distancePrefered":"13","energyTypePrefered":"3"},{"index":108,"seed":"EJCBAIOJFLDODDFORYDYPDUQTYHI9LKWQDIQYGEWRSKPIOFFQYTXQULIHOAOXCBASVCTKHIFFUQQRPJUG","address":"YXPDUTBJHQSUITNBXCMPATWRYKVDVOSQSSTPJ9RQ9PMCZFTDNW9OGFWQLRUSLUBVZUSCSWPQBXIBVUL9X","optimalPurchaseTarget":-100,"optimalPurchaseTargetScore":-100,"availablePurchaseTargetList":[],"optimalSaleTarget":-100,"optimalSaleTargetScore":-100,"latitute":"51.538917","longitute":"-1.155040","amountDemanded":"5","pricePrefered":"14","distancePrefered":"10","energyTypePrefered":"2"},{"index":109,"seed":"OASGYGTOMUAEKICVO9SIKNNIXETWBVWMPMSGPYHCYYMJSUIPRXLG9AAKMVNOUDRNHDNETTJYXNJUUGXUK","address":"XP9NTHUYUMARTTVDACKGYYGHHOWNXSYCGCOUWBCWLIXDBENGWTNA9AAYXPVNLI9NPH9NKJVXYRSSQQAJY","optimalPurchaseTarget":-100,"optimalPurchaseTargetScore":-100,"availablePurchaseTargetList":[],"optimalSaleTarget":-100,"optimalSaleTargetScore":-100,"latitute":"51.906567","longitute":"-0.848406","amountDemanded":"6","pricePrefered":"15","distancePrefered":"11","energyTypePrefered":"4"},{"index":110,"seed":"LUOVYVLKWNALSBGVJLFNOEEBEGTCTVNQLVT9YBSVF9MFREUKJBRDPQAKQ9RHAHVEUXTDGKDASKGWXKGWE","address":"NPWNDOMIOAMOKGZ9ZGZCHKMW9LA9WZFRWIKWNCHLIXAAOAEWFXOUJXRH9SKYBRRVLKFSSELETGNGKIPW9","optimalPurchaseTarget":-100,"optimalPurchaseTargetScore":-100,"availablePurchaseTargetList":[],"optimalSaleTarget":-100,"optimalSaleTargetScore":-100,"latitute":"52.371598","longitute":"-0.788656","amountDemanded":"4","pricePrefered":"15","distancePrefered":"12","energyTypePrefered":"0"},{"index":111,"seed":"FNKQVRJQXUMJPHHOWOWAUJSBIEBTFIJVXRIDAFAKQWCTVBCSLVBWPEGKARDLQQRFBNU9GVUSRYUUELHO9","address":"JHCTSKXCKOOPAD9C9BWXZZRCPBORROPYTSMBMNVJD9QVRXMSPKDQHGGHZPXRFOHVFJUEEG9WTOMNWNO9Y","optimalPurchaseTarget":-100,"optimalPurchaseTargetScore":-100,"availablePurchaseTargetList":[],"optimalSaleTarget":-100,"optimalSaleTargetScore":-100,"latitute":"51.202004","longitute":"-1.281540","amountDemanded":"5","pricePrefered":"14","distancePrefered":"11","energyTypePrefered":"3"},{"index":112,"seed":"BGMWICOIMOGJUIVLLLWXNRTORGBAAREUGIVDWOUXIVKHXHIQJNYFKSPOO9MRIWBTXTHEDBEMNFYQIJTPR","address":"OFIRZHOZQEDBPPNUZABRGMAPJD9GDNPOACRF9UGHWBUKSYSIIPBBVYWK9VZLDZROEIOGWUJS9GDDYTSKC","optimalPurchaseTarget":-100,"optimalPurchaseTargetScore":-100,"availablePurchaseTargetList":[],"optimalSaleTarget":-100,"optimalSaleTargetScore":-100,"latitute":"51.194799","longitute":"0.163003","amountDemanded":"4","pricePrefered":"15","distancePrefered":"10","energyTypePrefered":"1"},{"index":113,"seed":"VCYRONMOYJCLCWSIJLVWBCLEQOQMPESKYRPCTRFHUDAWWDDFX9BWAKNRIDIPSNQMFXSIWMPHKQJQXFDGJ","address":"UXXYFJNHLZAIWELJPK9LA9IIJJVPXSLYSCFOFDYGAZYVWWXCHFDBOBAG9CEMCXVEPEISNTSSWCUCNNFJA","optimalPurchaseTarget":-100,"optimalPurchaseTargetScore":-100,"availablePurchaseTargetList":[],"optimalSaleTarget":-100,"optimalSaleTargetScore":-100,"latitute":"51.469609","longitute":"-0.051457","amountDemanded":"2","pricePrefered":"15","distancePrefered":"13","energyTypePrefered":"1"},{"index":114,"seed":"JJQKKXRV9MBUOSEJ9QYDOOAWMFURHWVLSJSHLXLXTTL9NAFWQKRALRGERRRQQRNLJCPNWPUPBIQG9ESSM","address":"9AZDDBUSGRNWKUARQFKPFAE9UHYOMZUXOYIEIRZVQBDTKRHTWLMEPIJPZXPJCOTPQZLBSIBIDQOASBASW","optimalPurchaseTarget":-100,"optimalPurchaseTargetScore":-100,"availablePurchaseTargetList":[],"optimalSaleTarget":-100,"optimalSaleTargetScore":-100,"latitute":"51.725610","longitute":"-2.039532","amountDemanded":"3","pricePrefered":"14","distancePrefered":"14","energyTypePrefered":"2"},{"index":115,"seed":"PDLSKAPDJ99STEPFU9RAOVDWTQYMOKAR9WNNWAJIBXFEXRK9WGTAVEAHRXRTM9EQICCFIOWUAKOLXWGT9","address":"QKUGLCKBKNQNLEAFTUJDFLRCWUINKLMJCL9UAQAFCW9ISMBSDGLDPMUEWRD9J9YJZMR9CUHDIKOZSVFXD","optimalPurchaseTarget":-100,"optimalPurchaseTargetScore":-100,"availablePurchaseTargetList":[],"optimalSaleTarget":-100,"optimalSaleTargetScore":-100,"latitute":"51.055689","longitute":"-1.630720","amountDemanded":"6","pricePrefered":"15","distancePrefered":"12","energyTypePrefered":"3"},{"index":116,"seed":"KLFMFKPAOYSFHOXENCDIXBFSQUAFIUJKWGRAONBQIGRQTJSQSHNUWCXVHQDNQIUTMGFEJDJVVCMPIBIDL","address":"LK9ME9VHJEV9RKILCRSNAIVZISSJQUMZEHUZPUIXUILAETVXQBVYCDIVCZRTJXF9YGMZQLCTZXDGZJDTX","optimalPurchaseTarget":-100,"optimalPurchaseTargetScore":-100,"availablePurchaseTargetList":[],"optimalSaleTarget":-100,"optimalSaleTargetScore":-100,"latitute":"51.908883","longitute":"-1.274617","amountDemanded":"2","pricePrefered":"15","distancePrefered":"12","energyTypePrefered":"1"},{"index":117,"seed":"PAV9LIAKWSBEGECWBBOPCXXXEPUJTIRHBYGWDJJGNVKRGUIEGUEFGXFAS9KSSCWFMJVCGEJR9BNOHDUXV","address":"GFGWWPVIHLD9RE99YNIICDJOURBQGP99QRP9MLKBBLAXPSXFQXIZOE9EJXKQEZZOJFSOFYEXHUDMSIG9W","optimalPurchaseTarget":-100,"optimalPurchaseTargetScore":-100,"availablePurchaseTargetList":[],"optimalSaleTarget":-100,"optimalSaleTargetScore":-100,"latitute":"52.343143","longitute":"-1.238890","amountDemanded":"4","pricePrefered":"15","distancePrefered":"15","energyTypePrefered":"2"},{"index":118,"seed":"SJDWWHXHOOHIDMGWSSTLDGUYMVLNFHDDMSASXKNCMDOHPQ9JGNCJPRBXUEDKMQAHPIMKVDBQEFE9A9XCM","address":"WCLKZWSLWBJFXJTPMCNRCMHPQOGPBO9WBPQM9FYWKKRFTXYNRXTDPKGIPMUVSO9FTMUPMEMUCNTHGSZBC","optimalPurchaseTarget":-100,"optimalPurchaseTargetScore":-100,"availablePurchaseTargetList":[],"optimalSaleTarget":-100,"optimalSaleTargetScore":-100,"latitute":"52.186455","longitute":"-1.910096","amountDemanded":"5","pricePrefered":"15","distancePrefered":"12","energyTypePrefered":"2"},{"index":119,"seed":"TKBMUDORIHBOXBQNPGRNBJJS9PAFRW9AGFCGJKIYJIWODHMHANWJSJOTDDWPBDC9NTDCKLXDW9FNECEXO","address":"SXELFCGYFMOIJ9MAYMUFNTDHROSSVT9F9YVHYQCABCNYUSLG9SCQXWYTQAQD9CLMMRYSRXRGXTFZARUVA","optimalPurchaseTarget":-100,"optimalPurchaseTargetScore":-100,"availablePurchaseTargetList":[],"optimalSaleTarget":-100,"optimalSaleTargetScore":-100,"latitute":"51.495291","longitute":"-0.123306","amountDemanded":"3","pricePrefered":"15","distancePrefered":"14","energyTypePrefered":"2"},{"index":120,"seed":"JYRRSTXEGEDJTTNEKACWKHSQQHIMQMLXMHCUAJPSYG9TUDIMMXJCWQDCKMLESPXOOTQHGTTXBLNOICBBJ","address":"UUYAJV9ZPDGQMSNFWWOOAXRS9QVEJDKARLYIJUAXCZRRNDKMEGTOANKNDKAYTQYNI9CUFIUUD9THJ9BHZ","optimalPurchaseTarget":-100,"optimalPurchaseTargetScore":-100,"availablePurchaseTargetList":[],"optimalSaleTarget":-100,"optimalSaleTargetScore":-100,"latitute":"52.409321","longitute":"-1.244871","amountDemanded":"5","pricePrefered":"14","distancePrefered":"15","energyTypePrefered":"2"},{"index":121,"seed":"XPMEIHFMUYIGVUQOSRGMOXDMM9GXKKSGXPBIKLHXRA9FASYTPTYTQUODHVDOJKRKSJHDJAXSIKLQK9WPN","address":"WKKBRSTQIAOOVJLLN9SDSXTXAGJLZ9EQJNGDKPBOARLVYKJOPWHFVQDQXLAQPQRH9WHTTCZDKEZTOOQUA","optimalPurchaseTarget":-100,"optimalPurchaseTargetScore":-100,"availablePurchaseTargetList":[],"optimalSaleTarget":-100,"optimalSaleTargetScore":-100,"latitute":"51.411031","longitute":"-2.120535","amountDemanded":"2","pricePrefered":"16","distancePrefered":"13","energyTypePrefered":"3"},{"index":122,"seed":"JYGQXAQI9MQDPWXGJHLYWCAHXWNWGTCRYOAEMIIUFP99MWLKBGJJ9EKBFSYYWCQVXQSXYIXFARYQR9UXU","address":"RXY9QKKJXBMFITBDQGUJUGRMESIQHFGIBDFSCFQEDVTOBIYYJHEKJNLHMAYBPWZJAGTHTSNSABJKOUQJA","optimalPurchaseTarget":-100,"optimalPurchaseTargetScore":-100,"availablePurchaseTargetList":[],"optimalSaleTarget":-100,"optimalSaleTargetScore":-100,"latitute":"51.798621","longitute":"-0.082238","amountDemanded":"4","pricePrefered":"15","distancePrefered":"12","energyTypePrefered":"1"},{"index":123,"seed":"ELCRQS9FK9XXNODLRXKSFSCKNEKCSWXLBLVOIVFIXWDLBPTLYXYITVDICQPUPRFNSLPWTCSXKURAVEIWX","address":"RKWJWEWOSMRMCYIK9EU9IFXMISWMASASNRCYTNKJAZF9AMWQFHEGNEBPBLCMSHEUJACQXUKQPBLXIAKBX","optimalPurchaseTarget":-100,"optimalPurchaseTargetScore":-100,"availablePurchaseTargetList":[],"optimalSaleTarget":-100,"optimalSaleTargetScore":-100,"latitute":"52.230049","longitute":"-1.281160","amountDemanded":"3","pricePrefered":"15","distancePrefered":"14","energyTypePrefered":"3"},{"index":124,"seed":"QMGWNW9SNHMVLYXWTMJR9LOKJYKJANXDCQUEPUBSEIJHNHCGSSEAYLQQBLQG9NBTSNUTBFB9JXXDRQABR","address":"GCFLUKMLSNUJKXBYUHTMWQUJSGZQJYKIVUGBMZSGWYMEDVSGJUDKPEFKD9OGSEZIAGACBSWWQZSQFCLIC","optimalPurchaseTarget":-100,"optimalPurchaseTargetScore":-100,"availablePurchaseTargetList":[],"optimalSaleTarget":-100,"optimalSaleTargetScore":-100,"latitute":"51.549704","longitute":"-1.452529","amountDemanded":"3","pricePrefered":"15","distancePrefered":"13","energyTypePrefered":"3"},{"index":125,"seed":"XQASJJLOGJSGKXPXMTLFJBGHFJIRTEVJHLMDHPQNUMIFFYEJMSRXOIQMPPBTISTNU99CSRSPNNUVHEAQO","address":"QYGXAYLLEQZRMXIS9PTHDRH9JFQWJMHNUFXGQUGSREOXYUFPTQFWIVFHNZP9EZZJUOXCUVBSDKDEGZCDC","optimalPurchaseTarget":-100,"optimalPurchaseTargetScore":-100,"availablePurchaseTargetList":[],"optimalSaleTarget":-100,"optimalSaleTargetScore":-100,"latitute":"52.138647","longitute":"-0.047014","amountDemanded":"3","pricePrefered":"15","distancePrefered":"15","energyTypePrefered":"3"},{"index":126,"seed":"JYRU9OLNYCUTIFVSKVTQLKNMFRPYJUNMOFXIWAHFYODNXMRDHOVRITSMAPIESTVQEICEHDYPPYR9TVULG","address":"UPEZPRSXB9BNNJDBWSVHUQIYJZTAKWRTPPL9UJFOHSUHIXUB9OLSPTOTALBYWF9YSILVVJESWSOXLNDXZ","optimalPurchaseTarget":-100,"optimalPurchaseTargetScore":-100,"availablePurchaseTargetList":[],"optimalSaleTarget":-100,"optimalSaleTargetScore":-100,"latitute":"50.973080","longitute":"-2.198099","amountDemanded":"3","pricePrefered":"16","distancePrefered":"10","energyTypePrefered":"3"},{"index":127,"seed":"NLELSJFXUKMDFYJDIVHDTHBRWMOOPGBJHPMS9HDQUOTJFXGSIGCYBEJYOKDH9ABCXBUUCXKTYFJANHULF","address":"XLIUQJLHMGSSPNAVFMDYVSAJPITZSCREKCYFTLOSKDZFORCUGRCMLONGQKUMUTOAJC9BJSPVGK9CWZUOW","optimalPurchaseTarget":-100,"optimalPurchaseTargetScore":-100,"availablePurchaseTargetList":[],"optimalSaleTarget":-100,"optimalSaleTargetScore":-100,"latitute":"51.540341","longitute":"-0.603755","amountDemanded":"4","pricePrefered":"15","distancePrefered":"12","energyTypePrefered":"1"},{"index":128,"seed":"MONPSISWYAFFGPXUQV9JCNIEWWVKRDBATYVJVDW9QWVCTXQTYIGYBMOKVYXUF9JDJKDD9EBNSRJSWVHLU","address":"UYQ9LYUBCVLHIFUCNPQGMFVNMVNKUYRHYXISRG9VQKISOVOAOOWWCVHRZB9HDSRGGOKIJDVTYRZ9JZROC","optimalPurchaseTarget":-100,"optimalPurchaseTargetScore":-100,"availablePurchaseTargetList":[],"optimalSaleTarget":-100,"optimalSaleTargetScore":-100,"latitute":"51.858363","longitute":"-2.300157","amountDemanded":"1","pricePrefered":"15","distancePrefered":"13","energyTypePrefered":"3"},{"index":129,"seed":"RAQWSRUJWPIFWIVLNYAAAJTEIRHTTYOIQYGCRDYQGUBSEECQYP9JQIEGMYMIXJYJQBKCSULGFJQIR9HBQ","address":"QQRTCQYJPWAUTEJXULLOQUGLPWWLCPHCXQNCPH9YQNWXGLKKMKGYDEPUM9COXGWPIVXVSQVYYKYOEYLCZ","optimalPurchaseTarget":-100,"optimalPurchaseTargetScore":-100,"availablePurchaseTargetList":[],"optimalSaleTarget":-100,"optimalSaleTargetScore":-100,"latitute":"52.174966","longitute":"-2.323105","amountDemanded":"6","pricePrefered":"16","distancePrefered":"11","energyTypePrefered":"1"},{"index":130,"seed":"DHXYJQUSJCMAAEDBOUWCWBRGHYIMIFNQPWUVGQSBEAKAVREGGNYMK9GSKVHWLCOAHSRVUOXVBTY9TAPYI","address":"OYOCUFTRODYNRSKTOLNLOCUUMSZAJSMWAGBOVFGLU9MUCIGGBRFDTUBGAYJMTURWQTHQ9VX9ARIYKGW9X","optimalPurchaseTarget":-100,"optimalPurchaseTargetScore":-100,"availablePurchaseTargetList":[],"optimalSaleTarget":-100,"optimalSaleTargetScore":-100,"latitute":"52.051011","longitute":"-1.397000","amountDemanded":"3","pricePrefered":"16","distancePrefered":"10","energyTypePrefered":"1"},{"index":131,"seed":"ERDCSCIUGLNXTUQVUSJJOWPAYSKCYFQMDFFOQOMEQMAGPKKYINIMVFCB9RPNDHTYBJBGFIHKSOU9WOQPY","address":"FLNXEUTWE9VTMMTBAYKJDMBIVLTCTPFSBKXOQOCYBRIMXQAIKYHKKYCNEBUELIPXQVFEMBDAGKNEEBVQC","optimalPurchaseTarget":-100,"optimalPurchaseTargetScore":-100,"availablePurchaseTargetList":[],"optimalSaleTarget":-100,"optimalSaleTargetScore":-100,"latitute":"52.240101","longitute":"-0.353889","amountDemanded":"2","pricePrefered":"14","distancePrefered":"14","energyTypePrefered":"3"},{"index":132,"seed":"D9EASSSHDDUMEAUPPENQOBYKQTOXREUWOBXPTWLHAIBGEXDGSPAMHHTLACUSBBKBYTCDIMHBBHDSAIRCI","address":"VKAHJLEXEBWZPPWY99KFKTTIRX9ODMUUYDMD9IZSWBVRBNFO9QEZAIZIKOYYOWESHFG9GOEINGZUZCVIX","optimalPurchaseTarget":-100,"optimalPurchaseTargetScore":-100,"availablePurchaseTargetList":[],"optimalSaleTarget":-100,"optimalSaleTargetScore":-100,"latitute":"51.186038","longitute":"-0.931211","amountDemanded":"2","pricePrefered":"16","distancePrefered":"11","energyTypePrefered":"1"},{"index":133,"seed":"FGLUQHIKFFQB9VSJKM9PWOVEUVXI99CARFIMSBXY9KNDHHUBKSFRSKSXAUMOE9O9IJFLYVGHIAPFBWBAS","address":"OOCKKVZJAITHHW9VWSJ9FZTLBKRIXLSICVLRRRGOLNGXVWYYXHMSWTZBGWPVT9BLIQRMORLMEYFOCYUQX","optimalPurchaseTarget":-100,"optimalPurchaseTargetScore":-100,"availablePurchaseTargetList":[],"optimalSaleTarget":-100,"optimalSaleTargetScore":-100,"latitute":"51.843529","longitute":"-1.266683","amountDemanded":"4","pricePrefered":"15","distancePrefered":"13","energyTypePrefered":"2"},{"index":134,"seed":"UQRTBSTXBDCRW9QTQHCVNB9YSPAGWGAHSPLVQ9LIOHH9LFQJVAFFFAX9BNIACRAQUNQUQENWKAEIBMUDX","address":"LOIFWLRJGVBYFBKDTXMADRFRYINXZENF9TIJIOYEBLNLZUGPFQOFQLOLUOLWKGDMFKQNHHTJPZOIKDKXX","optimalPurchaseTarget":-100,"optimalPurchaseTargetScore":-100,"availablePurchaseTargetList":[],"optimalSaleTarget":-100,"optimalSaleTargetScore":-100,"latitute":"51.092180","longitute":"-1.020229","amountDemanded":"2","pricePrefered":"15","distancePrefered":"11","energyTypePrefered":"2"},{"index":135,"seed":"AD9TWEGMJEQQKS9GRLI9QBXYQSTSQVEBWDUQYDRAD9BVMJEQMJ9SGBAFNMKSHQBCDCCUKFKEKFOEUYSCD","address":"VWC9ZIIJTVTMOAYOYCLQNRBHPIHNDGMH9FJRQUZ9ARDVDCLDUZFKFLHIEREPXGORRLVEJPZXKGXXGCYQD","optimalPurchaseTarget":-100,"optimalPurchaseTargetScore":-100,"availablePurchaseTargetList":[],"optimalSaleTarget":-100,"optimalSaleTargetScore":-100,"latitute":"51.245703","longitute":"-1.936475","amountDemanded":"5","pricePrefered":"14","distancePrefered":"12","energyTypePrefered":"4"},{"index":136,"seed":"PF9K9TPDJUORJDPGLSSAMRKCJSPEPHAIMLHPFESEWEKRG9PWKYCGLCHAYGEJREVNGWCQAGWICHTCXCFLE","address":"9TCFNJ9YLFSILVSVRGFCGNGGVBIOKX9JKLAHXBVEONUGXPGTBWPRLUTTQOPAMWFDCXAHRTMHYGTRMKJ9X","optimalPurchaseTarget":-100,"optimalPurchaseTargetScore":-100,"availablePurchaseTargetList":[],"optimalSaleTarget":-100,"optimalSaleTargetScore":-100,"latitute":"51.753213","longitute":"-0.165234","amountDemanded":"3","pricePrefered":"14","distancePrefered":"12","energyTypePrefered":"4"},{"index":137,"seed":"OLLFTF9SJRGJSWFTNTNYNC9FFEDHCUSKUBNJHFSCDOUHPSBTDC9HBIRRCOSKJUX9JVGOGUTPEHLMBNXOC","address":"TIMINGMBATEIJCIMZUUGUMVLVUBNKCCGKNYRQIAVS9SZCATIGBUXMGDKTFHFVRIZLKUIIJKGKHHXD9DWW","optimalPurchaseTarget":-100,"optimalPurchaseTargetScore":-100,"availablePurchaseTargetList":[],"optimalSaleTarget":-100,"optimalSaleTargetScore":-100,"latitute":"52.158562","longitute":"-1.909523","amountDemanded":"2","pricePrefered":"16","distancePrefered":"11","energyTypePrefered":"3"},{"index":138,"seed":"JODXHJMKGXUCPPTXRTHTASHPFNFBSRJWFTXPVGSCJIESQVDPMEIHESTJIJRFLOWPRLHNKQEDOBRMGXYYJ","address":"XDMBRMHPKFMFDOPGO9M9WAOQLMIUNMKRZHQPNPTSGXOJWNTJEPPSESXK9JDXIOXDQCISOLKGQOSTAJXQW","optimalPurchaseTarget":-100,"optimalPurchaseTargetScore":-100,"availablePurchaseTargetList":[],"optimalSaleTarget":-100,"optimalSaleTargetScore":-100,"latitute":"50.968880","longitute":"0.089008","amountDemanded":"3","pricePrefered":"16","distancePrefered":"13","energyTypePrefered":"1"},{"index":139,"seed":"NRXYGTOKBTPBTQYALGWBVHHSITQLMHXHDR9KF9ADRHMPAALCFMOIOSKPQEOGOMKNNRAABVMVGYKOFBCSR","address":"RDFMU9EKB9FRDEXWLQSYYXASLUIZSDYVGTLLZMRRBKAU9ASESYIBXRANYFNHZNUGGXCOAHQNXDYULFFDD","optimalPurchaseTarget":-100,"optimalPurchaseTargetScore":-100,"availablePurchaseTargetList":[],"optimalSaleTarget":-100,"optimalSaleTargetScore":-100,"latitute":"51.405751","longitute":"-1.729891","amountDemanded":"5","pricePrefered":"15","distancePrefered":"13","energyTypePrefered":"2"},{"index":140,"seed":"JCIXLWHNUYML9CMDOYQVXBCCMOHSUEGHJJHVAPSKJALYNACVWR9DQPQXPKMDHPYIYKSXLIGN9EWUBEYBB","address":"LBIXZCKKOXJSFPZJI9MTBMETHPIRQKDNYUEWMMBXWASFY9ERXYOOGMYXK9FGRHBBXRHYGAYRYMJJVPDFX","optimalPurchaseTarget":-100,"optimalPurchaseTargetScore":-100,"availablePurchaseTargetList":[],"optimalSaleTarget":-100,"optimalSaleTargetScore":-100,"latitute":"51.702864","longitute":"0.277220","amountDemanded":"2","pricePrefered":"15","distancePrefered":"15","energyTypePrefered":"2"},{"index":141,"seed":"QOHBUJGUORQFUFLJFBRWNULKPEYEYEPAABETJOVUVCVKBXFWAVUPSJBRVXETHFOKKKJ9MC9PMHTXXCVKT","address":"SCMYFRAKMFGMYVUAYDRBGQYYUBBWTUPGLBCYDUXUQSSOLPRYRQNNGAMLPUPAECOEWUNV9XRYWNSHNQFT9","optimalPurchaseTarget":-100,"optimalPurchaseTargetScore":-100,"availablePurchaseTargetList":[],"optimalSaleTarget":-100,"optimalSaleTargetScore":-100,"latitute":"51.978575","longitute":"-1.010370","amountDemanded":"2","pricePrefered":"15","distancePrefered":"12","energyTypePrefered":"3"},{"index":142,"seed":"VPGYGFVJO9IPSXBGVF9ONQDYLXERIQUSALCCTIKSKFHEKTMHOQUIBBUNCSHWSA9CMNBEFNGRAOEQINACL","address":"UFKLPGPAQIJIMQ9MVDFEIHYNHVSK9BPQRN9NYMHVAFQNAMHHZWCVGMMALJIOUSVKIGYBNWWNRMXHUJ99B","optimalPurchaseTarget":-100,"optimalPurchaseTargetScore":-100,"availablePurchaseTargetList":[],"optimalSaleTarget":-100,"optimalSaleTargetScore":-100,"latitute":"51.340762","longitute":"-1.310455","amountDemanded":"6","pricePrefered":"15","distancePrefered":"13","energyTypePrefered":"0"},{"index":143,"seed":"HSDMXEVXPULVQNRVSCSBUVIROBJPEWYCRMYMHBTHWWJVVUQXLBQBOIXWLNXEPQHJX9DJMQXXYWJJMCWTG","address":"CBFZELQFTZADMZSOTMZCFUZVVRD9VDFWBBEOCMUWFSPCCYUMJTVHLFYGQJPECM9YGSRIUMAHYW9ONEJYD","optimalPurchaseTarget":-100,"optimalPurchaseTargetScore":-100,"availablePurchaseTargetList":[],"optimalSaleTarget":-100,"optimalSaleTargetScore":-100,"latitute":"51.390927","longitute":"-2.059973","amountDemanded":"6","pricePrefered":"15","distancePrefered":"10","energyTypePrefered":"3"},{"index":144,"seed":"BYNLTUWAMEDAHBIVNB9ODIUOOAVBNEAJYXMLTUCFDOENAPWDQUUGSOJIWVNBHHQAJFPQEDCRAGMHSQGJI","address":"EQJNG9IOMMOWWMJHDQTYCR9XCWLUBBSDYQIG9HAANRIBGZLLEISAFXVRWFHYCRNZCYAQPLUYYAFLKDRKA","optimalPurchaseTarget":-100,"optimalPurchaseTargetScore":-100,"availablePurchaseTargetList":[],"optimalSaleTarget":-100,"optimalSaleTargetScore":-100,"latitute":"52.385541","longitute":"-0.647341","amountDemanded":"5","pricePrefered":"15","distancePrefered":"15","energyTypePrefered":"2"},{"index":145,"seed":"JIGIDHTWXYTFSKHWSXMTHKISNJRNBDALQHTFUOIOXXQFBGJFK9NCV9DCQMFXNSYMXXFEVCIEJL9UHQBCL","address":"HJHJESPHUIMETQRRTTETVOXNEZCZSEAOQHHTFKNVKETBBWPBCFNUSVHL9ZPUICLZOGQFYCVGYX9VVDLQX","optimalPurchaseTarget":-100,"optimalPurchaseTargetScore":-100,"availablePurchaseTargetList":[],"optimalSaleTarget":-100,"optimalSaleTargetScore":-100,"latitute":"51.414857","longitute":"-2.003214","amountDemanded":"2","pricePrefered":"15","distancePrefered":"15","energyTypePrefered":"3"},{"index":146,"seed":"BVUGMBCUWPDGMVSJQADARTMBWTKPUJ99AELEVLIYHFNMV9YHSUDKL9LH9KQTXYLGFRWDYNQQAL99SETQI","address":"ZUJQGYVECODLV9MAHLODLJZ9LJOUKXBNEPYPJUE9GIE9FXDZBLUDXPJ9QQVQHRPCCDSQ9XMQOZEOOVEPX","optimalPurchaseTarget":-100,"optimalPurchaseTargetScore":-100,"availablePurchaseTargetList":[],"optimalSaleTarget":-100,"optimalSaleTargetScore":-100,"latitute":"51.498180","longitute":"0.135552","amountDemanded":"4","pricePrefered":"16","distancePrefered":"12","energyTypePrefered":"1"},{"index":147,"seed":"MJRVQAXWM9UAP9MAWOKAGML9FGPKKK9XFKLKKMCEXOIGOSYMPHEY9HYE9KBCSDYCAIRBDFCKWROBHFKQY","address":"OHDJGPFORNRDEYYLVCQDMHWWX9MTUPWWHUHBPLVHXXJF9OYTFTGRWUOOEKOUPBIFZZIMYZLJMFOLXJIVZ","optimalPurchaseTarget":-100,"optimalPurchaseTargetScore":-100,"availablePurchaseTargetList":[],"optimalSaleTarget":-100,"optimalSaleTargetScore":-100,"latitute":"51.276217","longitute":"-0.412366","amountDemanded":"3","pricePrefered":"14","distancePrefered":"13","energyTypePrefered":"2"},{"index":148,"seed":"LJAKLC9NKCPUMJKPMODQRTXVFDBBVTSOSHKFPOLMDOQVJUEMUEBNIKRTFVTJWG9FFRIXGXQAIFJ9GRHPJ","address":"MTMFCJVXBRLIOIQZQ9IK9ZR9UXFCVVXBXIPGBAOJZQBBPLUKR9JEGCQCSLHZYMOBAGAJUQURUSRWVBRZA","optimalPurchaseTarget":-100,"optimalPurchaseTargetScore":-100,"availablePurchaseTargetList":[],"optimalSaleTarget":-100,"optimalSaleTargetScore":-100,"latitute":"51.542150","longitute":"-1.561461","amountDemanded":"1","pricePrefered":"14","distancePrefered":"12","energyTypePrefered":"2"},{"index":149,"seed":"XUJRYWKHKEMJXFHEBRPLMGPYEVRVXKRMDBFATU9JJEUAGRICEJELNT9RNKJXENTTDGJLTMORMMOYEWCVN","address":"ERZGZGIBSBCKSLFEKSXWKXOSNTQOJXXAJHGVTJIRUFDVJQI9IFJIVBPPYZ9HNRPK9DGHY9UAWLDYLBLRC","optimalPurchaseTarget":-100,"optimalPurchaseTargetScore":-100,"availablePurchaseTargetList":[],"optimalSaleTarget":-100,"optimalSaleTargetScore":-100,"latitute":"51.617056","longitute":"-0.913653","amountDemanded":"2","pricePrefered":"15","distancePrefered":"11","energyTypePrefered":"1"},{"index":150,"seed":"KXQMEICPHTEJU9XARLFYNQUUPNLOBBILRTWHSEBCWDUG9SIJALVCNC9XIODC9VODTVAQEVYSUHOK9GTVY","address":"VOYWMIMXIH9WSJVBZWAEKJAWCLVZUZWOGEYTW9ILYDKLEVJUIMLROUWXNHTWBMLWCWFPKLCPXCELOPENB","optimalPurchaseTarget":-100,"optimalPurchaseTargetScore":-100,"availablePurchaseTargetList":[],"optimalSaleTarget":-100,"optimalSaleTargetScore":-100,"latitute":"51.000194","longitute":"0.073886","amountDemanded":"3","pricePrefered":"15","distancePrefered":"11","energyTypePrefered":"3"},{"index":151,"seed":"MFLMIUPBBG9BGJRSM9LXGBYWN9BNOUBJTDWUQTOSJHHVGKSUHULPGWFRXGSPJUKJ9QJDLIUETYEGXAD9X","address":"WNAWXFZ99MPTK9FAEWJISDQVGQ9MPKVQLNCXUZGCKMDTFIWWSNJBVWXTIWVDD9CYHEEWP9ONPFZFNMCOX","optimalPurchaseTarget":-100,"optimalPurchaseTargetScore":-100,"availablePurchaseTargetList":[],"optimalSaleTarget":-100,"optimalSaleTargetScore":-100,"latitute":"52.422635","longitute":"-0.381829","amountDemanded":"1","pricePrefered":"15","distancePrefered":"11","energyTypePrefered":"3"},{"index":152,"seed":"DJTXGX9DKEQBJICJQHKIUOVXQBITTUKGMEXQEICJNYLBFGRBVVYBAB9VNEUICJHNMXMNNENXJS9IMYPLJ","address":"EYFYZQESOWMAOFLCUAPXRY9YXCSVRASPEUWNHZQUCXNMHNDIJJTFAWOUFCIVHVJWGVJBCHSJOWLYQITVX","optimalPurchaseTarget":-100,"optimalPurchaseTargetScore":-100,"availablePurchaseTargetList":[],"optimalSaleTarget":-100,"optimalSaleTargetScore":-100,"latitute":"52.200078","longitute":"0.266766","amountDemanded":"5","pricePrefered":"14","distancePrefered":"13","energyTypePrefered":"3"},{"index":153,"seed":"REPHLMXK9IHBDKBILWVQULHRBKFIYNJBG9LMODWBWQWGDQWIPATKQXXNHHAVFYYSLQQDCMQKKSEQNNRIX","address":"ETYVVPIEIHKHVRUDX9WJYAG9IEKOFTLFHLKRYO9DQNBBIOF9WVLZDORKVLWDXPH9TQZXSQMEMGYGTSLV9","optimalPurchaseTarget":-100,"optimalPurchaseTargetScore":-100,"availablePurchaseTargetList":[],"optimalSaleTarget":-100,"optimalSaleTargetScore":-100,"latitute":"51.901074","longitute":"-2.046001","amountDemanded":"5","pricePrefered":"15","distancePrefered":"14","energyTypePrefered":"2"},{"index":154,"seed":"NEHRSJSUVGROG9BJONGOOBAVAJYLCACWJSYOYMKDOAMQHKYEVGVBAYFUFOWHEHKNRFRBYJDPOBJTRPAUA","address":"QINCFHEFRGQPXUNXGRMIYQPPVJIDIPSJVQWY9QFYGOPBOIGCCICBGTLICKQVAWBHQUZVYBIGNZGLMLUEA","optimalPurchaseTarget":-100,"optimalPurchaseTargetScore":-100,"availablePurchaseTargetList":[],"optimalSaleTarget":-100,"optimalSaleTargetScore":-100,"latitute":"51.926136","longitute":"-0.874461","amountDemanded":"5","pricePrefered":"15","distancePrefered":"12","energyTypePrefered":"3"},{"index":155,"seed":"IPPLDIQFQNQGHSVNFTEMFGGWDXXLTKIDTQJUEXCTSHIJLGHXJMYCGOPNUMFEXEHIDBONXPEEJVHRE9DGS","address":"EJHXRLWFHKPDGUTWWXLLSIZBDKYAZFARMUMTKQAYBBGIUEOIXJPKFG9COJHYHYMBG99IRAWTNSKPJSNOY","optimalPurchaseTarget":-100,"optimalPurchaseTargetScore":-100,"availablePurchaseTargetList":[],"optimalSaleTarget":-100,"optimalSaleTargetScore":-100,"latitute":"51.253519","longitute":"-1.122511","amountDemanded":"1","pricePrefered":"15","distancePrefered":"12","energyTypePrefered":"0"},{"index":156,"seed":"ILCJIGQCLHDWAFWL9BAQKCEQDH9JBTVLNA9DBTVTTKBHGUFBAKFPVIHUXAVAXXMTUEHSAPOEION9L9KSY","address":"BJYL9MWC9SLWECGMTFDNIBGYFVIL9QWTUTODDJPBQBDQETSWDXEJVVTCPULKHIGYTYF9JTTSD9UFMTM9B","optimalPurchaseTarget":-100,"optimalPurchaseTargetScore":-100,"availablePurchaseTargetList":[],"optimalSaleTarget":-100,"optimalSaleTargetScore":-100,"latitute":"51.611923","longitute":"-1.016643","amountDemanded":"1","pricePrefered":"16","distancePrefered":"14","energyTypePrefered":"0"},{"index":157,"seed":"VQSBVJTQ99PHLHYRTXRQPNNFMGJHKYRVTVMVPILLBFHXBHO9YTOKQAGPPGSAAKPX9CWDQERKSRKIEQEDK","address":"GEM9KECYKRBOSNUVQYDQYXPXZJOVTERHKUSDTSMQOLFFTJZQRWNYUWHZRGJCVYUTTJDDEHHTVUEQFNEAC","optimalPurchaseTarget":-100,"optimalPurchaseTargetScore":-100,"availablePurchaseTargetList":[],"optimalSaleTarget":-100,"optimalSaleTargetScore":-100,"latitute":"51.918071","longitute":"-1.852181","amountDemanded":"5","pricePrefered":"15","distancePrefered":"11","energyTypePrefered":"2"},{"index":158,"seed":"RLOCKBNONCCRJNDBGLDPJXKHBGJFAFDVOKSIWHUCUOAWITWQMDXKUOOJU9UEIUKYGNCSDAEETJLOPSJYU","address":"FY9YQJUFHWUHUBYTQHGCI9RRNVLAPTRWSAQRKKCNHYTPN9EPNIDWUQPQCSTDFSZJXWGBAHZDQZXJRQITZ","optimalPurchaseTarget":-100,"optimalPurchaseTargetScore":-100,"availablePurchaseTargetList":[],"optimalSaleTarget":-100,"optimalSaleTargetScore":-100,"latitute":"51.535528","longitute":"-1.169773","amountDemanded":"3","pricePrefered":"15","distancePrefered":"14","energyTypePrefered":"4"},{"index":159,"seed":"KMQEF9AGGJKDGPLDFDBCHYLMLUWDAGHX9UAJOQTKRXBHFFGEWDWJMXBDMVREMVPKTCDWO9TVLOHMPHEYB","address":"GQCKYMTRBEIEREQRMUVSOOEYQZZCJIHEEEHYQRXRZVBFDPTAVXZDIYDEYKNIEMXMJXIMUQOG9WYYGXTBA","optimalPurchaseTarget":-100,"optimalPurchaseTargetScore":-100,"availablePurchaseTargetList":[],"optimalSaleTarget":-100,"optimalSaleTargetScore":-100,"latitute":"50.973144","longitute":"-0.659420","amountDemanded":"5","pricePrefered":"16","distancePrefered":"14","energyTypePrefered":"3"},{"index":160,"seed":"VBTN9PQBOFTSFYPIQOOYGCFDOVJLTGQKTFBHNODGGCBHYTOPASPFODBYR9CSWFIXQUGIPTTBOLMMQVCPN","address":"NRKVNSRPDRUCDCJNFEYMBQQIIZVFE9ESOOUQYSWY9OHBIYKPJQSTBGWPLWAIHNUJNTWLBYDIVOSSTDNS9","optimalPurchaseTarget":-100,"optimalPurchaseTargetScore":-100,"availablePurchaseTargetList":[],"optimalSaleTarget":-100,"optimalSaleTargetScore":-100,"latitute":"52.254780","longitute":"-2.242579","amountDemanded":"6","pricePrefered":"16","distancePrefered":"14","energyTypePrefered":"3"},{"index":161,"seed":"DSTKXGIYDXMVTSVBDTRIVHJNS9VYCDGIVOOGQDFSBIADIEMUDKTD9AL9IJHSXVGSYSPJUPBNRXYOPMDHS","address":"MSZWOTMTLJIJIJFPOCPNHXNPUNZE9NKXJYLXSEHGLUBHGDFXSDASLZCTSG9JXAMUWFRNPRYOZJEUJACUY","optimalPurchaseTarget":-100,"optimalPurchaseTargetScore":-100,"availablePurchaseTargetList":[],"optimalSaleTarget":-100,"optimalSaleTargetScore":-100,"latitute":"51.503438","longitute":"-1.921227","amountDemanded":"3","pricePrefered":"15","distancePrefered":"12","energyTypePrefered":"1"},{"index":162,"seed":"EUVTVIUCCBGGESR9KDKUSRDBRB9JEWKDYWGQJVP9ELESXENIROEQVGKPOQIKKGAKDNPBKPMMXAECWJCVG","address":"NXPIG9IRLNLPAGECMOBAZZIPNMFZXKROQLKQ9JTJNHZRXUWYFSDHJRRO9AYMTZNRY9AXFRERWONWCYEVC","optimalPurchaseTarget":-100,"optimalPurchaseTargetScore":-100,"availablePurchaseTargetList":[],"optimalSaleTarget":-100,"optimalSaleTargetScore":-100,"latitute":"51.709027","longitute":"-0.294406","amountDemanded":"6","pricePrefered":"14","distancePrefered":"10","energyTypePrefered":"1"},{"index":163,"seed":"SLQFYAXEYCKLITUUQIGCPSG9SWSABKMXGKLMSCFLFAVPSBVKHLBQITMRDJKUWNNFMPGSVXCOICNMYICMO","address":"TDIVDN9QXGNGLXDAMYWSRFOADSCSXXIBTZEPVMP9GTYBOKBPANWUNRMVXYENYGZGPCVHMUAVBOKNYHGOY","optimalPurchaseTarget":-100,"optimalPurchaseTargetScore":-100,"availablePurchaseTargetList":[],"optimalSaleTarget":-100,"optimalSaleTargetScore":-100,"latitute":"52.085223","longitute":"-1.643058","amountDemanded":"5","pricePrefered":"14","distancePrefered":"13","energyTypePrefered":"4"},{"index":164,"seed":"TLUVGYOGVTNRQHOGKIMFMWAGOGOMPOIBRDRFFXBICHDPFJPGEKJLSMLGGOLXSYIUNPQPIKPUGI9EKRJIH","address":"PKEVVDODEVUSRIEGKFOFLA9JCMILYYSS9XWPPUKFMZZZDQJWJUTHHYQDNOWRNF9YBBAKLSTOCVPPCRPND","optimalPurchaseTarget":-100,"optimalPurchaseTargetScore":-100,"availablePurchaseTargetList":[],"optimalSaleTarget":-100,"optimalSaleTargetScore":-100,"latitute":"51.582547","longitute":"-1.868632","amountDemanded":"6","pricePrefered":"16","distancePrefered":"14","energyTypePrefered":"3"},{"index":165,"seed":"HRNUMJOWWVDIUHBOFOGCMLXPEBKDQWK9DWESQEDQTSYOHXCIGTDKRKYGARDPGOHXRDPFNABALLFGYJFMP","address":"TTEIBUXWFNWBGLPYVDAOMT9KGMHYBBHPQWZKVTCLHGGYJQQAYILLNGPMHDSBICOVHPIBFIRKIVKSNCTZB","optimalPurchaseTarget":-100,"optimalPurchaseTargetScore":-100,"availablePurchaseTargetList":[],"optimalSaleTarget":-100,"optimalSaleTargetScore":-100,"latitute":"51.352907","longitute":"-0.332832","amountDemanded":"6","pricePrefered":"16","distancePrefered":"12","energyTypePrefered":"2"},{"index":166,"seed":"YAKEBFKUFOJDNBCKORNKWEQQLYQDOJBOEMDCPAGSCMXSMECY9PKPYSHDNMDUOYVLHJVFRDPBRJBOOVTCO","address":"CSVVIGJNUDWODILJIPHPKRNSDNIY9VG9GCSUXXVALMYDMWYWFAQEFJGYHGDNDRCVUUCIBVKFLDUWFPRCC","optimalPurchaseTarget":-100,"optimalPurchaseTargetScore":-100,"availablePurchaseTargetList":[],"optimalSaleTarget":-100,"optimalSaleTargetScore":-100,"latitute":"52.341412","longitute":"-0.241706","amountDemanded":"2","pricePrefered":"15","distancePrefered":"14","energyTypePrefered":"1"},{"index":167,"seed":"LKHVSNVVKVNICPMQWXYCDKNESOKFNIPUHDWOPLEC9MDALVNQ9M9GEPBUH9CWXL99MUEVBPFKTHQ9RNNMO","address":"WTBIFZLVVGBD9FVCZBPJDLULHIJRBYITCFJJRIISVBWDMVGDEJAIPQFIEKHHR9CVMIULKLTPXMNDSVZMD","optimalPurchaseTarget":-100,"optimalPurchaseTargetScore":-100,"availablePurchaseTargetList":[],"optimalSaleTarget":-100,"optimalSaleTargetScore":-100,"latitute":"52.241898","longitute":"-0.984700","amountDemanded":"4","pricePrefered":"15","distancePrefered":"11","energyTypePrefered":"1"},{"index":168,"seed":"HNMSUYJKUTFDUEKBBQTTHRSPBSJOUOQGJQJWNFIKQRLDHONEJJRPUXUTAIQELQVWDNWWHLLWEIJDVPEOH","address":"QITJGXOPLZSTBSQXW9W9PWPRHMTRXJOLJOLVYGKLXEJQBRTSHVEMOYMYCJVJE9MKJCGCRV9BLPOBDTNDA","optimalPurchaseTarget":-100,"optimalPurchaseTargetScore":-100,"availablePurchaseTargetList":[],"optimalSaleTarget":-100,"optimalSaleTargetScore":-100,"latitute":"52.049513","longitute":"-2.162888","amountDemanded":"3","pricePrefered":"16","distancePrefered":"13","energyTypePrefered":"3"},{"index":169,"seed":"VTHAGMCSDLLSVGMILFEAEUTQGFSLICPSQ9IYBRSJYYRODKFVSKYJHXAIYDWJYMYNXBM9ACDEDNKQOAJSG","address":"MTALZFIGRJBCOQRHJJRXYXNSKCTAPYMJKTLVUE9LKZYXRMSKGHMHMWJHNBBGZEGMFGKDVMBOFGETDNYNX","optimalPurchaseTarget":-100,"optimalPurchaseTargetScore":-100,"availablePurchaseTargetList":[],"optimalSaleTarget":-100,"optimalSaleTargetScore":-100,"latitute":"51.707453","longitute":"-0.148366","amountDemanded":"2","pricePrefered":"15","distancePrefered":"10","energyTypePrefered":"1"},{"index":170,"seed":"WYUJXBM9TJGWRYKDFPUQLXHOUKVFPKFSQWCVM9IVLXGPQVIAPO9KKHWUDVLUNLJBVBIQRBLKLPUHPLIYV","address":"RGVJWNNQD9XBPESNIV9BBIIGHYFIKU9DNVQNWBOYPHAOZBECHBCOYJWZZGFIVYFTDHSP9FM9ZYADLSTXZ","optimalPurchaseTarget":-100,"optimalPurchaseTargetScore":-100,"availablePurchaseTargetList":[],"optimalSaleTarget":-100,"optimalSaleTargetScore":-100,"latitute":"52.410003","longitute":"0.045338","amountDemanded":"6","pricePrefered":"14","distancePrefered":"14","energyTypePrefered":"1"},{"index":171,"seed":"PLIB9PSXUWDILRCFIVONAQVNWDTRIYOUAYMMYGY9ICNMDPFALPEIHO9OHTTMWFKTE9UBCTLDIMJWUCAIJ","address":"LMUQBORBLAJQESDFZKWLHQTTXJKXQNNSKFATWJPROJTQZKBNVVAKEW9NYYIDYZUVEPAHYPZUDITJYBDJB","optimalPurchaseTarget":-100,"optimalPurchaseTargetScore":-100,"availablePurchaseTargetList":[],"optimalSaleTarget":-100,"optimalSaleTargetScore":-100,"latitute":"51.041012","longitute":"-1.977379","amountDemanded":"5","pricePrefered":"16","distancePrefered":"12","energyTypePrefered":"1"},{"index":172,"seed":"COSFLYMWHEVKYI9LRNOISJBBUD9W99SYIGQHLKXFTDJBROMAAICMMNXXWFCPXDXDMXCOOISJMRNIYGHEX","address":"GWPNGXREVAEAEZFLNFDASDVNKHSNRAFCJP9LPOF9INFGIMAVZAKOJDQKOMVPOXXIERFPMIKEIBCDSEYUA","optimalPurchaseTarget":-100,"optimalPurchaseTargetScore":-100,"availablePurchaseTargetList":[],"optimalSaleTarget":-100,"optimalSaleTargetScore":-100,"latitute":"51.399996","longitute":"-1.732423","amountDemanded":"4","pricePrefered":"15","distancePrefered":"12","energyTypePrefered":"2"},{"index":173,"seed":"WPQRNUUL9UTIMSKLUIWG9WNLWTRSQRDDYOKFDFEJ9MOPCWNITMCNUPRMXALMWQVQPYFXRBTRPLKXSJWHQ","address":"KTSHGTZVSZCNIDAXQCIBHSVVNLRKFYTHZENGJZJBUOXR9OCSOISDPWYJVUOIULCODDQGNVMYPGDQTFSYC","optimalPurchaseTarget":-100,"optimalPurchaseTargetScore":-100,"availablePurchaseTargetList":[],"optimalSaleTarget":-100,"optimalSaleTargetScore":-100,"latitute":"52.015975","longitute":"-1.722985","amountDemanded":"2","pricePrefered":"14","distancePrefered":"13","energyTypePrefered":"2"},{"index":174,"seed":"YYMVBGWECRQWDIHNBJFBKYUELCLURSMBGURGXXURNAHDGSWLOXCATXWNKGHTHKCVAEK9CS9JFKBLEOWVV","address":"HWPE9N9JJOTNDBGGRZFQHMAUVWRNTAGFOVLISWVTVEFQBCKZJOLEZDCHDQQCBG9SKT9MIBOQXZWERBYGY","optimalPurchaseTarget":-100,"optimalPurchaseTargetScore":-100,"availablePurchaseTargetList":[],"optimalSaleTarget":-100,"optimalSaleTargetScore":-100,"latitute":"51.078779","longitute":"-2.326254","amountDemanded":"4","pricePrefered":"15","distancePrefered":"11","energyTypePrefered":"4"},{"index":175,"seed":"BPQBPJNFKFEBPBYRPWAPMHONXKXYGXMJTFWOOFYAHARSMCIRPUHCSHEHEBI9BRGCGHYAFNCLJVSHBDHUV","address":"GRVVFBCLHHIFJLYKMZUVRMHWJBPIDYLWEXJHAZNYYQKTHAZ9LIDAWUUMI9JBGJPHQMWDNGYTPWPMUGKWZ","optimalPurchaseTarget":-100,"optimalPurchaseTargetScore":-100,"availablePurchaseTargetList":[],"optimalSaleTarget":-100,"optimalSaleTargetScore":-100,"latitute":"51.032683","longitute":"-0.785387","amountDemanded":"3","pricePrefered":"15","distancePrefered":"14","energyTypePrefered":"3"},{"index":176,"seed":"NOOQIHWAIDNDUCMMURBNOKFUQYIQHYABSO9JNPJHYOEXEQQAACNXYTBBYRPWJBFUSVTMJQXYUY9LGNLLY","address":"DLJCZLCRHTMFHVHPQGHFAGGQXCWPBRCBKINTKUWPCWZPJVZKZKWAENLCZBVYOFHTXWIDFHKYBSCGPSAC9","optimalPurchaseTarget":-100,"optimalPurchaseTargetScore":-100,"availablePurchaseTargetList":[],"optimalSaleTarget":-100,"optimalSaleTargetScore":-100,"latitute":"51.786162","longitute":"-0.621187","amountDemanded":"4","pricePrefered":"16","distancePrefered":"13","energyTypePrefered":"1"},{"index":177,"seed":"NJKNW9XFOT9EDGDNVWVIQWXMUETWVXNTUXQYREUURURCWO9BFFOVX9SAEAHFRFUSMQFCTHPXHUPU9AU9J","address":"MZRJVYANKJJEZYXQVNFROAQOBZZGKSHNAGYKMEFQLYTCCUVCPNCL9CS9UV9EMIBMSNXHZPYPEGJIKE9AX","optimalPurchaseTarget":-100,"optimalPurchaseTargetScore":-100,"availablePurchaseTargetList":[],"optimalSaleTarget":-100,"optimalSaleTargetScore":-100,"latitute":"52.308972","longitute":"0.257336","amountDemanded":"5","pricePrefered":"15","distancePrefered":"13","energyTypePrefered":"1"},{"index":178,"seed":"XMNEEJWOJGQIAFFAFOKMDTWEHYUPMHWSAGKSTVWLWCLGGEVOORWQDYLQJEAFAUAVPIRXLDTILJTNKGPNI","address":"KWZEXCQXUYKDF9WQELUIPCKKTHUMD9BGHD99ZDYNDIZUDP99RQEVP9OO99BLHUEYRMNBRPQZDPEOLNWLY","optimalPurchaseTarget":-100,"optimalPurchaseTargetScore":-100,"availablePurchaseTargetList":[],"optimalSaleTarget":-100,"optimalSaleTargetScore":-100,"latitute":"51.903598","longitute":"-1.350290","amountDemanded":"2","pricePrefered":"14","distancePrefered":"14","energyTypePrefered":"2"},{"index":179,"seed":"UVRYTGKMDRXUMCHAHKHRCBCFBFKGKQWSTVDAICLVTMDMXFYTLODE9PKKPQYJBRNDWERELOEDPQ9MIXGE9","address":"9TTYTHRRXI9MIE9TIGRIR9KTGAHX9MIHBWBZKIIWROXL9OJBPJAAZSGWMDVCXIBQD9WJJCZSAPNRCMRVD","optimalPurchaseTarget":-100,"optimalPurchaseTargetScore":-100,"availablePurchaseTargetList":[],"optimalSaleTarget":-100,"optimalSaleTargetScore":-100,"latitute":"51.576317","longitute":"-0.413535","amountDemanded":"3","pricePrefered":"15","distancePrefered":"11","energyTypePrefered":"4"},{"index":180,"seed":"KSISCPCGANNRMNKMB9LT9WAL9EGGAHFCXXXLFLUQSPLKPDR9MXLRDEIEEHDRMKOJMQEDFB9RTNEAKDCXU","address":"SVXPQ9MGVNGYDI9EPMCBRYNATWYGAKYTUJSSO9ORYCI9YPHDQLPABFNXBNNBUJZLBCLSEILNLGQLJZOQX","optimalPurchaseTarget":-100,"optimalPurchaseTargetScore":-100,"availablePurchaseTargetList":[],"optimalSaleTarget":-100,"optimalSaleTargetScore":-100,"latitute":"51.101498","longitute":"-2.157815","amountDemanded":"3","pricePrefered":"16","distancePrefered":"10","energyTypePrefered":"3"},{"index":181,"seed":"BJK9NPPHQJNULKMVGXWJFCNIPTKVALQROWKVBSTAHJUTWJWMTNLVPARVBBTHMTTEVPJLJNMCMOWDMRGHU","address":"JAMDNCZNFP9DYGGIURMBHKWSJWEGKFKZTBDVGJTDDUYHCQGBDILBQBCPWHDMOYJZRWOMEYXQDPHFXGBVW","optimalPurchaseTarget":-100,"optimalPurchaseTargetScore":-100,"availablePurchaseTargetList":[],"optimalSaleTarget":-100,"optimalSaleTargetScore":-100,"latitute":"51.790931","longitute":"0.152134","amountDemanded":"5","pricePrefered":"16","distancePrefered":"12","energyTypePrefered":"2"},{"index":182,"seed":"NVSIXQVCVSMPOVKYDXXFRXLCPGDVQDXRIJATVPJJSWFRGGSRD9RW9SLGAYNNCSLXXCNXVEK9FWD9ROOHV","address":"VK9UDONRLA9RXBXNLTFKQLVROJQJHVP99XAUBHPVSNNDWBKTCOZMGEPW9KHLHRHRIUAZZR9XOSHYLTAK9","optimalPurchaseTarget":-100,"optimalPurchaseTargetScore":-100,"availablePurchaseTargetList":[],"optimalSaleTarget":-100,"optimalSaleTargetScore":-100,"latitute":"51.817131","longitute":"-1.346625","amountDemanded":"4","pricePrefered":"16","distancePrefered":"15","energyTypePrefered":"1"},{"index":183,"seed":"QMVVK9G9RLGRXLLJKTYVILEBPDQOJMYEWUIKRNRPXAGKTIDYJRVVYIDVRKCDIOPNOEXHONGAQR9QLIASP","address":"TCNRBISPFYMEBQJPOHWMFOIVUURKDJ9XNZCGXOHEHEUFSPYTNZXQREVONQONLMYLBEEJRLLZCWSWUXUTD","optimalPurchaseTarget":-100,"optimalPurchaseTargetScore":-100,"availablePurchaseTargetList":[],"optimalSaleTarget":-100,"optimalSaleTargetScore":-100,"latitute":"51.408682","longitute":"-2.370511","amountDemanded":"5","pricePrefered":"16","distancePrefered":"11","energyTypePrefered":"0"},{"index":184,"seed":"CFASTDXEDAOGGMPTCFXSYDLYFTDWLNHBKKXTH9PKABUHLETCPRQSCAAGAECXOJXMBGCOUJXDRM9RQICB9","address":"PPIQQBCXTF9LBMMTP9MSFECVPR9TNLAJOKXOPMJUWUIZIJTCNFIXNWJULJUCFM9AHUFKMZKDNGIPLJONB","optimalPurchaseTarget":-100,"optimalPurchaseTargetScore":-100,"availablePurchaseTargetList":[],"optimalSaleTarget":-100,"optimalSaleTargetScore":-100,"latitute":"51.262627","longitute":"-1.814810","amountDemanded":"4","pricePrefered":"15","distancePrefered":"13","energyTypePrefered":"1"},{"index":185,"seed":"MWXGRSYTIUAYHT9SL9CCQOXFKNWUNCUYGFBWPBIWCCJYMJCPRBKOTSKRPUEFAJLDCWYIQGYBYVHUDCVVI","address":"WOOE9UCAIUYKVLWBF9P9AJWPQAMDXDURVBZXMQMSPJWGOIHHWBFP9RIOYBUOJZ9PNXYSBTQPLFXTFIHIB","optimalPurchaseTarget":-100,"optimalPurchaseTargetScore":-100,"availablePurchaseTargetList":[],"optimalSaleTarget":-100,"optimalSaleTargetScore":-100,"latitute":"51.158991","longitute":"-0.744294","amountDemanded":"3","pricePrefered":"15","distancePrefered":"11","energyTypePrefered":"1"},{"index":186,"seed":"YHEG9FILMBD9THCXGOOJPPJMNSLUYJUCLW9AMUFNQEXMREEFEHIDYDNGSROKWNSFCYPPBMVRROITXIUCF","address":"DDUQUNWRNED9RMWKMAMRDJRYIASSGZRHKKJSDM9VVBPVTLEGFSYP9AQQKVWWAJW9RVAQIZPV9DLHBQZRC","optimalPurchaseTarget":-100,"optimalPurchaseTargetScore":-100,"availablePurchaseTargetList":[],"optimalSaleTarget":-100,"optimalSaleTargetScore":-100,"latitute":"51.905623","longitute":"-0.179504","amountDemanded":"3","pricePrefered":"15","distancePrefered":"12","energyTypePrefered":"1"},{"index":187,"seed":"9TNWESYNNCTHIGM9WE9HPWQFWFOYHUEBM999JXLPIAVCSRIAXOK9VBTTRVCTMO9MKT9XTEPDWATBAIPDO","address":"NAVAMVVBNLK9TVLBXKXSYXVSIMFYI9HQKORCFLDGPBLUX9PYWJOETOBOJEFRLEYPWIGIYDOKMQTHVBHDA","optimalPurchaseTarget":-100,"optimalPurchaseTargetScore":-100,"availablePurchaseTargetList":[],"optimalSaleTarget":-100,"optimalSaleTargetScore":-100,"latitute":"51.467939","longitute":"-0.199453","amountDemanded":"2","pricePrefered":"16","distancePrefered":"12","energyTypePrefered":"1"},{"index":188,"seed":"FPELLPKDMSDFQ9EPNNKUEDJYXUENGCPBYRF9MAJ9FFIMFSBUNACROWWLLAWPFFIBXSKKWCIDGXNDWMGFT","address":"GWMGO9BJEDYNPZVQDKUITL9IKCXGWXDFAAUGMMUVAWPUIJDZRRZPLIEANWUYPJSEIEYB9OIFKAUWTSOFY","optimalPurchaseTarget":-100,"optimalPurchaseTargetScore":-100,"availablePurchaseTargetList":[],"optimalSaleTarget":-100,"optimalSaleTargetScore":-100,"latitute":"51.024437","longitute":"-1.453695","amountDemanded":"1","pricePrefered":"14","distancePrefered":"13","energyTypePrefered":"1"},{"index":189,"seed":"TMCUWWJHJWSSPFHRTXXJARFEGQF9HQTAOAEW9QFIWEJFQYQTAJROISPWBH9IBWYMKIYOAHD99WFLBAKXB","address":"QOFHTCKATOBFEBBHSGL99MYJKXY9ZGZVREFYMNYILUEGMEOAULWYNEOOYUQORSRMRSLPSOLRBGRVIRPEW","optimalPurchaseTarget":-100,"optimalPurchaseTargetScore":-100,"availablePurchaseTargetList":[],"optimalSaleTarget":-100,"optimalSaleTargetScore":-100,"latitute":"51.307856","longitute":"-2.178697","amountDemanded":"5","pricePrefered":"15","distancePrefered":"10","energyTypePrefered":"2"},{"index":190,"seed":"SOEATX9GTTPKNKCXVQOFRO9IWMATFMXWWUATEME99MSPOKLXTLOYVQANYVVSQHMUALMLHOAWUY9WKLRLR","address":"FQZI9KCBWVKNKSQKLGBYKVSBFMRPNBTMRPYPSRLSAOMWEGZYXYMJTP9ASEQSNAHXIHDCPEVEPLSDVVNM9","optimalPurchaseTarget":-100,"optimalPurchaseTargetScore":-100,"availablePurchaseTargetList":[],"optimalSaleTarget":-100,"optimalSaleTargetScore":-100,"latitute":"51.176597","longitute":"-1.973533","amountDemanded":"4","pricePrefered":"15","distancePrefered":"12","energyTypePrefered":"1"},{"index":191,"seed":"NJDMVLPEFXGLHXFFFBOPUMSRYMAAPLSEIUSFXMKSSVHNYJCSYFDO9OLBEQMHFMPWRMSEFPWVMPQKYDOXR","address":"A9KGRLQ9ZEBGYICKPJMWAHIZM9I9OBZTJGDBBGGSTNGZBVZDYPNRACEYCGELGUNTVLSBDDJUJRJOSDFVD","optimalPurchaseTarget":-100,"optimalPurchaseTargetScore":-100,"availablePurchaseTargetList":[],"optimalSaleTarget":-100,"optimalSaleTargetScore":-100,"latitute":"51.850105","longitute":"-1.788160","amountDemanded":"4","pricePrefered":"16","distancePrefered":"11","energyTypePrefered":"1"},{"index":192,"seed":"DFVPFBVMIKIIPTRWMETUDMIKNFTNTBRMNNPUBKOQTRHOFGPCQOXMSIXTKAQPGELVIJUMDDYFQ9UCQOCTG","address":"LEKAPINGAICMIESFGRISBXRPMQYSTEOELFTMKFZKWENCYHWMERHWVGGOBECOYNGRVLVXCIJMFHYFZTTZA","optimalPurchaseTarget":-100,"optimalPurchaseTargetScore":-100,"availablePurchaseTargetList":[],"optimalSaleTarget":-100,"optimalSaleTargetScore":-100,"latitute":"52.373907","longitute":"-0.157259","amountDemanded":"2","pricePrefered":"15","distancePrefered":"14","energyTypePrefered":"4"},{"index":193,"seed":"TXTCPYKIMEHVDXURFYJCVR9DIXMWLRJ9CYLMYTEHUVHFWR9VMSKOHRDMJMVQTPVUMSML9BXFOI9VVJK9I","address":"SNBUJTNCDORLMDUPOECYSCCGFBLYIRIUVEXCGHZXXRPEPOVCABGAYTHREHJAPIZVFKWC9MKJECKACVQWW","optimalPurchaseTarget":-100,"optimalPurchaseTargetScore":-100,"availablePurchaseTargetList":[],"optimalSaleTarget":-100,"optimalSaleTargetScore":-100,"latitute":"52.100651","longitute":"-1.169951","amountDemanded":"5","pricePrefered":"15","distancePrefered":"11","energyTypePrefered":"3"},{"index":194,"seed":"JWAXFSLBYT9ORFNYHUAUSPULLYARQHWNPCTED9SADAHOATGKMPNQSLE9HHUADDPEQCJVQRQGRQKSPIFLK","address":"GXOE9HWQVHUUOYYXNBFGQYHSQSSFDIJFIMZMHWYBQCJAJKVRGWKYQDCVPRABXM9CEEMRTIKRZMWQWQVNA","optimalPurchaseTarget":-100,"optimalPurchaseTargetScore":-100,"availablePurchaseTargetList":[],"optimalSaleTarget":-100,"optimalSaleTargetScore":-100,"latitute":"51.487183","longitute":"-1.690894","amountDemanded":"5","pricePrefered":"15","distancePrefered":"13","energyTypePrefered":"2"},{"index":195,"seed":"VTE9WHGQFGH9DD99JJR9FLKQWPCNRXMYR9XLLBTSUTQHCCTUROXQHJPYJUANNOWEMLHTFHSWHP9VSAKSA","address":"LYYMNKEFUFTUDLWTMATTZGUHDWOD99FBDHMNMHDIUKXGEYQUD9ODTOESKMUICLGYJXPSOYOCJTXWPVRL9","optimalPurchaseTarget":-100,"optimalPurchaseTargetScore":-100,"availablePurchaseTargetList":[],"optimalSaleTarget":-100,"optimalSaleTargetScore":-100,"latitute":"51.495076","longitute":"-1.729841","amountDemanded":"5","pricePrefered":"15","distancePrefered":"10","energyTypePrefered":"2"},{"index":196,"seed":"NBPOGFULCNCEJAFSDKVRISCDJFAXIMI9WXVJRKWVMVIPCMIMRXGKOYTFYHAACEFRHYBHQWFWJBSTNTWJC","address":"LGECNKHJKJCMRLOBFII9NJTIKKFBFLHLZCOYHQOJBYQJZSCYCSOJTOILUQAHYPREUSOMSPSANNPUISPUZ","optimalPurchaseTarget":-100,"optimalPurchaseTargetScore":-100,"availablePurchaseTargetList":[],"optimalSaleTarget":-100,"optimalSaleTargetScore":-100,"latitute":"51.108706","longitute":"0.168473","amountDemanded":"5","pricePrefered":"15","distancePrefered":"14","energyTypePrefered":"2"},{"index":197,"seed":"KVQID9SOJXGPKIRSDQUUSCJBRNFK9XKQEGGJSNEPSE9DJTMGIYGHFGGUGVUKOPHLWNGSMVYIAGTLGATLR","address":"HIAMTL9EGGRROTGYF9JLZBVT9MGAUHUUSYREBMBGVALKCSMOSKJ9CRZYRGJRPBKHMDSRCXOXXPNXEDZFX","optimalPurchaseTarget":-100,"optimalPurchaseTargetScore":-100,"availablePurchaseTargetList":[],"optimalSaleTarget":-100,"optimalSaleTargetScore":-100,"latitute":"51.560218","longitute":"-2.078526","amountDemanded":"6","pricePrefered":"15","distancePrefered":"11","energyTypePrefered":"2"},{"index":198,"seed":"L9RSGCTWSDPQGKRNGIAKNNGCBMXXG9RLXUQBWKWYYUFWARADWLAYHMPSVUTJXJBFTSWGCMXKDDUJQJHLP","address":"SHXIMCNXTOWDKJMSTSDGPUPECRNWYHJAXHDWOGILPYWBPDZGEFIXH9ENMBFZOUCFVMURAL9BWNJZZJXKB","optimalPurchaseTarget":-100,"optimalPurchaseTargetScore":-100,"availablePurchaseTargetList":[],"optimalSaleTarget":-100,"optimalSaleTargetScore":-100,"latitute":"51.909218","longitute":"-1.841134","amountDemanded":"2","pricePrefered":"15","distancePrefered":"12","energyTypePrefered":"1"},{"index":199,"seed":"NIORQBFHHDXOOFSEFWWTHXPIFAJ9TTTJEPMWRHMBSTXHFXELUYUNHGIOQHKTYQHWXIFPRIJ9FHFLP9UHF","address":"LADYPSGAQJFQMWTWLRPTTWEWKZXEHSZEOHQWATKMPKHROOJ9I9MNUHLPP9LUSPVUNYKSUPSOSNMQFZKOW","optimalPurchaseTarget":-100,"optimalPurchaseTargetScore":-100,"availablePurchaseTargetList":[],"optimalSaleTarget":-100,"optimalSaleTargetScore":-100,"latitute":"51.698568","longitute":"-1.764400","amountDemanded":"2","pricePrefered":"15","distancePrefered":"11","energyTypePrefered":"3"},{"index":200,"seed":"AI9DQMXPXDUPWETLHCHUBTTGHUUVLQCXYPUPPIHJUBYUMYSHFICWXFLMWQPREJE9RIXQSVHXJ9BKCQXNY","address":"FGYJWELHPSWZDSDBCVEB9JWOOYHNX9PXTDMCWLIDMBLCRDHHHSHJ9LNFVJNIPPN9UCIYRD9SZTCYHWBHC","optimalPurchaseTarget":-100,"optimalPurchaseTargetScore":-100,"availablePurchaseTargetList":[],"optimalSaleTarget":-100,"optimalSaleTargetScore":-100,"latitute":"51.772939","longitute":"-1.555940","amountDemanded":"5","pricePrefered":"14","distancePrefered":"11","energyTypePrefered":"3"},{"index":201,"seed":"NPCUFJNN9KTMHHNPNDNTKPJYDBWHYJFGMLJOCTDUF9TRFFNIJIGQJSCTKPQRKRGLEKGGYOGXSNKDDGDIG","address":"9XQYIFQTLJOSDTGUXIPNTLKAILVZEIESPJUVNARWGLJ9BKZQHDXSEOVJANQ9OXRWBV9MWEHGDLXETCFSX","optimalPurchaseTarget":-100,"optimalPurchaseTargetScore":-100,"availablePurchaseTargetList":[],"optimalSaleTarget":-100,"optimalSaleTargetScore":-100,"latitute":"52.328755","longitute":"0.147698","amountDemanded":"3","pricePrefered":"16","distancePrefered":"12","energyTypePrefered":"0"},{"index":202,"seed":"Y9BELJFSG9G9MKDKPPFUOVMR9BTGOXACFMPNUGKLJ9LRTNXMIAEOCLTRU9CANBULGIBBLCYODBUXNUCQV","address":"KNMVELUCZRYOIQAYIU9KVHITGANGLTECOZONLSWWVOLVKOMOQUMWL9HAFDVDYDPEUOWEXRNNDZCPZCRKD","optimalPurchaseTarget":-100,"optimalPurchaseTargetScore":-100,"availablePurchaseTargetList":[],"optimalSaleTarget":-100,"optimalSaleTargetScore":-100,"latitute":"51.006804","longitute":"-0.138702","amountDemanded":"4","pricePrefered":"14","distancePrefered":"11","energyTypePrefered":"3"},{"index":203,"seed":"BRPTETXBCUUHVVTIMCLSIEWUDT9NOONEYIUCOKEVWHUTVVEPDODHHDJQROIODMQYWJQKDSOPHLTUVHBBE","address":"CUWDDQXY9ICSRMZICCZIDSJLOGHTCUEUCICZSCTWHBRDDMPWJAVFJFYDPNXKY9PFGHWXHWWWXYOYO9LQA","optimalPurchaseTarget":-100,"optimalPurchaseTargetScore":-100,"availablePurchaseTargetList":[],"optimalSaleTarget":-100,"optimalSaleTargetScore":-100,"latitute":"52.170279","longitute":"0.089092","amountDemanded":"4","pricePrefered":"16","distancePrefered":"12","energyTypePrefered":"1"},{"index":204,"seed":"FIOE9PQEXSTWQQUWTBKDF9BVPMJUDTAVMGFABNT9WGOVVQGIYXXAL9PRRIPXDCPUJJRBLBRDLLPCQRTYR","address":"ZRTEFVMCHZXNSBBSNSTEDEZZKATESZBVCFWYYVROVNQVCOFHCGLAOUPSGOFXE9WCTPBOKSTBSXIDZTKTX","optimalPurchaseTarget":-100,"optimalPurchaseTargetScore":-100,"availablePurchaseTargetList":[],"optimalSaleTarget":-100,"optimalSaleTargetScore":-100,"latitute":"52.244682","longitute":"-0.250071","amountDemanded":"2","pricePrefered":"15","distancePrefered":"13","energyTypePrefered":"1"},