[{"index":0,"seed":"W9DACWFAKBAWSJIKUKUUXEDCITPXGKNXSHGULXLIYAKWVVRCELJGTCLYADEGSNSODDQXKF9IKGVBMDNUV","address":"RVAHVJJZNLCZMXXERWYBIIAVTP9YOCHDBXXWPMBVYXJXKCZCLPVBCXZNUTPFCNRLZLVJH9TTMDFASSAEX","optimalPurchaseTarget":-100,"optimalPurchaseTargetScore":-100,"availablePurchaseTargetList":[],"optimalSaleTarget":-100,"optimalSaleTargetScore":-100,"latitute":"51.719434","longitute":"-0.725559","amountDemanded":"4","pricePrefered":"14","distancePrefered":"12","energyTypePrefered":"1"},{"index":1,"seed":"GFIJLTSEWMAHAPPDCGWHDTWNISLOGYVAMXJMIBEGMMUYQKSPMJJHNGCALLLQNSIIYGTPCRL9VJRB9XCPE","address":"UZMLEKTVGCAAPIGHLKNSQYRXMDMSGTNOIDQELHXIRVHSRKQVNIE9ECLAKARMVNCNKYK9ZUEGCUCDMOHVC","optimalPurchaseTarget":-100,"optimalPurchaseTargetScore":-100,"availablePurchaseTargetList":[],"optimalSaleTarget":-100,"optimalSaleTargetScore":-100,"latitute":"51.605392","longitute":"-0.204841","amountDemanded":"3","pricePrefered":"15","distancePrefered":"14","energyTypePrefered":"4"},{"index":2,"seed":"UXKLXSWHHWXW9QGSJECARMGYIVPASHVFPRBAMDJESXUIW9HPJWCSOJVMVDYQQ9IWOAGGMNOLCXUQFJIHJ","address":"EQOEPYOKGYHCUIGKLNWSYKBAGZTZVA9CJ9IBSWBVEEKMXMRJWJEEGSBPIQLKYHNOJEAOFAVFOEEIHSVSC","optimalPurchaseTarget":-100,"optimalPurchaseTargetScore":-100,"availablePurchaseTargetList":[],"optimalSaleTarget":-100,"optimalSaleTargetScore":-100,"latitute":"51.374428","longitute":"-0.651961","amountDemanded":"5","pricePrefered":"15","distancePrefered":"12","energyTypePrefered":"1"},{"index":3,"seed":"KNDLKBRFXCIQ9ALJTYRNCFVN9ETBESLU9OYJMQLHRFBWKSDBWF99NWWTLIQDVEWQJA9SSIGDFNEHGDJPX","address":"WTECUFXIUTUWRSSNH9ZRDVNFMKFHDLFSRCTDWHFKQVEXXPSNAJSWFIGVREDOU9JUVYBCALLWJFETUZQQY","optimalPurchaseTarget":-100,"optimalPurchaseTargetScore":-100,"availablePurchaseTargetList":[],"optimalSaleTarget":-100,"optimalSaleTargetScore":-100,"latitute":"51.402830","longitute":"-0.056988","amountDemanded":"4","pricePrefered":"14","distancePrefered":"15","energyTypePrefered":"4"},{"index":4,"seed":"SSUGSJSUWUAXEFOHXYLGJNUFRANROXHGORPLYUPLPTCKWPPOTCTWTRXQRDMXETFWBHYCUNQPLVLJPRMTV","address":"YOYYNSHDPPZGDO9XFXMRGVTLYUJYSDD9O9SDFUHQVLZBSDRVV9PMSAQVJAPLQTKNXWYW9FQITZRNBESFZ","optimalPurchaseTarget":-100,"optimalPurchaseTargetScore":-100,"availablePurchaseTargetList":[],"optimalSaleTarget":-100,"optimalSaleTargetScore":-100,"latitute":"52.218741","longitute":"-0.855849","amountDemanded":"4","pricePrefered":"16","distancePrefered":"11","energyTypePrefered":"0"},{"index":5,"seed":"TCYUBBCJTHCYHRN9LNYLLAHHVGECPPMVKLHOUFWDLROAGBBFCHWJ9UMVQMEOUICLUBHLSFUXMUFXKWTSB","address":"YYTTRHTVWAAK9DFRNXKRKRIKXIT9XOKOCSFDEPTMGZMNIRP9UYWFUHXYADP9EUJMHNARTYAVILCPPKPXW","optimalPurchaseTarget":-100,"optimalPurchaseTargetScore":-100,"availablePurchaseTargetList":[],"optimalSaleTarget":-100,"optimalSaleTargetScore":-100,"latitute":"50.995782","longitute":"-0.043618","amountDemanded":"6","pricePrefered":"15","distancePrefered":"14","energyTypePrefered":"4"},{"index":6,"seed":"UPT9VI9YCQE9YFDDSTXRTEBGSVJODOMCEPGIE9VDJJCYFAYYCIPAQUFLKIKXCNLIMSLEQOMVIGFKAWF9L","address":"VPYEAJXXCCUOKMHRCUWXCMEYYVUIPRRHFTBLGGSBG9UHUPOFZOHBK9TYUTNYNSEIXRUPVDHKDRLGZNDWX","optimalPurchaseTarget":-100,"optimalPurchaseTargetScore":-100,"availablePurchaseTargetList":[],"optimalSaleTarget":-100,"optimalSaleTargetScore":-100,"latitute":"52.342312","longitute":"-1.242000","amountDemanded":"5","pricePrefered":"14","distancePrefered":"12","energyTypePrefered":"3"},{"index":7,"seed":"AAJY9MRIVDRN9VDDAUKHNCTNQQBLWFILHAHKEVUAXORTADEH9MXTKHHQIXMCXUAYP9IONIHJFDIDSFAOX","address":"RDMUFAXBAMKVBDYTVNPBEBXCSYXOTCJXPOBMOE9VX9GMWFOMRG9ONIN9H9AFYXBVHJDSNRQHUPXHKUNUX","optimalPurchaseTarget":-100,"optimalPurchaseTargetScore":-100,"availablePurchaseTargetList":[],"optimalSaleTarget":-100,"optimalSaleTargetScore":-100,"latitute":"52.242714","longitute":"-1.401096","amountDemanded":"3","pricePrefered":"14","distancePrefered":"14","energyTypePrefered":"2"},{"index":8,"seed":"KXGPTMVRIDEHRPHIDIXJGORWGJJ9AVJU9OHIYWSOHPYJXLQRSTOESKDCSNSIQTERCROHWNSCIRVLBGFBV","address":"BLTWLANTQGXSBMPKSSROPVQPGPSUUIGUALAPJWOFOSOUNRODZBRTKFQNGNJGHRAKW9EZHEEMTLIFXJVSW","optimalPurchaseTarget":-100,"optimalPurchaseTargetScore":-100,"availablePurchaseTargetList":[],"optimalSaleTarget":-100,"optimalSaleTargetScore":-100,"latitute":"51.053150","longitute":"-1.578016","amountDemanded":"3","pricePrefered":"15","distancePrefered":"11","energyTypePrefered":"1"},{"index":9,"seed":"CYTOKSSCNRGVLULBXRMMOOTEVDDCCAHGHFPPWDADCURAJKXQBGVRQPFDICYCXNKMERKWGCALCHXRLCRVC","address":"MAJ9NBHSBCJHGJWCVPKWCXWAJEKNWFWMVGAKQBUVSBYQIKNATETKLKPAOZNAMQFIRVJXMLKSIPIWWFCBD","optimalPurchaseTarget":-100,"optimalPurchaseTargetScore":-100,"availablePurchaseTargetList":[],"optimalSaleTarget":-100,"optimalSaleTargetScore":-100,"latitute":"51.151840","longitute":"-1.031409","amountDemanded":"6","pricePrefered":"14","distancePrefered":"10","energyTypePrefered":"1"},{"index":10,"seed":"HGJVLYWKJXXKSKEOWANXWVXMOSOHIILXRJEHURKFHSCWVRUHTIEAGXXPCGLUCOSVJMSAUQGFMIDPRMCNH","address":"HKNYAZSIPHCVZRCZKAJKSNHTTHBZPOVEA9SJSBS9VCRXFJUY9NREMIVWNJOQAAAQYDWEJSNAZNSHWTLLC","optimalPurchaseTarget":-100,"optimalPurchaseTargetScore":-100,"availablePurchaseTargetList":[],"optimalSaleTarget":-100,"optimalSaleTargetScore":-100,"latitute":"51.930526","longitute":"-1.524928","amountDemanded":"1","pricePrefered":"15","distancePrefered":"15","energyTypePrefered":"1"},{"index":11,"seed":"MYGPOHNXHPOXTBFJBDTIGXW9VPBDDPOCFIBTVCCUMUOXBJ9YXVSAEXRCJ9JUF9YYYQUODERAAVDCBPDNR","address":"XAWSHV9YAHZZUUCEEFEIHYEOQBQPKEGQF9TXZWZDDHLDYKP9CWXRILBC9QT9UTPUKJCQRIXMDSNSGKOLZ","optimalPurchaseTarget":-100,"optimalPurchaseTargetScore":-100,"availablePurchaseTargetList":[],"optimalSaleTarget":-100,"optimalSaleTargetScore":-100,"latitute":"51.020050","longitute":"-1.928252","amountDemanded":"4","pricePrefered":"15","distancePrefered":"15","energyTypePrefered":"4"},{"index":12,"seed":"MWFCIAYEDQQDJ9JTFKQJVP9BCYLDDSYQUROUDWTUJAMRMTNOEKPEPQTTGQETNXLLBRXVYIGSIGQGAPJTX","address":"GMGNGBOEZKVEPYPZRUGPRJV9ELVGTUJHUDHNH9BEGCBNAERJIGUISTOFQYFG9RYMTGPFRFLXLENXANBR9","optimalPurchaseTarget":-100,"optimalPurchaseTargetScore":-100,"availablePurchaseTargetList":[],"optimalSaleTarget":-100,"optimalSaleTargetScore":-100,"latitute":"51.586986","longitute":"-1.146898","amountDemanded":"6","pricePrefered":"14","distancePrefered":"12","energyTypePrefered":"1"},{"index":13,"seed":"9HPJJDMLHMFGT9MLIAGGFHSAIGTWQIJGTRBMKVJBRFV9RESPMCSDEBRVQHQKKAIDCQBNCFERJWTN9QHIS","address":"GTVOB9OCEFZEGLKJSACFST9QFXLYJJBUVPEEVYSHDVPZFBDUKXQELZLZCNSGEKTNJY9LOAKIKBRRCZXHD","optimalPurchaseTarget":-100,"optimalPurchaseTargetScore":-100,"availablePurchaseTargetList":[],"optimalSaleTarget":-100,"optimalSaleTargetScore":-100,"latitute":"51.630701","longitute":"-0.494361","amountDemanded":"6","pricePrefered":"16","distancePrefered":"11","energyTypePrefered":"0"},{"index":14,"seed":"X9EFOPUNFHIKJPWUYKWLYRVJ9QBXUMRUREATIX9JTOY9GWJBLYHPNMFMBCYICVBBYSFVVSSQGCNHBEWNO","address":"XAHGEESBMWNELHLNLBILZOTYJWNOYXZOXMBUEZOOTERARSAIIKNABNPRBYHLOTGWGUBKYCNWVKNLZXKLX","optimalPurchaseTarget":-100,"optimalPurchaseTargetScore":-100,"availablePurchaseTargetList":[],"optimalSaleTarget":-100,"optimalSaleTargetScore":-100,"latitute":"51.455136","longitute":"-2.367880","amountDemanded":"4","pricePrefered":"16","distancePrefered":"13","energyTypePrefered":"3"},{"index":15,"seed":"VG9RETOR9MCSLYJJXWTOWS9BWSWIFATBWDACEMREFCFTARCEYYIFSKXJBONEEWHMJ9VEWMDPDOLIGNMHH","address":"CTDBRGX9GXVA9PQKLQFJRHJWHXIGFLIQV9NMOTAGOWAFYSMVOHGVX9ADGAKOCHJDQMZBABDBUEXQOJEFA","optimalPurchaseTarget":-100,"optimalPurchaseTargetScore":-100,"availablePurchaseTargetList":[],"optimalSaleTarget":-100,"optimalSaleTargetScore":-100,"latitute":"52.405577","longitute":"-0.915988","amountDemanded":"6","pricePrefered":"15","distancePrefered":"13","energyTypePrefered":"3"},{"index":16,"seed":"RODJYGULAYLVVBCKSEADRAFERUVDYFRATJBGCLEMTOPBNPFTHVDHIKDRN9CDTOTWTOIHSNFWUIBSRKIUO","address":"NHQF99HNVZ9RCQYRIDMLXZ9JCCVDWCUPYAHLNCMSSO9CGEYGSVSFBACIOVYGOLOBJNKFF9EJXCO9EHZIC","optimalPurchaseTarget":-100,"optimalPurchaseTargetScore":-100,"availablePurchaseTargetList":[],"optimalSaleTarget":-100,"optimalSaleTargetScore":-100,"latitute":"52.413045","longitute":"-0.125789","amountDemanded":"6","pricePrefered":"15","distancePrefered":"10","energyTypePrefered":"3"},{"index":17,"seed":"VISUBOFGDPPX9YEEJTWLS9PMSACLWKGVVIYMECUUH9EDGEVDQTPXOAXI9JGCTCOMU9BROKBIXCGARJXMV","address":"FGQHOMPYMYK9SWYTTXQTV9WNVZLHCABAHPPOSGABFYYLYWRAVDZWEBOKINOFIJELOIRJHAZW9GL9FGIWA","optimalPurchaseTarget":-100,"optimalPurchaseTargetScore":-100,"availablePurchaseTargetList":[],"optimalSaleTarget":-100,"optimalSaleTargetScore":-100,"latitute":"51.046454","longitute":"-1.969557","amountDemanded":"4","pricePrefered":"15","distancePrefered":"11","energyTypePrefered":"4"},{"index":18,"seed":"PRSOBGLI9VIXTDOSBCMNUECFEAJIWXM9ICMPHGRJMUKWUDAOQHEJ99JKFSKWDOKNPQLHSEXWHHLGPHKKJ","address":"RLUTZTNJKOQBADLBJUQQRRFMPITIDUWI9MQUDXQSTNEKEPKOJLYLJVYXMWTOQFGDBLQRTPSMRERIMTFYW","optimalPurchaseTarget":-100,"optimalPurchaseTargetScore":-100,"availablePurchaseTargetList":[],"optimalSaleTarget":-100,"optimalSaleTargetScore":-100,"latitute":"51.194898","longitute":"-2.080903","amountDemanded":"4","pricePrefered":"16","distancePrefered":"12","energyTypePrefered":"3"},{"index":19,"seed":"GOESNERYGGLCHVFFWSRONULBKRKWDKOBJYQJTYSRBSNCTVSXQMBOHXKKCEUILD9UJGTWFDSQXVNYYJKVQ","address":"QGIPZIAMKN9ETWUCXYLOZHFTJXSYXNISS9TVFKKBHKE9RAGPPR9KZTZYWQIOAE9XOJWUOMRKGVSAYXGVB","optimalPurchaseTarget":-100,"optimalPurchaseTargetScore":-100,"availablePurchaseTargetList":[],"optimalSaleTarget":-100,"optimalSaleTargetScore":-100,"latitute":"52.294719","longitute":"-0.766254","amountDemanded":"4","pricePrefered":"14","distancePrefered":"10","energyTypePrefered":"3"},{"index":20,"seed":"9JDITTTGPTWFGBTGIYRWVLUORAFHHFQWELG9GWIALPWRKKRGJTHDTRTCUNJVGROFXTJBFFCCMMCUOCB99","address":"TKDLNANERTVYRLCOCNOZOWJQJIJSQWK9XMKSACL9SIVPGLPYWS9GPRGEHLFPXGQZMJXKQRGZASZDZKPOZ","optimalPurchaseTarget":-100,"optimalPurchaseTargetScore":-100,"availablePurchaseTargetList":[],"optimalSaleTarget":-100,"optimalSaleTargetScore":-100,"latitute":"51.319894","longitute":"-1.442515","amountDemanded":"1","pricePrefered":"15","distancePrefered":"12","energyTypePrefered":"1"},{"index":21,"seed":"HLBYSBSTCOMPKXHYBEVJJOSPHCLVDMTTSVA99WQHVGBNBXFKA9JXXCPO9OFIRPGYOKERDHSNPUX9EHBVO","address":"UKHEBLZWK9GBULCNCTTXSA9GINLELJOPXPZYDM9PEYKKSLNLVVIEEVDHEKGOKHOZRKJBHALPXSSW9RKDW","optimalPurchaseTarget":-100,"optimalPurchaseTargetScore":-100,"availablePurchaseTargetList":[],"optimalSaleTarget":-100,"optimalSaleTargetScore":-100,"latitute":"51.460300","longitute":"-1.095108","amountDemanded":"2","pricePrefered":"15","distancePrefered":"13","energyTypePrefered":"1"},{"index":22,"seed":"OOB9BBSKGW9AAAPOVKOUJEAHPJKFVCDWRWWWDAFAETXKORHQJDRNQDTGXGRK9DHQGYXBNCWXXHBXKGILP","address":"MXZ9SRHUPKIAEBPQ9ZKUKUAGLULVZTDOYWPYZYAWKDPOUB9WJNUNCXEGOALQHMTMXLJXUSULJDQKGXABW","optimalPurchaseTarget":-100,"optimalPurchaseTargetScore":-100,"availablePurchaseTargetList":[],"optimalSaleTarget":-100,"optimalSaleTargetScore":-100,"latitute":"51.593038","longitute":"-1.778272","amountDemanded":"4","pricePrefered":"15","distancePrefered":"13","energyTypePrefered":"2"},{"index":23,"seed":"9TFRBSX9VFSOKBMBFJUAHPOTTISSPLFRVOWVVVM9SUDPLJJDAWOPWMIKQPUPTRRAA9DFMPXAEHGHLFO9K","address":"NRPHVYAPHDGUQBMRZRJMXRSXPLFDOIBPRYEOQDEFIEPIUUDD9WIYEWYFLLXKZSAHPJUSYPEPLIA9ODEGD","optimalPurchaseTarget":-100,"optimalPurchaseTargetScore":-100,"availablePurchaseTargetList":[],"optimalSaleTarget":-100,"optimalSaleTargetScore":-100,"latitute":"51.159674","longitute":"-0.118095","amountDemanded":"5","pricePrefered":"15","distancePrefered":"14","energyTypePrefered":"0"},{"index":24,"seed":"WHKIJMUIGVOYHUAXFOUETJCDXGRTEUAMYYWJRGUXDRJUSHFAKJCPPADVUEAIFRMBSMMVXMJCJ9GKMRWKG","address":"PODVEHEFCYCJMBKESIUJSLDCMMXZUMTZZBYYBTNCFHBBWERWCNNOZNVUCEWUBRYANZPSMBUTHASRBSIOB","optimalPurchaseTarget":-100,"optimalPurchaseTargetScore":-100,"availablePurchaseTargetList":[],"optimalSaleTarget":-100,"optimalSaleTargetScore":-100,"latitute":"51.118887","longitute":"-0.226146","amountDemanded":"4","pricePrefered":"15","distancePrefered":"10","energyTypePrefered":"0"},{"index":25,"seed":"EVJC9YTBBSENODRMQCANNGIRSFDU9EXOQJHTLOD9KXNOJ9YGPJJJVEIDOBPALBLSLUGQFMDSSVWMIUFAQ","address":"GQAZCFHEWMOACIJZZPHOVWH9OTHJYRKKRZCQ9ZNVODVQOXLVRMUBW9PQCVZU9HD9BNKVK9PTUYVEXGNCX","optimalPurchaseTarget":-100,"optimalPurchaseTargetScore":-100,"availablePurchaseTargetList":[],"optimalSaleTarget":-100,"optimalSaleTargetScore":-100,"latitute":"52.115157","longitute":"-1.144560","amountDemanded":"4","pricePrefered":"14","distancePrefered":"11","energyTypePrefered":"3"},{"index":26,"seed":"JIEXCA9IHVXKUOTWEDFXLBBFGGUJGYHLAYLRPQHKBVRXQEHKPXOONNWAXRQYYXLOHXJKCDUYASFNUXYNS","address":"BCYETU9DXYFVNEZPQYMAXWUITYRPCRNSYGUSPOHRTFEOFQTUNMHOMJUXGNEPTWCEHVFSVIALTNRGHGCFD","optimalPurchaseTarget":-100,"optimalPurchaseTargetScore":-100,"availablePurchaseTargetList":[],"optimalSaleTarget":-100,"optimalSaleTargetScore":-100,"latitute":"51.995038","longitute":"-1.419274","amountDemanded":"5","pricePrefered":"14","distancePrefered":"13","energyTypePrefered":"3"},{"index":27,"seed":"DPSPJBQEN9YWIWQCGUVFWAAUBGOEOQLQXUA99IPLYUX9QMJFYORPWREBAVRHXDHATL9J9HMBJUU9UH9LQ","address":"TUVMKBAYIFKRQRTKOPQUXZXJVCFGZTMYDKGXYHJWVRAKJYCXCOYOVEBHFTAYYAVEAUVHKOPQSVZTYPCCW","optimalPurchaseTarget":-100,"optimalPurchaseTargetScore":-100,"availablePurchaseTargetList":[],"optimalSaleTarget":-100,"optimalSaleTargetScore":-100,"latitute":"52.210224","longitute":"0.201981","amountDemanded":"6","pricePrefered":"14","distancePrefered":"13","energyTypePrefered":"3"},{"index":28,"seed":"AWHRIFWBUWCDFSHXAKMOQJGYNAVLFAFCVRLCQCHDOXBEOBSUTNLUPVKHYTPIOKFCIQHTXIITW9QIVSKOI","address":"OF9NKTXJ9RJG9IVLRJOCQVIYKVLQH9VQIGFBPAAVDCOWJAXUKDIF9UZEBICTFHEORRILPVEYRVFFKPRKW","optimalPurchaseTarget":-100,"optimalPurchaseTargetScore":-100,"availablePurchaseTargetList":[],"optimalSaleTarget":-100,"optimalSaleTargetScore":-100,"latitute":"50.984841","longitute":"-0.827234","amountDemanded":"2","pricePrefered":"14","distancePrefered":"11","energyTypePrefered":"0"},{"index":29,"seed":"CCXJKOVCBBQTEYKBOFFSCOKKTP9SIGCKXQKUMBYXGNDVJKFYCONPPOHIDYLCCOWEK9N9E9PCYSRLCMGAT","address":"LCSWQRFLYGEIMQETTNPOTZYUTXC9SZTDSG9FNZKMMMCFOWWV9UGCQVDUMBX9DNJMEXWYQ9OZNXGWSEXFC","optimalPurchaseTarget":-100,"optimalPurchaseTargetScore":-100,"availablePurchaseTargetList":[],"optimalSaleTarget":-100,"optimalSaleTargetScore":-100,"latitute":"51.356659","longitute":"-1.809208","amountDemanded":"3","pricePrefered":"15","distancePrefered":"13","energyTypePrefered":"2"},{"index":30,"seed":"AKIEADLMDGGDQXOLREQJSROY9JHFGALS9FPMSG9BHUGGNCCDXALJDU9MJIBPTVVTRWGRCYDSBIVBNNSMV","address":"ILCURPIXBNKIKCKZNQHXXDTKMTYMQNG9QFOGOEQKSGMOUAJHWBCPSYCDKCJAOCIVEMPEFTZQENXWMFUKW","optimalPurchaseTarget":-100,"optimalPurchaseTargetScore":-100,"availablePurchaseTargetList":[],"optimalSaleTarget":-100,"optimalSaleTargetScore":-100,"latitute":"51.680189","longitute":"-0.213977","amountDemanded":"4","pricePrefered":"16","distancePrefered":"13","energyTypePrefered":"1"},{"index":31,"seed":"KAEVBVONMEEXJCIERMOVHHXFTNGRHRIWCWORFPHVNIMTFWABCGRTIEXBDOPODJMITBDYCIVQPJTH9GFMU","address":"ZJZQPHIVIPJMXB9CEDKGTIQULTXEZB9HPSSOBPVNSCRHFYGCHRMYTVNAUFULHHTAZWUMUIRC9BOLILR9W","optimalPurchaseTarget":-100,"optimalPurchaseTargetScore":-100,"availablePurchaseTargetList":[],"optimalSaleTarget":-100,"optimalSaleTargetScore":-100,"latitute":"51.490130","longitute":"-1.760957","amountDemanded":"1","pricePrefered":"16","distancePrefered":"14","energyTypePrefered":"3"},{"index":32,"seed":"YESVS9D9KLWWANGOMP99UTHPUJEVERRESMMRXTNYAONDRIYGUHCWTVXPHGGSDXKICN9DJNLWAUBJWXUDC","address":"KHESIZDXLKB9PBABKPSETS9LRMRRIZRANLZBQPNRRNSDMYPDHBUZLRN9DLSWLCLHPQXKVLKHNUXWESKKA","optimalPurchaseTarget":-100,"optimalPurchaseTargetScore":-100,"availablePurchaseTargetList":[],"optimalSaleTarget":-100,"optimalSaleTargetScore":-100,"latitute":"51.428001","longitute":"-1.615273","amountDemanded":"5","pricePrefered":"14","distancePrefered":"13","energyTypePrefered":"3"},{"index":33,"seed":"OMKJJHVGXTLYSFLDORQADVUYBJTVNRTLGDLDKKVYEF9NXJXKPKDFEBQLLVNGVOR9VCQDBVIGMTPBNCHUP","address":"WKMTOQHHURE9OMYPIYAIKYJGOJDNIXW9PPATYGDQXOFKLEE9WMJUOAZVLYUMGIBBXEQJZBEQTWNYPQGRW","optimalPurchaseTarget":-100,"optimalPurchaseTargetScore":-100,"availablePurchaseTargetList":[],"optimalSaleTarget":-100,"optimalSaleTargetScore":-100,"latitute":"52.319605","longitute":"-1.192188","amountDemanded":"5","pricePrefered":"16","distancePrefered":"11","energyTypePrefered":"2"},{"index":34,"seed":"HOVTSKHOLUIVQHHPIXXDEHILOCWEQLIXLPVILTCAEJVDMUCMBOGVKQOYPXDTGCDMJVFQGYNVXEERLEYFV","address":"XVJVUFMIMWCOMWDWIOTMINFDFUEF9UXUJEUEIMDTCPRVJYKRDIAUMUYDOKYBGRKZCMECWYRQJGP9OFC9A","optimalPurchaseTarget":-100,"optimalPurchaseTargetScore":-100,"availablePurchaseTargetList":[],"optimalSaleTarget":-100,"optimalSaleTargetScore":-100,"latitute":"51.388496","longitute":"-1.954077","amountDemanded":"2","pricePrefered":"16","distancePrefered":"14","energyTypePrefered":"4"},{"index":35,"seed":"9QWYYMJKLGIGMGYULDDMJNUDRSJIKGXDMWKTYIOTHQDUOANWPOTRDNNGMSEXVUHGPCMTMDWRSK9JSUKLA","address":"KUQHWWMTUHMDFGLAHIHUDB9MGXEVAHZVQXSOVVFNAPLXUKFHIAMMAYWIEBOEJNBHKNHOGKZ9GFMHMIPEC","optimalPurchaseTarget":-100,"optimalPurchaseTargetScore":-100,"availablePurchaseTargetList":[],"optimalSaleTarget":-100,"optimalSaleTargetScore":-100,"latitute":"51.518915","longitute":"-0.654846","amountDemanded":"5","pricePrefered":"16","distancePrefered":"12","energyTypePrefered":"1"},{"index":36,"seed":"IXL9JGXDXGMLVQIUFDDCBGEONNFMXWVQMQKMEUBBMATTAQBJTUJ9YUFPKNVURADRIBBG9XVRIRFPTMGIY","address":"TPJNTQPX9WVJRPCTOVBYZON9ADFM9VTIT9MNQTR9IRUQMVKDWMZV9PLYRKFVOCSVMOXFLVSVRNIVVQIOZ","optimalPurchaseTarget":-100,"optimalPurchaseTargetScore":-100,"availablePurchaseTargetList":[],"optimalSaleTarget":-100,"optimalSaleTargetScore":-100,"latitute":"51.045826","longitute":"0.268636","amountDemanded":"4","pricePrefered":"14","distancePrefered":"13","energyTypePrefered":"0"},{"index":37,"seed":"RXNWCUPUVGIKVKPGWQS9SQGIDDRAWEWQLUW9NTSPXQIQQAVESJKLNRTDIAGUEIPEAPRBMJGVOYIF9YOTW","address":"KIAKHVXKKSJFKM9JHDN9K9DATSGKWKDYLTWRHSVAYJDMVCQKKYZPXSXFEJNZICWASGHWT9O9DWOLTWNNZ","optimalPurchaseTarget":-100,"optimalPurchaseTargetScore":-100,"availablePurchaseTargetList":[],"optimalSaleTarget":-100,"optimalSaleTargetScore":-100,"latitute":"51.574895","longitute":"-1.954419","amountDemanded":"2","pricePrefered":"15","distancePrefered":"12","energyTypePrefered":"4"},{"index":38,"seed":"DNLPTROKIYCPESQPJRRDLMHXEWWUSFBHQQXIWLKUTIXQPYXQHOMANX9XVITGKMABJXOLJAGLKDCYDLFGE","address":"I9JMDKJOLLUDWRGMF9SWLRNRRGZOAFMRBGTYYDFERIKIDDEOUD9YFIVGRYGZORCOZCJBWXDXYTSQ9KGAX","optimalPurchaseTarget":-100,"optimalPurchaseTargetScore":-100,"availablePurchaseTargetList":[],"optimalSaleTarget":-100,"optimalSaleTargetScore":-100,"latitute":"51.797477","longitute":"-1.028953","amountDemanded":"2","pricePrefered":"16","distancePrefered":"11","energyTypePrefered":"3"},{"index":39,"seed":"UEXGASRTOIAOA9UO9IOAHMCQDYFSYYJMOQNLYPOBDHTKRODOEEDRYALBMADTPWKETUXUDFYVKLRHSYSW9","address":"RGA99CEOETGJJMNOOYXMTHKISXWASEVWZPLLKAZRDOZYRSKTKTIGPGRZLWAHNUSGF9E9BRB9WNKKCUDVZ","optimalPurchaseTarget":-100,"optimalPurchaseTargetScore":-100,"availablePurchaseTargetList":[],"optimalSaleTarget":-100,"optimalSaleTargetScore":-100,"latitute":"52.297701","longitute":"-0.223501","amountDemanded":"4","pricePrefered":"15","distancePrefered":"10","energyTypePrefered":"2"},{"index":40,"seed":"XXQYCKUQAU9RGKBEYPPLMMHALNNOQFMSFBFDCQKHSWGNOPCCONXGXWONPPWIPWV9EKADLYKFWOITBX9MA","address":"WNQHYPNS9RNECTUTFNVNIUAMJFWTDSTITVIGVVTMIDUNTGHPFMHNAW9EA9RZFCFQW9TQBJHUZQFHNMAJD","optimalPurchaseTarget":-100,"optimalPurchaseTargetScore":-100,"availablePurchaseTargetList":[],"optimalSaleTarget":-100,"optimalSaleTargetScore":-100,"latitute":"51.807864","longitute":"-1.189105","amountDemanded":"2","pricePrefered":"16","distancePrefered":"15","energyTypePrefered":"3"},{"index":41,"seed":"HDYTXNAHAXWK9PNWCTFIQCKMNJXA9GPR9MKT9DFDUVSSLIONXCJFLVOSCLNDA9LCHXATYONRRYWEEYJPA","address":"LXHATUGNGKHXRQGWQHROW9SMARJEGMIYHCIWSGMHAINPXCLTZZ9ELXGPHQRY9EWXR9JPFZJHDWFLWTKCD","optimalPurchaseTarget":-100,"optimalPurchaseTargetScore":-100,"availablePurchaseTargetList":[],"optimalSaleTarget":-100,"optimalSaleTargetScore":-100,"latitute":"51.097586","longitute":"-0.022769","amountDemanded":"3","pricePrefered":"15","distancePrefered":"11","energyTypePrefered":"2"},{"index":42,"seed":"UWFNXINYAEOWIXNGGK9IOOJIDMBHJNTJFCYPENEQTLSARGWSJPXLFJHLQHVWMBQSE9OOEBLTGPMPGTSAX","address":"HCKWFJLJIWJNRFWUZBLNUGLASWNNRCDFCOFZUZENNGYARKZIRUCFHXGY9GANVWONFOXOPBNTCZBRLXVID","optimalPurchaseTarget":-100,"optimalPurchaseTargetScore":-100,"availablePurchaseTargetList":[],"optimalSaleTarget":-100,"optimalSaleTargetScore":-100,"latitute":"52.094613","longitute":"-0.043738","amountDemanded":"1","pricePrefered":"16","distancePrefered":"15","energyTypePrefered":"2"},{"index":43,"seed":"LR9DMGMAWMTTASRBSDYJIM9GSTYGFOROFGGJXCWERYYYMLFASJVSI9NT9NMSXILCEYLDCRTLMIBQW9GGC","address":"DROINCAYHTYDHKEBIJQVDGVNYLUGBEGARKIKBCWPCUARQZWXNNSRZRGPLZSSWTBQFWOZBHGXVBGWIOO9B","optimalPurchaseTarget":-100,"optimalPurchaseTargetScore":-100,"availablePurchaseTargetList":[],"optimalSaleTarget":-100,"optimalSaleTargetScore":-100,"latitute":"51.157792","longitute":"-0.101417","amountDemanded":"5","pricePrefered":"15","distancePrefered":"12","energyTypePrefered":"2"},{"index":44,"seed":"UOIUDJKYFJGGMSQJQOIISDURMVIOHINLCYGGPJ9QLYTMJYITJACNPSWHTINFHMYARMRFGWCSB9REQGGOQ","address":"ENHAHMLQXIUBBCV99KXRYGMUWEAYRFJ9ZUDNMVPVKHHUBIETGLROMPEJIAKLBJXA9XISD9RZ9BWRQOYHC","optimalPurchaseTarget":-100,"optimalPurchaseTargetScore":-100,"availablePurchaseTargetList":[],"optimalSaleTarget":-100,"optimalSaleTargetScore":-100,"latitute":"52.016359","longitute":"-2.301345","amountDemanded":"6","pricePrefered":"14","distancePrefered":"11","energyTypePrefered":"2"},{"index":45,"seed":"XMVKBVNYWXQLI9KMTTTIOSIXKWKK9TSNNFXBQDQHHNVGOQIEIIOVQNOUMRFXLTPPENOKMROVYSCFQLBSW","address":"WKYPIIARJIVMNWD9SSPVK9TYCYOJCF9JQPQPNGJNNIBMECFLCAMQ9QE9BHSOPJVGBSSIOX9ARFAECAWRW","optimalPurchaseTarget":-100,"optimalPurchaseTargetScore":-100,"availablePurchaseTargetList":[],"optimalSaleTarget":-100,"optimalSaleTargetScore":-100,"latitute":"51.095980","longitute":"-0.928443","amountDemanded":"3","pricePrefered":"16","distancePrefered":"10","energyTypePrefered":"4"},{"index":46,"seed":"DBACUENDQJHLCERCCFWYEBQVIH9MNYRBTEEYGTNRH9XGPDQXRIAFCCCJCNBYDQK9LTDOIILFIYCVPAMQN","address":"CTVVLWUULEUBI9ZCKFWCUQDCTPMQPDOSAKQQOMWLE9EBWHUGODPWC9QGYGYMTVIFPXGDTNHPBXBHHJTGB","optimalPurchaseTarget":-100,"optimalPurchaseTargetScore":-100,"availablePurchaseTargetList":[],"optimalSaleTarget":-100,"optimalSaleTargetScore":-100,"latitute":"51.012254","longitute":"-0.932446","amountDemanded":"6","pricePrefered":"15","distancePrefered":"12","energyTypePrefered":"0"},{"index":47,"seed":"ECYWLHRCCPKLQOCKTVHJTCCSFSBAWRVKNLQQWKRNQSAJWQKHOOVVYVTP9OWNPEIAUVSUXVHMNRXXRITHU","address":"F9WIVGLRPBCLVYFEBIQRKROISS9OCUNL9PHXDYHMHLUJABYVBSPNGQQNLZNLVEBHBR9KECABCTRDDCDWY","optimalPurchaseTarget":-100,"optimalPurchaseTargetScore":-100,"availablePurchaseTargetList":[],"optimalSaleTarget":-100,"optimalSaleTargetScore":-100,"latitute":"51.920820","longitute":"-2.331490","amountDemanded":"6","pricePrefered":"15","distancePrefered":"14","energyTypePrefered":"0"},{"index":48,"seed":"WFSIMQEVUCRVEPTTFAISECGJNEHMNKUWYP9LJFEBCFJNABGMLJWWHYWKMRSJOXCMOKCDGKXCSYB99CRFX","address":"FCAMV9HDRUVBEAWTLXLULHHYMMUVN9ZEDAOG9RTIQCXQBLPIT9SU9BD9AOTFZNAQHKZZIUTLQIAQ99SLD","optimalPurchaseTarget":-100,"optimalPurchaseTargetScore":-100,"availablePurchaseTargetList":[],"optimalSaleTarget":-100,"optimalSaleTargetScore":-100,"latitute":"51.790798","longitute":"-2.294179","amountDemanded":"2","pricePrefered":"14","distancePrefered":"12","energyTypePrefered":"2"},{"index":49,"seed":"QTRWYFPYFIMGHDJDLJNNNYVEVDXYORSMN9UGCYNSODYDAVXTYJS9KLHSQKEWIJRFGUNGFLBKVNNJUNCUM","address":"SOOIQSUTUHEMWWDBB9RKMCGUMUUEUMVLDKQAULGBUZGUBDNPFHRTXCRQNTZTQWPT9ZRVUMSQOIIXUNYBB","optimalPurchaseTarget":-100,"optimalPurchaseTargetScore":-100,"availablePurchaseTargetList":[],"optimalSaleTarget":-100,"optimalSaleTargetScore":-100,"latitute":"51.801423","longitute":"-1.654516","amountDemanded":"5","pricePrefered":"15","distancePrefered":"11","energyTypePrefered":"2"},{"index":50,"seed":"GT9GJIESGSUUC9JEDAMDGVTW9VJKYQDGFDTGBCSEOK9GHOAW9DYSCJTT9UPCBDFUVDMITOG9VHEAI9NVB","address":"VPHEBRWALKDTYRTAYTAYDERPFXTEJLLVDWMNYXZHJCHSLWUDGUATZEIUOUDAWWWCYIZGVJSWCZKD9UTAW","optimalPurchaseTarget":-100,"optimalPurchaseTargetScore":-100,"availablePurchaseTargetList":[],"optimalSaleTarget":-100,"optimalSaleTargetScore":-100,"latitute":"52.420807","longitute":"-0.145571","amountDemanded":"5","pricePrefered":"14","distancePrefered":"10","energyTypePrefered":"0"},{"index":51,"seed":"PVWQIULWCXPAVPTTYBNWHRQVGYGYEJXSMYXER9XERPNUURIXWMABDBPODYJQLMVAPQOSDIYQKWANRK9GT","address":"FAZHDZBLSMBVJS9NNHDTTYNNQAWWFOW9CMQLZLNYNTFEQQPZIN9TTPWANVSEHULHECEQHUWVOH9MKDVEA","optimalPurchaseTarget":-100,"optimalPurchaseTargetScore":-100,"availablePurchaseTargetList":[],"optimalSaleTarget":-100,"optimalSaleTargetScore":-100,"latitute":"51.639557","longitute":"-1.880219","amountDemanded":"5","pricePrefered":"14","distancePrefered":"10","energyTypePrefered":"2"},{"index":52,"seed":"TYDCQQDYFBMFULMMJXWJLSEDVYOGQGP9VAHGTCWFMHOTEXTQHCIK9SGFECLBEJJMBNIPBWLBAGQG9XDRI","address":"DIBNXTWIDIPISUNSNBL9TAPJME9KKZR99AKJJUSAAHZDHHQYBDGWERFCANQWYKUOLQAGZHXYUQVKDIOFC","optimalPurchaseTarget":-100,"optimalPurchaseTargetScore":-100,"availablePurchaseTargetList":[],"optimalSaleTarget":-100,"optimalSaleTargetScore":-100,"latitute":"51.937282","longitute":"-1.922381","amountDemanded":"3","pricePrefered":"14","distancePrefered":"13","energyTypePrefered":"1"},{"index":53,"seed":"N9CWEGHVRFOEVJCRTOQYLTFWJUDRRPLIPPGMUTQULWRPUECHLCDVOFGTNMR9UICVWFKT9MI9IYFSXJTBP","address":"FPOUIXMQLUOTEYMSSHNMSRDTEECDQUTUFFFSFNAVLNUHUSKF9HRYMIWUVWNAVEMC9HPTKYBVKSDKRDVUY","optimalPurchaseTarget":-100,"optimalPurchaseTargetScore":-100,"availablePurchaseTargetList":[],"optimalSaleTarget":-100,"optimalSaleTargetScore":-100,"latitute":"51.938567","longitute":"-1.820166","amountDemanded":"2","pricePrefered":"15","distancePrefered":"10","energyTypePrefered":"1"},{"index":54,"seed":"TYTHMLPSJFVKVVAUUVHRLTHWCLUP9VGVJQSB9BHPCLSDIHNUDUXAYPQMIUHFNSB9JMGXDODXBVRTHKKHA","address":"WBDU9CCTWWGATUTQQGFBNVHWZH9XNXNTCTRWDBGHLKT9UYRGUKZDHASV9A9JMAPDMXANCMFPZGGWPXJFX","optimalPurchaseTarget":-100,"optimalPurchaseTargetScore":-100,"availablePurchaseTargetList":[],"optimalSaleTarget":-100,"optimalSaleTargetScore":-100,"latitute":"51.221983","longitute":"-0.590701","amountDemanded":"5","pricePrefered":"14","distancePrefered":"12","energyTypePrefered":"0"},{"index":55,"seed":"9ORUOJPWIECLODTKVQFQOSWF9QSALTNSSBTJDJMTTAOUKNMSGVYMALFRSMYPVWPPEX9IMUFWCVPGJHCXV","address":"ECGWPWEPFCHWGQCOLSRDSZBCSYYU9AIAHVJZJOYZB9WMEOFEBEVDBMLQZOMCPDWHVDVSQ9TY9LCVYFLCB","optimalPurchaseTarget":-100,"optimalPurchaseTargetScore":-100,"availablePurchaseTargetList":[],"optimalSaleTarget":-100,"optimalSaleTargetScore":-100,"latitute":"51.249216","longitute":"-1.858295","amountDemanded":"5","pricePrefered":"15","distancePrefered":"12","energyTypePrefered":"3"},{"index":56,"seed":"MSM9LWQFUAKADKRHGGYEOXCXMQSWTVQOAPRLQMBNQLGQMFQDNMTUEAEXAMRMAKNLNNTFRHOIWRWFVRWHU","address":"GFYUJLMFANKFUQWHBHJJFM9SPHBGPIWL99NGKLNWNOKYPKYZFIUPVLZSVRJZPZHMCOOIKZ9A9UILCUUPW","optimalPurchaseTarget":-100,"optimalPurchaseTargetScore":-100,"availablePurchaseTargetList":[],"optimalSaleTarget":-100,"optimalSaleTargetScore":-100,"latitute":"51.677909","longitute":"-0.760886","amountDemanded":"5","pricePrefered":"16","distancePrefered":"10","energyTypePrefered":"3"},{"index":57,"seed":"RIXHUMWWCDIOVIHIJHPGPHJFCGUKMOBSIAGUNEQKWVYLEYPWUACRODXGLESRLYPSAWLBDETPGOVCMHRTV","address":"CYFUC9NKQLNLHGQEXLVMNRLGFBOFCDYKUTNEKJWVYOGDQLPZUZGDSYOSBRYIKHWPL9JOENKAYIZXFBWWX","optimalPurchaseTarget":-100,"optimalPurchaseTargetScore":-100,"availablePurchaseTargetList":[],"optimalSaleTarget":-100,"optimalSaleTargetScore":-100,"latitute":"52.042755","longitute":"0.227711","amountDemanded":"3","pricePrefered":"15","distancePrefered":"13","energyTypePrefered":"4"},{"index":58,"seed":"9QTAQLGMTBJXUGOOIQ9H9OGREREQXIDXAHNX9COSLUVHYBSKIXPFLWERKO9GEUKLGPRUCOLFPFRRWXTFY","address":"YKMPLZDOYBLCPFRZATMJZHWZXQXPQXSQSCYPOPCVJZPWJSKLUTQRCRNFEITOMIUNNHMUWMMSSXTYHJCHC","optimalPurchaseTarget":-100,"optimalPurchaseTargetScore":-100,"availablePurchaseTargetList":[],"optimalSaleTarget":-100,"optimalSaleTargetScore":-100,"latitute":"51.166463","longitute":"0.004224","amountDemanded":"2","pricePrefered":"15","distancePrefered":"14","energyTypePrefered":"1"},{"index":59,"seed":"NOGWYFKMDRIDXPDPCNUPSYS9QSNCFDDK9XCYKYPLGRCKKKWGHSCUYJNLWUAYFWQRFA9CQPEQVNSJ9PRJM","address":"HTOBXYNXI9ACWGNHZFADVSBQMHMYCWUHXJEUHMKAHHU9YZUPTCGLASEFHP9KNKUNGEQWWASIJUJSXXJHC","optimalPurchaseTarget":-100,"optimalPurchaseTargetScore":-100,"availablePurchaseTargetList":[],"optimalSaleTarget":-100,"optimalSaleTargetScore":-100,"latitute":"52.414921","longitute":"-0.792223","amountDemanded":"1","pricePrefered":"16","distancePrefered":"12","energyTypePrefered":"1"},{"index":60,"seed":"9SWBE9NJNHKSBOLDQBDLWYKUYLPCURDJNFSYBIMVCLWUXQHIPPWVIQKEQWBASPCUVOYPSNCENTAGWEUNE","address":"NGZORHMGSQRVQFVEIRKHYMEGIVEVTPHEBHKBDIGTVPZRWFNQZEZYOONKBGMLLHIZYVGNMNRKQJJJSWNPA","optimalPurchaseTarget":-100,"optimalPurchaseTargetScore":-100,"availablePurchaseTargetList":[],"optimalSaleTarget":-100,"optimalSaleTargetScore":-100,"latitute":"51.451102","longitute":"0.084553","amountDemanded":"5","pricePrefered":"16","distancePrefered":"12","energyTypePrefered":"3"},{"index":61,"seed":"IMHWMRGFIGTFRCVCLBVLOFSIOCDHDQMUMVQDHNSN9VTLEHBVTUMHMPLEBJ9NRNEHIAJAYSDVHLVGRRSLN","address":"RWAOBIOUKUKFECHBDKTNGILKKBYSTRAZVTLUJAXHNQTZCRLKAPWTTVCDD99IMGIFXLRTXZEYYWZQRQAVZ","optimalPurchaseTarget":-100,"optimalPurchaseTargetScore":-100,"availablePurchaseTargetList":[],"optimalSaleTarget":-100,"optimalSaleTargetScore":-100,"latitute":"52.020392","longitute":"-2.216860","amountDemanded":"6","pricePrefered":"14","distancePrefered":"15","energyTypePrefered":"3"},{"index":62,"seed":"CQVNNETB9MNOVBJMTFKITMTUUJRGLTHXKDKJSMIBIBO9LFRDBGVXVXDIGFQGYFMAQPFXEILKKQQBBTPHX","address":"PP9FCJGQPSKNQYDKAPZMFXHHUJNBIUHVQLWPP9LIHMZHSLBTNGFMVGWLHNSRSSZJNJISDERWOMGEXT9LD","optimalPurchaseTarget":-100,"optimalPurchaseTargetScore":-100,"availablePurchaseTargetList":[],"optimalSaleTarget":-100,"optimalSaleTargetScore":-100,"latitute":"51.151855","longitute":"-1.206889","amountDemanded":"6","pricePrefered":"15","distancePrefered":"14","energyTypePrefered":"2"},{"index":63,"seed":"CJPYPSRDGDD9NUROJFRWWSXLBGCOGVCKIKLLHNNOJSMNUFWSLQAJNBK9KFMYMMOTXXDKRDLMGWHFVWMKD","address":"EHYHRDRZQCWYPZMGIEEMPPPLSCLONJHMVM9SKNTWFFPEFGRZ9MSWBEEYBR9XWJUVYHPDWZNSRX9PBZTAA","optimalPurchaseTarget":-100,"optimalPurchaseTargetScore":-100,"availablePurchaseTargetList":[],"optimalSaleTarget":-100,"optimalSaleTargetScore":-100,"latitute":"51.066394","longitute":"-0.889605","amountDemanded":"5","pricePrefered":"14","distancePrefered":"11","energyTypePrefered":"4"},{"index":64,"seed":"GVFRBRMLIGDFUGLQANXBAKKCFWJRNESKGBTYGVWFAJ9HVXJLOUUDG9VUKBVYFKMKIYSQILWAQ9GTKFGDC","address":"QGPCMRJLTVFFYY9HTGVUEVKFDIPETSWMJRSTDQSMAM9QHBG9GRUGEGDFI9VFPNTHXHEFMLGLDRTFGLWEW","optimalPurchaseTarget":-100,"optimalPurchaseTargetScore":-100,"availablePurchaseTargetList":[],"optimalSaleTarget":-100,"optimalSaleTargetScore":-100,"latitute":"52.435704","longitute":"0.159216","amountDemanded":"6","pricePrefered":"15","distancePrefered":"14","energyTypePrefered":"2"},{"index":65,"seed":"SXQXJVGDQLAVQNCMHGVBTBRJOQHEAHOOVDPVWTKUBVLIYJCIBW9NYXDENABGBSHAPMCEXDADDENSYBIGA","address":"HMNQPJELXIELE9DPMJUIMPWBYBAFTKRNQSSG9PVFQZZNSIUAUOJFGPOE9FIWZVYDYCYBZDNAJTYGCURSB","optimalPurchaseTarget":-100,"optimalPurchaseTargetScore":-100,"availablePurchaseTargetList":[],"optimalSaleTarget":-100,"optimalSaleTargetScore":-100,"latitute":"52.263345","longitute":"-2.056730","amountDemanded":"5","pricePrefered":"14","distancePrefered":"11","energyTypePrefered":"0"},{"index":66,"seed":"HILWLOSQUMISHOTYV9MIQA9LPIWSPSBOW9TPFFMLKYGXPBMVEDLKDUCMASGFYLBUXJFRXIBNGYUBDDWJV","address":"WPLLWDOEKZ9JWROJSIFZGEUBO9XTKVFDWZNVAW9RSKOMBRXSQBOJDSDJMDIJWOF9FXXDBECAASB9VDMJW","optimalPurchaseTarget":-100,"optimalPurchaseTargetScore":-100,"availablePurchaseTargetList":[],"optimalSaleTarget":-100,"optimalSaleTargetScore":-100,"latitute":"52.188716","longitute":"-1.261601","amountDemanded":"4","pricePrefered":"15","distancePrefered":"13","energyTypePrefered":"2"},{"index":67,"seed":"XGHARQBLFSMSADLIWBQSR9STRVGFMARWMCODIXLHCOMYXQPQMUEHTYXUMLIQFSMEYERWKYTFM9LHULCSY","address":"CRRCGNBXHCBWWNJ9X9RLEEGJTEVGJQPYYUITWKOZBOJYBTJICZEKF9IMZFQVYYMPMYQBGUZGHORXWURKZ","optimalPurchaseTarget":-100,"optimalPurchaseTargetScore":-100,"availablePurchaseTargetList":[],"optimalSaleTarget":-100,"optimalSaleTargetScore":-100,"latitute":"52.361503","longitute":"-1.827582","amountDemanded":"1","pricePrefered":"15","distancePrefered":"13","energyTypePrefered":"3"},{"index":68,"seed":"WKCIJSIAJLNVGTFYLRBVELVYUOJCPHHHEN9DCGCNLRCCCUKVSIHUSPMGSWXMPKQQESDFWMBBFQIRKVBFH","address":"VSFMJFGPSDTBLRWJUKUWTB9PEXCEVACZXDFQEXGKRURWELGIIYNBZFKKGANKMZMTZZWRWYEESUDHOM9XX","optimalPurchaseTarget":-100,"optimalPurchaseTargetScore":-100,"availablePurchaseTargetList":[],"optimalSaleTarget":-100,"optimalSaleTargetScore":-100,"latitute":"52.031279","longitute":"-1.891427","amountDemanded":"4","pricePrefered":"16","distancePrefered":"12","energyTypePrefered":"1"},{"index":69,"seed":"9MQHEKEHQPYHNUCYVOWO99WMLFPEXRVGGSWVFLWMKIVGBWXSBGWCTPEEXOXHVTSMMBMVHRTRRIHNJHO9S","address":"ZAYKQHYHALSFFKUAJSWLSMNLMDUSGXYCERIKM9AAWVGEOF9BRCYUWEZBKUQEAKFCSPFOSWFLANVO9SPPD","optimalPurchaseTarget":-100,"optimalPurchaseTargetScore":-100,"availablePurchaseTargetList":[],"optimalSaleTarget":-100,"optimalSaleTargetScore":-100,"latitute":"52.178283","longitute":"-0.805866","amountDemanded":"5","pricePrefered":"14","distancePrefered":"14","energyTypePrefered":"2"},{"index":70,"seed":"DPUCLJWCMKL99FQUNOK9FQKEGJEE9MLOOVLNYABAFCCFRBVGWRSHAXRKIULOXEXLLTGXEWI9GUSXGWNLS","address":"OKYDLIPQNDQQOYEZDYDOKWVKJBNFFGESCIHXE9GJNIPJGHNSKCVAQVA9OHWNFREFEWDQKHJKBBNFRFDHA","optimalPurchaseTarget":-100,"optimalPurchaseTargetScore":-100,"availablePurchaseTargetList":[],"optimalSaleTarget":-100,"optimalSaleTargetScore":-100,"latitute":"50.964517","longitute":"-0.474689","amountDemanded":"6","pricePrefered":"16","distancePrefered":"12","energyTypePrefered":"0"},{"index":71,"seed":"F9VUC9KLN9VJEJWFMLFKFKUNHSUXHHISA9TTTPLW9BCPXIIUEQONACNKFMTKJD9NOKDJBWLMTYLHWNVPS","address":"VFHBXIIWXIEATYAAMASP9RZK9EXBQXGPCCUOPFQTBZNLAUICAP9BYAOMMQNGRIYRKUCYNIWG9CPFYASHC","optimalPurchaseTarget":-100,"optimalPurchaseTargetScore":-100,"availablePurchaseTargetList":[],"optimalSaleTarget":-100,"optimalSaleTargetScore":-100,"latitute":"52.203405","longitute":"-1.087020","amountDemanded":"5","pricePrefered":"14","distancePrefered":"14","energyTypePrefered":"3"},{"index":72,"seed":"KGVEGNYQCUPMEKHUUXJBRIQLVPWH9CCFXURRSJ9OKDJNTTCSDMMIIHYH9DLDNORY9YBEHDNQABPGBDNYW","address":"NQFJXVOARCZTPXPKRBTK9DQWIRZHRERREUSAYCEXYMEGUBWQHME9QWWXXZKLKXEOWG9W9BQZPWFUDRWUB","optimalPurchaseTarget":-100,"optimalPurchaseTargetScore":-100,"availablePurchaseTargetList":[],"optimalSaleTarget":-100,"optimalSaleTargetScore":-100,"latitute":"51.269382","longitute":"-0.265313","amountDemanded":"3","pricePrefered":"15","distancePrefered":"12","energyTypePrefered":"0"},{"index":73,"seed":"WLHIFRWBFDTQ9RQRSISIIQXSDCDBREDMRMXCKDPWBHKYI9POWLCQOCUPKNIAVGQCOLTLKWHAWNDMIMUJX","address":"AESEDVIEXZETQTGNMIYCLLSYPSFMB9IAWRH9VIEYQSGL9YVRIUZNBPOXLBKUYBTPC9KCQVADTNLF9LZUW","optimalPurchaseTarget":-100,"optimalPurchaseTargetScore":-100,"availablePurchaseTargetList":[],"optimalSaleTarget":-100,"optimalSaleTargetScore":-100,"latitute":"51.379142","longitute":"0.260651","amountDemanded":"5","pricePrefered":"15","distancePrefered":"11","energyTypePrefered":"1"},{"index":74,"seed":"NEGR9EUDPMVYMSKMXWTVRWKTYB9ENDKXAEBFURPUQGWNOYBEXCUIDOMAOKETRDSHTSVROW9IJUNGBLNIV","address":"TWPPESDAKTQAKGDWOPCPCWWLETSVHDCOKRKUAEZCWDHTVHDYTGEBKUFIQVCPZYJMV9XBWIGJARMYCKUUD","optimalPurchaseTarget":-100,"optimalPurchaseTargetScore":-100,"availablePurchaseTargetList":[],"optimalSaleTarget":-100,"optimalSaleTargetScore":-100,"latitute":"52.040064","longitute":"-0.600672","amountDemanded":"2","pricePrefered":"15","distancePrefered":"15","energyTypePrefered":"1"},{"index":75,"seed":"RSFXDLNBKJ9TFSSCXPAEOQLBEK9AYHANWT9KNUHCEFWHXWPPSSDWRFDHCNRPQFJI9PJYTWGGFBODVTTEN","address":"FDZIUANEWKBCLMQBNUYLBTLWXOSE9SCQGBAZYLDATV9FOTXTYFKB9YZZVT9INWSZBVLLMNBOHCGPOKYIW","optimalPurchaseTarget":-100,"optimalPurchaseTargetScore":-100,"availablePurchaseTargetList":[],"optimalSaleTarget":-100,"optimalSaleTargetScore":-100,"latitute":"51.806626","longitute":"-0.366088","amountDemanded":"4","pricePrefered":"15","distancePrefered":"11","energyTypePrefered":"2"},{"index":76,"seed":"QCCL9AONOSNVLLWNBCTIFNSHCKPEJLCQAW9OBCYLCKOPMWDFUH9YNWVHRUYMTOMILEEUGLVIKKUUITIJY","address":"ZMDFBRJISSROXPDFYJOCYTWU9RWB99JDHFNWYDQETYGREEJJXITYVDDVESXJTNWZXNSQMW9BREDVJ9SN9","optimalPurchaseTarget":-100,"optimalPurchaseTargetScore":-100,"availablePurchaseTargetList":[],"optimalSaleTarget":-100,"optimalSaleTargetScore":-100,"latitute":"51.319292","longitute":"-0.707529","amountDemanded":"4","pricePrefered":"16","distancePrefered":"12","energyTypePrefered":"1"},{"index":77,"seed":"HI9GNXBYXYICEPMJNPNATAGFNHJGIDUESNUFCEHWAAATMGONSBDDXGVE9QFQVQDVURFBMXADVUUKUOH9W","address":"ZBJQQPCSRRRJXXQYZWDPHRCMXSGLPOSFMQVXYILFMFICWAPHLTKW9ZJFZPNWORCUNMGDYKSR9WUGAPMAY","optimalPurchaseTarget":-100,"optimalPurchaseTargetScore":-100,"availablePurchaseTargetList":[],"optimalSaleTarget":-100,"optimalSaleTargetScore":-100,"latitute":"51.630709","longitute":"-1.625738","amountDemanded":"2","pricePrefered":"15","distancePrefered":"14","energyTypePrefered":"2"},{"index":78,"seed":"RSKITMLSECRAIATCKEAHPURFURGAACHOODEHHSDVTQYNKDUSVMMATQHCG9RABABKROVLMPIURCIKFQQUA","address":"AFK9VXUE9PFHWOLVEZFQKEQMUEFGRQSPDMPFTYAMZZSDFAYTFMGURDGGLAXRFGOVYKZQQRAWMKSZGWGHD","optimalPurchaseTarget":-100,"optimalPurchaseTargetScore":-100,"availablePurchaseTargetList":[],"optimalSaleTarget":-100,"optimalSaleTargetScore":-100,"latitute":"51.327111","longitute":"-1.035283","amountDemanded":"3","pricePrefered":"15","distancePrefered":"14","energyTypePrefered":"3"},{"index":79,"seed":"A9GCOJJBFYPYAHLONUYPDNQGQQLSPDWTBINFEJKHRKCVNPLWQAJJTGXNBAVNFTDHEIX9OBUCJHFFSBKKL","address":"U9ANSBLKLSOUNYGLSKR9TWWHXDBHSJOEHUZFSILTMOUDVUWTCXJSKWMARDTWMAMCY9SP9SSHYHXFEQWUD","optimalPurchaseTarget":-100,"optimalPurchaseTargetScore":-100,"availablePurchaseTargetList":[],"optimalSaleTarget":-100,"optimalSaleTargetScore":-100,"latitute":"52.333287","longitute":"-2.071060","amountDemanded":"5","pricePrefered":"16","distancePrefered":"12","energyTypePrefered":"4"},{"index":80,"seed":"HHIEBP9UWRODHQJAVCLSLKUKGLFFQHHIOJVF9OPERMANNAXKWMEYXOCKADDUCNEMAVEEVONNTRWPO99WY","address":"EYWQRXEBSK9RGUWLJNVEVRCSDIHZPUBBKJMLSIJQQ9LXBWFQPOEYDSBEAHPZIIIAWXP9HUSGALBICDGYC","optimalPurchaseTarget":-100,"optimalPurchaseTargetScore":-100,"availablePurchaseTargetList":[],"optimalSaleTarget":-100,"optimalSaleTargetScore":-100,"latitute":"51.785099","longitute":"-1.464256","amountDemanded":"4","pricePrefered":"16","distancePrefered":"11","energyTypePrefered":"1"},{"index":81,"seed":"CJOPCN9VFTPRJCIQEWXFHONAHIBJPMJFQMJKAHFKCDDOEWSIWGDFM9VJBPQFVAEHRGFUICBKRAJLAINOR","address":"XCSMCCBQPGV9UOFTAMLOPCMCCPJQHHHONWZHEPUUTBIAZUHEGFWTFYGYOCRZBPQVDVIRCHYSLBPBRVITD","optimalPurchaseTarget":-100,"optimalPurchaseTargetScore":-100,"availablePurchaseTargetList":[],"optimalSaleTarget":-100,"optimalSaleTargetScore":-100,"latitute":"52.188427","longitute":"-2.167519","amountDemanded":"2","pricePrefered":"16","distancePrefered":"13","energyTypePrefered":"1"},{"index":82,"seed":"WMFUCMHY9PGKLDIKMLWNIPQQEFIO9EDPT9NIJPCAEVCXCGOOVBI9TOHROVXVYRVEEQITTCCQLFJJFNPDT","address":"VAS9RJYTPDCUOBBPXHMRNNJ99QQOEBFUABNSEBVFNJUKAIPPEQIDBOPTAIUCIEFWRMUXIRQOWQBOJIFTX","optimalPurchaseTarget":-100,"optimalPurchaseTargetScore":-100,"availablePurchaseTargetList":[],"optimalSaleTarget":-100,"optimalSaleTargetScore":-100,"latitute":"51.287768","longitute":"-0.111124","amountDemanded":"1","pricePrefered":"15","distancePrefered":"11","energyTypePrefered":"0"},{"index":83,"seed":"LCQOKMDLOHT9CSMIHIAFRXP9EB9CWMUYFUTNICXPERKXNEELESMDX9RHBFTPQGBKEABJH9LKESVKBBTAA","address":"SBE9KGDNMRIOWHAVIIVKSMWBZYCOZZXCQROLBUOEVTHFSEDTQCWUAPYJWNIOKGUQPIKNWINKYDACEDTAA","optimalPurchaseTarget":-100,"optimalPurchaseTargetScore":-100,"availablePurchaseTargetList":[],"optimalSaleTarget":-100,"optimalSaleTargetScore":-100,"latitute":"51.567887","longitute":"-1.286533","amountDemanded":"3","pricePrefered":"14","distancePrefered":"11","energyTypePrefered":"2"},{"index":84,"seed":"PHTVAWPWTGYGRTVWKOIINTEGOOPMINCIUVCVIJSIEPRXGATMODSNKUJUXBYOIOFHREWLSXHJK9CIIGKEE","address":"HAZBMZACKYETKEBUZAR9CZOKBNYJBCCNZYIL9QMMDMTBYPHRMMPRGMM9JFSNDQDWFET9YSIHVJPIIT9NW","optimalPurchaseTarget":-100,"optimalPurchaseTargetScore":-100,"availablePurchaseTargetList":[],"optimalSaleTarget":-100,"optimalSaleTargetScore":-100,"latitute":"51.212243","longitute":"-1.269363","amountDemanded":"1","pricePrefered":"15","distancePrefered":"11","energyTypePrefered":"2"},{"index":85,"seed":"Q9AHAGDKITHCMOTGXGINTOYJLSWXTNAROIS9TYL9HBVRBT9WRUJOUIQE9XHOLAVQLDF9XANCMTNYUWQU9","address":"GIUTPMWISDLSDUEGU9ICWNCDZSPHLTYTMNQQTZJANTZEBYFLCK9ALQVDQDAYBKQZZORVAS9KUKDIOXZFX","optimalPurchaseTarget":-100,"optimalPurchaseTargetScore":-100,"availablePurchaseTargetList":[],"optimalSaleTarget":-100,"optimalSaleTargetScore":-100,"latitute":"51.968548","longitute":"-1.190819","amountDemanded":"3","pricePrefered":"15","distancePrefered":"11","energyTypePrefered":"1"},{"index":86,"seed":"LCONVRNXSC9SUAWMBIHQJOUHEHGWEAIPLXKHTUQTWNMIATXKWJVKNBNHM9TSIQSXCNXT9GLUCPOWJPKKD","address":"DH9IISTSAXSJGNJNRJWGJGPSGDCRSHMACOSFX9APCLLTQHSNICAYHHXIJNZTHOGYXTEYAGKFXHHPL9XAX","optimalPurchaseTarget":-100,"optimalPurchaseTargetScore":-100,"availablePurchaseTargetList":[],"optimalSaleTarget":-100,"optimalSaleTargetScore":-100,"latitute":"51.579351","longitute":"-0.810919","amountDemanded":"6","pricePrefered":"16","distancePrefered":"14","energyTypePrefered":"1"},{"index":87,"seed":"YVLLIDDBOUSBKORAEWOWXUEYECIXKLECOO9MFAOUSHPJJBGCPIQNXXGBKQXRCNIIKBUGLCCVBFWALMSJW","address":"VORAYTM9IZYBGQUXFXPPNSYLTHQHQVKAKKKRTQCMNUMHXKTAQFAEFQDASXSZCPQESOJFFGJQLGQNXVZRX","optimalPurchaseTarget":-100,"optimalPurchaseTargetScore":-100,"availablePurchaseTargetList":[],"optimalSaleTarget":-100,"optimalSaleTargetScore":-100,"latitute":"51.714647","longitute":"-2.199588","amountDemanded":"6","pricePrefered":"15","distancePrefered":"15","energyTypePrefered":"2"},{"index":88,"seed":"OWGVAFNYSPQGGWJSOBMFVBBHKTTPTYCNXTWW9KCO9FBGPRWBJPECGIBWNTMHS99UWTBWFUCCHGDXCFPOU","address":"EGJPETKHVSGC9MOJURCXUAUBRG9CYLLTOPCFHSHNBNHMYQCGQEYHAVZK9PSIFRYPYXCTE9YBWABTVKICC","optimalPurchaseTarget":-100,"optimalPurchaseTargetScore":-100,"availablePurchaseTargetList":[],"optimalSaleTarget":-100,"optimalSaleTargetScore":-100,"latitute":"51.453810","longitute":"-1.249836","amountDemanded":"6","pricePrefered":"15","distancePrefered":"12","energyTypePrefered":"3"},{"index":89,"seed":"SUKCQHBDMWTSDECSRR9BCCYWTR9R9IAWXNQGVN9MDLBGYD99ITGCBFLSUYKGQRRFFGXXQECHDGCYYKMTJ","address":"NLYYAOCTPBAFCNW9YAYWHFDJUNABGIFEYJQYJMZBHBIKSHNUACOMNOBAGBKRFTPDDC9YGJALRATCFVWYW","optimalPurchaseTarget":-100,"optimalPurchaseTargetScore":-100,"availablePurchaseTargetList":[],"optimalSaleTarget":-100,"optimalSaleTargetScore":-100,"latitute":"51.141596","longitute":"-0.336827","amountDemanded":"1","pricePrefered":"14","distancePrefered":"14","energyTypePrefered":"3"},{"index":90,"seed":"KRNGBGWWAIVVAQHRNTNQUWQVRVPLVQTRYHYKXULPTAKYDXCFMREXKGWDN9WNOCIEPQI9GKVWWOUJEXYOX","address":"9GDUYNQSF9YRYVODFKFPRTQGANRCKBAEZZICWSTEZVZWJFNEQOTLGLAYPBPDVBSZZXSAFAUQQZOA9Q9PD","optimalPurchaseTarget":-100,"optimalPurchaseTargetScore":-100,"availablePurchaseTargetList":[],"optimalSaleTarget":-100,"optimalSaleTargetScore":-100,"latitute":"51.887558","longitute":"-0.432723","amountDemanded":"3","pricePrefered":"15","distancePrefered":"14","energyTypePrefered":"2"},{"index":91,"seed":"PLXUL99BIIPLEEFBVPMYCTOLJINMQIWIKGXSTPQYVIAQOCVWI9MVVPKRAJOYYTBNKRIILQLVQTAPOPK9O","address":"FROVFFUOLFUTMCQI9WWDOKJRHFMYUHONFJWMRERTEJDUJWXHENF9AOUZMHDPQIFQSMHOTFYPROKTNJTVZ","optimalPurchaseTarget":-100,"optimalPurchaseTargetScore":-100,"availablePurchaseTargetList":[],"optimalSaleTarget":-100,"optimalSaleTargetScore":-100,"latitute":"51.535065","longitute":"-0.693852","amountDemanded":"1","pricePrefered":"14","distancePrefered":"12","energyTypePrefered":"3"},{"index":92,"seed":"HOOLJYMRWCGUEBBBYERXCCTORETTLJBKFPCHUSUMORIWJARTQSXNHWCHEBGP9AUFFDU9UKSGMPDNURXMK","address":"EQ9XWHWURSTLU99K9EJMWICIHRCNLO9WPVWUC9TKJ9L9WQCGMQATMNRDLIIQKRQTMIIIYT9FRXDRKKMNA","optimalPurchaseTarget":-100,"optimalPurchaseTargetScore":-100,"availablePurchaseTargetList":[],"optimalSaleTarget":-100,"optimalSaleTargetScore":-100,"latitute":"52.234939","longitute":"-0.859679","amountDemanded":"2","pricePrefered":"16","distancePrefered":"12","energyTypePrefered":"3"},{"index":93,"seed":"HJBMHJEHBBIUUQG9IGVHXV9EDKENSHQARCQPPHMESU9XVWMUNKWVNNMUMXYCEIAQWVLAMPLYBEPJMKNXH","address":"QLBOLELUOGPY9MDFPYEHVLGSMSRVQXWXCDMWGPYSS9YYNDNGXESIDJOPBSFD9QDMHATFFIW9IERW9DX9X","optimalPurchaseTarget":-100,"optimalPurchaseTargetScore":-100,"availablePurchaseTargetList":[],"optimalSaleTarget":-100,"optimalSaleTargetScore":-100,"latitute":"52.015953","longitute":"-1.121711","amountDemanded":"6","pricePrefered":"14","distancePrefered":"12","energyTypePrefered":"1"},{"index":94,"seed":"MOFCHGIUQHCCPJWAYXTT9XOSBPLIYSBKEORIRSSPTGCOLNWMQYESXEYHNXNOV9NDMLTCQUBFSKL9IHJOE","address":"SRQQCTJPYTBNRAADBXTMTBZHBNWZ9YZRXH9IFDOFNNSFKYSCXSWHKMYBLUBYQSPGQTEWS9RT9YKYUM9VC","optimalPurchaseTarget":-100,"optimalPurchaseTargetScore":-100,"availablePurchaseTargetList":[],"optimalSaleTarget":-100,"optimalSaleTargetScore":-100,"latitute":"52.397261","longitute":"-0.724766","amountDemanded":"4","pricePrefered":"16","distancePrefered":"14","energyTypePrefered":"3"},{"index":95,"seed":"TGJUPAODPVSQNGXMTLXQBLHDUGNULB9ILGW9SLOODPDRLPWAOBKREATCOWNKOH9WSKVGDUMVSVYXCBKUV","address":"9UWJVYWTVOMIOQXD9VMHKVADBKUUDNGXYDQ99FVCAXRRU9BXZLOOOWOHARJBUDKNAODDIWDXRGGWVADVW","optimalPurchaseTarget":-100,"optimalPurchaseTargetScore":-100,"availablePurchaseTargetList":[],"optimalSaleTarget":-100,"optimalSaleTargetScore":-100,"latitute":"51.571544","longitute":"0.282152","amountDemanded":"5","pricePrefered":"14","distancePrefered":"11","energyTypePrefered":"3"},{"index":96,"seed":"Q9EUFWBNCYKOWWSKNJEBECKUWJJVMGVNDOYENWFATNUOQNXLJXWJOKBTFQQLOACEOCTIGPNEBVTNLCKRW","address":"PVEPRZOZD9PYBLYUAJUTPYOK9TXSFLHCOIMNUXIT9VDKYZDFEROABLZJPBGIXXLCNJEJYHYIDIAWSKHBY","optimalPurchaseTarget":-100,"optimalPurchaseTargetScore":-100,"availablePurchaseTargetList":[],"optimalSaleTarget":-100,"optimalSaleTargetScore":-100,"latitute":"51.642716","longitute":"0.256243","amountDemanded":"2","pricePrefered":"15","distancePrefered":"14","energyTypePrefered":"4"},{"index":97,"seed":"IXRHUQNFMAVJTPRTVSHDDVIAXASRESBYYQI9WWFWDTIKNUYQQYDXSNNGNWSHPMSD9AXYHFRLXFP9YLHSV","address":"HTHHCHALLRKMTQUUZJUSRHYJESYUHTWDH9CFUGYYYEHGJUBRVWCHYD9TVWPXRMDFDGKHGTFKRJGNAXTQD","optimalPurchaseTarget":-100,"optimalPurchaseTargetScore":-100,"availablePurchaseTargetList":[],"optimalSaleTarget":-100,"optimalSaleTargetScore":-100,"latitute":"51.784601","longitute":"-1.751299","amountDemanded":"4","pricePrefered":"15","distancePrefered":"11","energyTypePrefered":"1"},{"index":98,"seed":"ACYQWXFOHXQVBLFITESPNHJOD9VTTAVFUORJP9UQQVRNKWFOVPVCL9IOBSOGCHJKUYFGHOVXMTAMSVESG","address":"OVBCCEER9TYKERYDIRW9GSIZW9WSPFMPENBFLJXCDIBBJS9DDQUT9TEM9NUKMJFJIYSYHISIFNSUWKYRW","optimalPurchaseTarget":-100,"optimalPurchaseTargetScore":-100,"availablePurchaseTargetList":[],"optimalSaleTarget":-100,"optimalSaleTargetScore":-100,"latitute":"51.520960","longitute":"-1.087522","amountDemanded":"4","pricePrefered":"15","distancePrefered":"14","energyTypePrefered":"1"},{"index":99,"seed":"DQYMAUAPQYKAJFHMTJQOIRARJEBFY9PATHOXHNGQDGFJETETXWXOBSMEUVRWTDOPE9SYPRBMJGLWHRXSN","address":"JQHPQDBTYAPWXQMMBOATNYTRGPUDWEEFYX9WXWFKNQUKZHTOVFBRWAGGSPIUOJKOMNNYTTUHUSCEQDBSZ","optimalPurchaseTarget":-100,"optimalPurchaseTargetScore":-100,"availablePurchaseTargetList":[],"optimalSaleTarget":-100,"optimalSaleTargetScore":-100,"latitute":"52.286414","longitute":"-1.809392","amountDemanded":"5","pricePrefered":"14","distancePrefered":"13","energyTypePrefered":"2"},{"index":100,"seed":"AQINKAJHNATWVR9PWFJIDYBLYTF9KLCVTCSUSGQLBVQCSHCRW9SAWGWKUQSMHLBIKFPNLFFNKISRAUSVN","address":"NAYRY9UATBCWSISIAGXGYMEFIBAKSJHZELMUC9R9POZEHSLKEKPHMFL9PZAMWNNEWPSONAZSWUKHNZVZB","optimalPurchaseTarget":-100,"optimalPurchaseTargetScore":-100,"availablePurchaseTargetList":[],"optimalSaleTarget":-100,"optimalSaleTargetScore":-100,"latitute":"52.365508","longitute":"-2.122750","amountDemanded":"2","pricePrefered":"14","distancePrefered":"15","energyTypePrefered":"0"},{"index":101,"seed":"UKEHHXMRTJADXDQ9BEJNTRLLY9IUIWFCFSSJHHUTEURQCCEVVGDU9RWDQSDMGUDMXVKRXIJGWHFGDCUFV","address":"OKXUC9ZCKRLJYR9CLZSXSPOXOQ9ZYSVTWRRHUCFWTWONAAASUVPAWPVLDDPQUIPMRUKCTQTYGIJWKQGWA","optimalPurchaseTarget":-100,"optimalPurchaseTargetScore":-100,"availablePurchaseTargetList":[],"optimalSaleTarget":-100,"optimalSaleTargetScore":-100,"latitute":"51.726142","longitute":"-1.648290","amountDemanded":"2","pricePrefered":"14","distancePrefered":"15","energyTypePrefered":"1"},{"index":102,"seed":"NBFILJBNOKMANVQHDWHUPEJFEKHYHKTVT9YVLPCDIPWBWP9CKAFJ9XUDGVY9QPWLUFWESCTBANBUDSNUY","address":"HHNFEFJBSHHZQ9CTESYKDUSABJUQIBKM9PFETCWSLDJGMNSQNIDFXAZEDDACOWPWPIEDUYW9KTMYDVOQW","optimalPurchaseTarget":-100,"optimalPurchaseTargetScore":-100,"availablePurchaseTargetList":[],"optimalSaleTarget":-100,"optimalSaleTargetScore":-100,"latitute":"51.336599","longitute":"-0.921261","amountDemanded":"3","pricePrefered":"15","distancePrefered":"14","energyTypePrefered":"4"},{"index":103,"seed":"UBSCANVBWGEBSYEHCRH9W9MTDRSMBVXVITSSJQVHCHGNBMDNWHWAKEIGJHTYTOKNBNXTMFRIAFESRKMBL","address":"C9OPWKDORTPDKSFCITHDG9DEPFWUDJMDMFLUEYLFCLZKH9GOUROREIAKCHMLMVSBQREHUVFGVUBZROGVW","optimalPurchaseTarget":-100,"optimalPurchaseTargetScore":-100,"availablePurchaseTargetList":[],"optimalSaleTarget":-100,"optimalSaleTargetScore":-100,"latitute":"51.814864","longitute":"-0.665889","amountDemanded":"3","pricePrefered":"15","distancePrefered":"14","energyTypePrefered":"2"},{"index":104,"seed":"OCQCQGKDSMDCNSYXWMPNXAEAHEUDHHFLAKDIS9OIYAOISRKIFXVYOKIOWCMEODMKXXHLMYSUWNUYUCXMT","address":"IJWWWEWLIWSLIQSBWJQNLKW9HONENYZEKSUTCLSWFHJBHUSIEYHVUYWDBPNKQSIKHCOLYYMJSVRZVQEOD","optimalPurchaseTarget":-100,"optimalPurchaseTargetScore":-100,"availablePurchaseTargetList":[],"optimalSaleTarget":-100,"optimalSaleTargetScore":-100,"latitute":"51.987449","longitute":"-1.084496","amountDemanded":"5","pricePrefered":"16","distancePrefered":"11","energyTypePrefered":"1"},{"index":105,"seed":"9NYXIG9UNGSF9EWKLCLY9HGVEFYGFYQCBAEYXFBHNIBURAOMBXWNBFQFNABBHTJ9OHYNSWATAQGMGVHG9","address":"CKWLJOEFPWEJETOLIQXVPFFZQPILWJMR9IFNYUEKIWRFTUXQFWXZMGE9SUKGBPARAMGPTSZMFZWFHZQU9","optimalPurchaseTarget":-100,"optimalPurchaseTargetScore":-100,"availablePurchaseTargetList":[],"optimalSaleTarget":-100,"optimalSaleTargetScore":-100,"latitute":"51.441858","longitute":"0.133910","amountDemanded":"3","pricePrefered":"15","distancePrefered":"10","energyTypePrefered":"2"},{"index":106,"seed":"AXWDVLQQESCYBBJ9RTKROUOQELSQDMDSKVKDKGKKCDKHSAKKRJQSIHDOLFPDTQSXCMNAQ9USAWKHHMDXG","address":"UEJNHGASMWYGRONXILZCXGHTJDIQVUJOOIEUSVEYHOUSMIJVRASJALGRDDDXVXGTVLZZAYTUNXLOBD9NX","optimalPurchaseTarget":-100,"optimalPurchaseTargetScore":-100,"availablePurchaseTargetList":[],"optimalSaleTarget":-100,"optimalSaleTargetScore":-100,"latitute":"52.198175","longitute":"0.152087","amountDemanded":"3","pricePrefered":"15","distancePrefered":"11","energyTypePrefered":"3"},{"index":107,"seed":"EGLREDFMGNYTTKPPWLHBFADGQLBFCGW9POFUTDQCYDOAKJSWVNWJYABDN9UEJSSHAXPVKTRM9CMYBUTMU","address":"PISDSPUUUEYKZBTIBSADBQXMNMQOVUENIOAJJTDYMERPHILEWYNCQPZIMZXXZPVUFWTDXIXJZQNHQEOHX","optimalPurchaseTarget":-100,"optimalPurchaseTargetScore":-100,"availablePurchaseTargetList":[],"optimalSaleTarget":-100,"optimalSaleTargetScore":-100,"latitute":"52.103738","longitute":"-1.448028","amountDemanded":"3","pricePrefered":"15","distancePrefered":"13","energyTypePrefered":"1"},{"index":108,"seed":"OVCBNPDSSBNMJUPQ9ALUXRLBPEOAFFEPEFIOOTRFRARBVIRUVDPREXAESK9P9MGEIMVPCGJ9LWUMQOIEO","address":"VYJOTGORBWBLJIUD9UPWYHTFLJTEIERTOJMMMAJKZF9UPNUKFMYWKEKHDFBPLKURUEPAVKSZORPJ9MUVB","optimalPurchaseTarget":-100,"optimalPurchaseTargetScore":-100,"availablePurchaseTargetList":[],"optimalSaleTarget":-100,"optimalSaleTargetScore":-100,"latitute":"52.314293","longitute":"-1.138536","amountDemanded":"5","pricePrefered":"16","distancePrefered":"13","energyTypePrefered":"2"},{"index":109,"seed":"PCSLJJRFNPHDU9QKYBMTYVWWVXLDOVGAWQPSK9OFEXQMFCWBDRXPVGE9VKQUIKYEG9VNK9OWFQUQAQBEC","address":"SBBIHJFKAGOOIBOTIERHHTPDRRUQZEDGFBNP9CBRMFCQMEEFUXTTCLIEH9AACXIQY9EOHBGNHAMYQELUZ","optimalPurchaseTarget":-100,"optimalPurchaseTargetScore":-100,"availablePurchaseTargetList":[],"optimalSaleTarget":-100,"optimalSaleTargetScore":-100,"latitute":"52.163893","longitute":"-0.203731","amountDemanded":"1","pricePrefered":"15","distancePrefered":"12","energyTypePrefered":"1"},{"index":110,"seed":"PUOEFJSHYQPQPXEIBROVWGKAFHQTDDHBF9NDLWWNVBAJRFLDJNFWASSUDFKBUQMJCAPBURORMEGQWCMQ9","address":"QEVEEUKJLPU99AJEHLFVAUJURMQJAL9DTQT9DEDGONJKO9IFESJZTKYPTUWIWRIFYBKUOPWUJNGYTIAI9","optimalPurchaseTarget":-100,"optimalPurchaseTargetScore":-100,"availablePurchaseTargetList":[],"optimalSaleTarget":-100,"optimalSaleTargetScore":-100,"latitute":"52.077999","longitute":"-1.879003","amountDemanded":"4","pricePrefered":"15","distancePrefered":"14","energyTypePrefered":"4"},{"index":111,"seed":"YUWCQIUFCVLFEFIEPX9XMSUAUFUNYRYJKLXUCM99PUJVUKOEONXCQLPMHMNENDKDUNCIWECADHDSOEANS","address":"9WRRBEKMOZKVKCEU9WRAOCPXT9HQHRAJZLBQSEFEEPOKJQJKUMJKNAACKPMRZTGZTK9NSPYDAHILIOIFC","optimalPurchaseTarget":-100,"optimalPurchaseTargetScore":-100,"availablePurchaseTargetList":[],"optimalSaleTarget":-100,"optimalSaleTargetScore":-100,"latitute":"51.613326","longitute":"-0.929348","amountDemanded":"5","pricePrefered":"16","distancePrefered":"15","energyTypePrefered":"2"},{"index":112,"seed":"OYOVRRPSISJVOJVKR9WXJAGKQSLWTFFUXMCIWSGSCWXLDHLBAVMNXOPVISDKHOIQVNNVOXRXODKPCGLPR","address":"AT9WPJCPLYQLMCO9ZBOLJCVSUVQWBBG9POAUDXPZEXDXXFLONWZLRXFVY9QEHTVVRKXLUCEMGUAHJJSLW","optimalPurchaseTarget":-100,"optimalPurchaseTargetScore":-100,"availablePurchaseTargetList":[],"optimalSaleTarget":-100,"optimalSaleTargetScore":-100,"latitute":"51.770000","longitute":"-1.593732","amountDemanded":"4","pricePrefered":"16","distancePrefered":"12","energyTypePrefered":"4"},{"index":113,"seed":"SPWKIOFMHVSVI9JIKOLAPQUSMMJYSEWIRYETXSXFAVCNPQIRCOYXOKSPTT9ODYOHXJBFFNUPEHQQQYQO9","address":"PRUQCEJIQGGVPGBOSSXPZANN9VXXNOPMWVCXPXAVQBQFTFULAUFX9XYJA9SQNFSODU9WMRGGTCPUWRYWZ","optimalPurchaseTarget":-100,"optimalPurchaseTargetScore":-100,"availablePurchaseTargetList":[],"optimalSaleTarget":-100,"optimalSaleTargetScore":-100,"latitute":"52.073848","longitute":"-1.518473","amountDemanded":"4","pricePrefered":"16","distancePrefered":"10","energyTypePrefered":"2"},{"index":114,"seed":"G9JNKFOUCYPLTMAUXBRETLWTGILQSQULETLBC9XSPBTCILNFLE9MVUDAEIWKKG9CPLVYOMEFRSVCFBHBU","address":"KMUVTTCCBQGSZBXRLRJAQTILEUXJPIKQQKESG9XEFOVHCMPZRY9UJCLHJL9QCBHBEJOLPRRNVRKVOAYHW","optimalPurchaseTarget":-100,"optimalPurchaseTargetScore":-100,"availablePurchaseTargetList":[],"optimalSaleTarget":-100,"optimalSaleTargetScore":-100,"latitute":"51.740394","longitute":"-0.543509","amountDemanded":"5","pricePrefered":"16","distancePrefered":"13","energyTypePrefered":"4"},{"index":115,"seed":"XCWUKLCVVUGTMUJATSWIFDEOYQGTYIFGXFWLIBKGNVLDFIFCFPFUXCDAVYQLMJHQAPSQQCKAJLAATDYMX","address":"IORCCYXCYG9YXBGIYGYMIUZYQXDLJKHNDMWGPRFQIYFBOERESZWDVVLCAFZZWUWMFTNWMWHIFBNCGEFGB","optimalPurchaseTarget":-100,"optimalPurchaseTargetScore":-100,"availablePurchaseTargetList":[],"optimalSaleTarget":-100,"optimalSaleTargetScore":-100,"latitute":"52.363956","longitute":"-0.767316","amountDemanded":"4","pricePrefered":"15","distancePrefered":"14","energyTypePrefered":"1"},{"index":116,"seed":"RQ9TLDFD9XBYO9LBE9QERNCQTEDWWWC9WS9BGJNROQIMVDI9H9YILVULWNYORCLFTNUGMRYCWOSMJTU9C","address":"OYAOO9FMKW9N9KWBIEWSVYDRMPRPRMCB9UAVUDFVVYAZDJWPHANRQFKOLJBYZXNUBAOCNXEEGSRAYOQXX","optimalPurchaseTarget":-100,"optimalPurchaseTargetScore":-100,"availablePurchaseTargetList":[],"optimalSaleTarget":-100,"optimalSaleTargetScore":-100,"latitute":"51.252115","longitute":"-0.256167","amountDemanded":"2","pricePrefered":"14","distancePrefered":"14","energyTypePrefered":"1"},{"index":117,"seed":"LYGAT9SGQKBQIUFSWMLIRSAKCVYOQGQVYXKROOYRLOCFSBRROAUVFOIEGDGVDFMOURJC9MNMUSDDYTRPG","address":"LIBSCRJMFBKXJVHEGFMWXCMXRGYCINHZPURCCGNLSM9KAOAQIDISHHJEWTPFP9HXIJYCVDZLDUCFERCZW","optimalPurchaseTarget":-100,"optimalPurchaseTargetScore":-100,"availablePurchaseTargetList":[],"optimalSaleTarget":-100,"optimalSaleTargetScore":-100,"latitute":"51.200919","longitute":"-1.904791","amountDemanded":"3","pricePrefered":"14","distancePrefered":"12","energyTypePrefered":"1"},{"index":118,"seed":"QDTWGSJNQFIPKDYTQPHIHWJGJNIMYGXBMFPBTKC9IOR9IJYKGEQQMTVIHGWYWFLNUJAYLW9FVSBANUWUY","address":"BSBPQMUYULJCVFRBIPCBZEQOYXUSDM9FWM9NMIXDMAAGLHKAUIUULXUIS99EJYK9HRUSXPCZEAY9IFHF9","optimalPurchaseTarget":-100,"optimalPurchaseTargetScore":-100,"availablePurchaseTargetList":[],"optimalSaleTarget":-100,"optimalSaleTargetScore":-100,"latitute":"51.898435","longitute":"-0.064818","amountDemanded":"4","pricePrefered":"16","distancePrefered":"13","energyTypePrefered":"2"},{"index":119,"seed":"LWSHQVSC9YNMANXXDGJHHHE9OVJHJCYBYBNPNRYUAOLDFRPDKMDHJCTE9PUYJEYWSYLKFGPNUN9UYYKYK","address":"THGP9UKFXMSNIFCUA9OHC9FUREREUNODAXSHYRVTHJARMDLUDXKD9IOQEXWVRKUUBJEKEIFLJXVGFJSTX","optimalPurchaseTarget":-100,"optimalPurchaseTargetScore":-100,"availablePurchaseTargetList":[],"optimalSaleTarget":-100,"optimalSaleTargetScore":-100,"latitute":"50.985425","longitute":"-1.025381","amountDemanded":"2","pricePrefered":"16","distancePrefered":"11","energyTypePrefered":"1"},{"index":120,"seed":"LMTDMNAGOIPVXROC9NFCYGXUDVIKJBINWVSNGDOLRMROAMUADMJYKPALN9QDYUEBTXBBWEAFGMRHSMDPL","address":"KQXAJLDESFJWGXSQFMOKFBRHSEVRWJOOPOHPBOTJGJZY9SSWNJCNKKAKVH9LVHQ9LIMHCTVVYXBFL9BEC","optimalPurchaseTarget":-100,"optimalPurchaseTargetScore":-100,"availablePurchaseTargetList":[],"optimalSaleTarget":-100,"optimalSaleTargetScore":-100,"latitute":"51.250575","longitute":"-0.624132","amountDemanded":"5","pricePrefered":"15","distancePrefered":"11","energyTypePrefered":"3"},{"index":121,"seed":"VXX9PXVKAAGSTGJOB9LFSDFLYRXYSRWADPBKPJTCVINPAQSA9SLWA9IFJFNEMIWIAENKI9CLQMBCRMWNU","address":"PGAOLMHGKUHRSLCIMRWSZXGGSMERKLPKHBJOLIFUYHXWFPDJYFTCDJQUQIVJTRRVHSQJZEULITVPSRJKW","optimalPurchaseTarget":-100,"optimalPurchaseTargetScore":-100,"availablePurchaseTargetList":[],"optimalSaleTarget":-100,"optimalSaleTargetScore":-100,"latitute":"51.026419","longitute":"-1.520722","amountDemanded":"5","pricePrefered":"16","distancePrefered":"11","energyTypePrefered":"1"},{"index":122,"seed":"IXLHUYLRKQASKPTATFKNNYIPFNVIABRPEGIJOAEJYHNNWPGNLLHXQSSIRNYUREAPEWSMJUSOHLGNYGABS","address":"9OTUJXBMUXXYRXEXTFOVUPAMAUSHAVLBFFMFKMBEXGQCQCOCVLSCQLGBGFUY9FJIVERLTSEEBJLHVXSIC","optimalPurchaseTarget":-100,"optimalPurchaseTargetScore":-100,"availablePurchaseTargetList":[],"optimalSaleTarget":-100,"optimalSaleTargetScore":-100,"latitute":"51.301494","longitute":"-0.498085","amountDemanded":"1","pricePrefered":"15","distancePrefered":"11","energyTypePrefered":"3"},{"index":123,"seed":"IJOVLGLXUBBMSGCH9CQCNUCHXWSO9PHBQUGEMQDJQILUEEBSPXQWFHUNXHINI9MAAQUMFAHOSKEPEGHBV","address":"OCRYZEUQAFVQPY9NDCFEDKZFLGRKWUEQPJDPANCDACAQKSYTAHZGFPCENAQRCOSHGVLDKXEKSOFZH9RMX","optimalPurchaseTarget":-100,"optimalPurchaseTargetScore":-100,"availablePurchaseTargetList":[],"optimalSaleTarget":-100,"optimalSaleTargetScore":-100,"latitute":"51.879203","longitute":"-2.304759","amountDemanded":"5","pricePrefered":"15","distancePrefered":"12","energyTypePrefered":"1"},{"index":124,"seed":"GQIBIISPLBUXPCVGS9YS9NKTYMPWEWOKCPTSRQNXSTWOFNBUJCSXIYCQUVGOMWQPYTJAHWYWBTVIMQJFS","address":"9UMGONZAISQHVRXDVMIZFDWLRVUHYTTYLULIZRJCCAUJEAMHKDJH9BURWICDQEQXAIGDWYQSPDM9PGYJD","optimalPurchaseTarget":-100,"optimalPurchaseTargetScore":-100,"availablePurchaseTargetList":[],"optimalSaleTarget":-100,"optimalSaleTargetScore":-100,"latitute":"52.154130","longitute":"-1.280739","amountDemanded":"5","pricePrefered":"16","distancePrefered":"13","energyTypePrefered":"3"},{"index":125,"seed":"9TD9PHNRMQQRVQWBXOLO9CIJX99UGO9SCTAVLEEYWPUOGJ9WK9XSYXGDLOCDMSRSNOJDFDRRDBNXIPKKM","address":"9AEDOIMZWHOQXFOLFUGOGTTLSYENZCRNZOUXCJPOND9BPVVUPXOSXPGKCKWWTDXEHXADJQYG9VZOFMGWD","optimalPurchaseTarget":-100,"optimalPurchaseTargetScore":-100,"availablePurchaseTargetList":[],"optimalSaleTarget":-100,"optimalSaleTargetScore":-100,"latitute":"51.768489","longitute":"0.287572","amountDemanded":"2","pricePrefered":"14","distancePrefered":"10","energyTypePrefered":"0"},{"index":126,"seed":"EUJXNFUIGYHNEDVSCIKHWY9JEIPMSDMDM99XNYJAUKNXXBRYMRANROCCOICEWXWWGSLPBSMWGGVKNTXJT","address":"YYPSKUKWKTRGWICVQ99SLOTWMX9CCVFH9JFSFNILWCRQQLOUYQFINVGHWABWKWJGBKLUGTOWOCFZH9HCZ","optimalPurchaseTarget":-100,"optimalPurchaseTargetScore":-100,"availablePurchaseTargetList":[],"optimalSaleTarget":-100,"optimalSaleTargetScore":-100,"latitute":"50.969194","longitute":"-0.024125","amountDemanded":"2","pricePrefered":"16","distancePrefered":"13","energyTypePrefered":"0"},{"index":127,"seed":"TDMM9TWXI9EJPJXVF9GKHCKTUW9CFPWL9OBNAPRCNAQSDLHELPVF9KVCIQKJQKYYCFDOEORLEDLQ9CDLX","address":"DMLEYSTNYXYXEBLYNYTYRSTPYAGXMYZFDR9UAKHMLVBJUOMYZRHPEOJGIWMQSR9GJWBGCREZOXTADLMCD","optimalPurchaseTarget":-100,"optimalPurchaseTargetScore":-100,"availablePurchaseTargetList":[],"optimalSaleTarget":-100,"optimalSaleTargetScore":-100,"latitute":"52.034568","longitute":"-1.701988","amountDemanded":"5","pricePrefered":"14","distancePrefered":"13","energyTypePrefered":"1"},{"index":128,"seed":"PQEDTCNOEQNGKNUQV9PNLWKFGAXBLFNC9RSUHTBPPKMTFSGISWXEUHNDKAFBQSAP9WOO9LSOTJB9MYTYF","address":"YNFYVTWEYFMXGFR9GMNRICGWQSZMINZTIUVKKTCLA9LD9PYRFKQUGTDZQWZKEYHKZBGHNNGDUYOLDTUKW","optimalPurchaseTarget":-100,"optimalPurchaseTargetScore":-100,"availablePurchaseTargetList":[],"optimalSaleTarget":-100,"optimalSaleTargetScore":-100,"latitute":"51.495813","longitute":"-0.342283","amountDemanded":"4","pricePrefered":"15","distancePrefered":"12","energyTypePrefered":"2"},{"index":129,"seed":"YWEBLXPJTOYVCNPAM9FVTUSCWALOKENLNDBCQAY9ANNNMOGJRKDYQBTSJAD9FNNYDJRPJDCUSELCPVAUJ","address":"OXHFPILMHPXDOYZSIJVHDDH9SSPSPN9QMOJKSY9JLQNJQJHHBNPPGIYKJOITODNUFG9XXLEKTWLNXMVTC","optimalPurchaseTarget":-100,"optimalPurchaseTargetScore":-100,"availablePurchaseTargetList":[],"optimalSaleTarget":-100,"optimalSaleTargetScore":-100,"latitute":"52.198209","longitute":"-1.787586","amountDemanded":"6","pricePrefered":"15","distancePrefered":"11","energyTypePrefered":"0"},{"index":130,"seed":"ISNXMLTEOVWSLSXGBLJMNSAHSTAQI9NNKPAEPKAXEDQJWJBOLDIVTVEGLTP9SVBHNWPSEACDRE9DSFSXD","address":"VXHSQHUNECZAKCBBGVAXT9PECQEVNATDTICKMWBHORXGGOFPVH9HFBRZ9KIGKUZKTFQTXOESQLFXSRNOY","optimalPurchaseTarget":-100,"optimalPurchaseTargetScore":-100,"availablePurchaseTargetList":[],"optimalSaleTarget":-100,"optimalSaleTargetScore":-100,"latitute":"51.764596","longitute":"-1.712550","amountDemanded":"3","pricePrefered":"15","distancePrefered":"12","energyTypePrefered":"1"},{"index":131,"seed":"9DGKQTBSWBEOYOEKAUR9GJKVNGFFJXRERFLBTRKGJYIQYLQTFXSDHTQYRVGARVPKVCV9DSQVHKYQTKJK9","address":"XJMPTVCJKYWNWOPTMJITBBWW9ID9NFJIWBHUFMYAYOQVOMFPCXIZHYHIDTEOUMGDERQR9NYRMBADP9LAD","optimalPurchaseTarget":-100,"optimalPurchaseTargetScore":-100,"availablePurchaseTargetList":[],"optimalSaleTarget":-100,"optimalSaleTargetScore":-100,"latitute":"52.362821","longitute":"0.205115","amountDemanded":"2","pricePrefered":"16","distancePrefered":"15","energyTypePrefered":"2"},{"index":132,"seed":"O9BYC9LCAYRPIQUQIXRYNEPIOOMKMEETUBHECVNMBMFGBHHAICRGFCUQDCQFUQOJSMTWUDJKNPPHBBLVG","address":"IFWN9BHTKQZWRYTVWHTQHYWYMTDANXAUFDVLVWDCEWIEMWEUWYHACLSLEVFPNPDFO9LLCVORQBTJZFLGD","optimalPurchaseTarget":-100,"optimalPurchaseTargetScore":-100,"availablePurchaseTargetList":[],"optimalSaleTarget":-100,"optimalSaleTargetScore":-100,"latitute":"51.947030","longitute":"-2.200492","amountDemanded":"4","pricePrefered":"16","distancePrefered":"13","energyTypePrefered":"0"},{"index":133,"seed":"TDGIXMVGAJPOJXMATFFJQMCTUJATOCMK9YIOQAM9DMUEILKFTCEWSERYGQITPILDUTQUSISFBMGVDBESG","address":"9ITTGNHNKIJAIZJRHIP9VOGQEXD99BCKZVRBADD9MM9KXCQSCATDXRFLRPLXQENWTWFQJX9OTFPRILBTB","optimalPurchaseTarget":-100,"optimalPurchaseTargetScore":-100,"availablePurchaseTargetList":[],"optimalSaleTarget":-100,"optimalSaleTargetScore":-100,"latitute":"51.707025","longitute":"-1.056420","amountDemanded":"3","pricePrefered":"15","distancePrefered":"13","energyTypePrefered":"3"},{"index":134,"seed":"LWIT9WWYEXEIJJVGTOFI9BGEXTEQM9ODUSFQXKKFXLAWPIRKHDWKNMJEICEYMKKNDJVVKLFJCYBAMDRSU","address":"DLGIOXSFOCXFZFTNFJDIFBPYIWYWAQMIQSPQ9DAGOBMASAGZOUVVUHARMLUZUX9FUMHEPHYUXXSUCZHMW","optimalPurchaseTarget":-100,"optimalPurchaseTargetScore":-100,"availablePurchaseTargetList":[],"optimalSaleTarget":-100,"optimalSaleTargetScore":-100,"latitute":"52.131221","longitute":"-1.200127","amountDemanded":"3","pricePrefered":"16","distancePrefered":"10","energyTypePrefered":"3"},{"index":135,"seed":"NHPOTTRDIDUOQDINYDWUBRRIPOGDKMYGCYCJQAXTDGLJQINFRY9AWUQOFTCOOJIJJEOYAW9MTGJBEJFWA","address":"WFMVXLOQFDVOHCPSOSZUBAIHLYRQJURTIIUIEJCHE9YFICBSJPFTFBOIFJSMFOHBOYUHSTCGNKJMUQTJZ","optimalPurchaseTarget":-100,"optimalPurchaseTargetScore":-100,"availablePurchaseTargetList":[],"optimalSaleTarget":-100,"optimalSaleTargetScore":-100,"latitute":"52.189602","longitute":"-0.400567","amountDemanded":"5","pricePrefered":"16","distancePrefered":"11","energyTypePrefered":"4"},{"index":136,"seed":"E9M9BQYCVULLPNVJDBJWEQDOXOADBFXUDSDTIJDLUTRUYXEYYRIPBIK9HGBRAHUHWTRGEWM9QGRPQRMTQ","address":"ONTDYNMUBYXZSRIA9BRNOBZVRSLUBIM9GLXL9QMWRKE9SKKTCOFWA9LRZHFLCAWRKSBHYFJFOEBEEBJVA","optimalPurchaseTarget":-100,"optimalPurchaseTargetScore":-100,"availablePurchaseTargetList":[],"optimalSaleTarget":-100,"optimalSaleTargetScore":-100,"latitute":"51.130614","longitute":"-1.094166","amountDemanded":"6","pricePrefered":"14","distancePrefered":"13","energyTypePrefered":"2"},{"index":137,"seed":"SOKAWYRAY9HSWTEAHMEMFEOVMXEBDFIJYWDJNCTUCOGMDMXHDASGCHF9MVKE9AYFQMO9WJSTMIYYHOGBC","address":"SEL9BZZHRMXQFQFFAIYZGJ9NTEVHWDLZMLWZJEWHAWYABHIDOMODKQHDWBUU9QPDBDXYQWNBHB9SCBMLC","optimalPurchaseTarget":-100,"optimalPurchaseTargetScore":-100,"availablePurchaseTargetList":[],"optimalSaleTarget":-100,"optimalSaleTargetScore":-100,"latitute":"51.026184","longitute":"0.075719","amountDemanded":"5","pricePrefered":"15","distancePrefered":"10","energyTypePrefered":"3"},{"index":138,"seed":"S9WLWDFSLIJQCXC9TWKIATQVTGDEQKVLLMU9UQQLCJINXB9RUIQOPJUM9IQEHOFCMFJXJLNEMXNEASYJQ","address":"ZS9UVBMFRZXOEBQMIUWXHFJBMUWBPGTBXAGWXTBVFTIISHOLXUNPXFQXDNSLCLEIBJLOGAZR9Q9GZZLGD","optimalPurchaseTarget":-100,"optimalPurchaseTargetScore":-100,"availablePurchaseTargetList":[],"optimalSaleTarget":-100,"optimalSaleTargetScore":-100,"latitute":"51.045675","longitute":"0.029987","amountDemanded":"6","pricePrefered":"15","distancePrefered":"10","energyTypePrefered":"1"},{"index":139,"seed":"WXGWOXQHGHGYLSANYXVQULNEOUHKENURVRO9PBPWQSQIHTSKODXJIBQHBFSAUHHQYOYRRJTREOQQFFULR","address":"NBVUKBNZGPQQOWEXOBDUBRLQSEYNHJHUVJBDULGBPWYUHXMZICPZTVRIL9DLROMIEGZSWBUK9PJWZHYRD","optimalPurchaseTarget":-100,"optimalPurchaseTargetScore":-100,"availablePurchaseTargetList":[],"optimalSaleTarget":-100,"optimalSaleTargetScore":-100,"latitute":"52.098227","longitute":"0.010115","amountDemanded":"2","pricePrefered":"14","distancePrefered":"12","energyTypePrefered":"2"},{"index":140,"seed":"KNMJUGBLAUWKFQJLCKTNESQASFAHDCKBQQNKVGEUCAVIQDHJJ9JO9OYDIVWALQDNHJJUUYTQMMG9BMGPQ","address":"9UOCXQXWGXNAMVGHHTDSEHGQDVCRABWYGCOUMTTKYXVTMBLIZAWFCJTJYESPPEXRYVUKLSMLBGSUKKBBD","optimalPurchaseTarget":-100,"optimalPurchaseTargetScore":-100,"availablePurchaseTargetList":[],"optimalSaleTarget":-100,"optimalSaleTargetScore":-100,"latitute":"51.620887","longitute":"0.145262","amountDemanded":"1","pricePrefered":"16","distancePrefered":"12","energyTypePrefered":"0"},{"index":141,"seed":"TCPHPQKDDDOVFDC99JLFVOYRXFLMFXJHA9NENGXSCT9QOTPUDSSOLKBVJBBCWHUMLSSLWJRWYJSQUTEHN","address":"UD9UXNBJWATAAVVOILJPLNIKTCDHHEIQWQOIXZVQEPQBRQCWODTEKZDABJIBDFFBDSTKEZOVNCIPILQJW","optimalPurchaseTarget":-100,"optimalPurchaseTargetScore":-100,"availablePurchaseTargetList":[],"optimalSaleTarget":-100,"optimalSaleTargetScore":-100,"latitute":"51.156838","longitute":"-1.262143","amountDemanded":"4","pricePrefered":"16","distancePrefered":"14","energyTypePrefered":"1"},{"index":142,"seed":"9KFKFAM9XXQSJPGWMRBRYRLUIKESYLMTOUMNJSDYHKTUJYGSDC9DMRORTOAIHCJPSQWFQPFJODFBHRSBE","address":"LYYQCXOIDOH9QSPN9HTQWBJAIODQ9QMRPHXZFRER9KVJIWRZDCROIMKTQTZXQDNANJNYGHELJUBMENCSA","optimalPurchaseTarget":-100,"optimalPurchaseTargetScore":-100,"availablePurchaseTargetList":[],"optimalSaleTarget":-100,"optimalSaleTargetScore":-100,"latitute":"52.199594","longitute":"-2.109432","amountDemanded":"3","pricePrefered":"15","distancePrefered":"15","energyTypePrefered":"4"},{"index":143,"seed":"HAXRGQEPBRESKHUSKRXHNEMVXEWOCIMAJMDVCYSEL9GHVVAIYSV99WISPYGKYKNJYMHHGQP9XACUEPREN","address":"HMR9GQTSYZLTGRVDIMGJAEOVBRDLFZBOHWXMEFGYQMZXFWGYK9JBUDVMXLWAJNXRWAXDIMXDDB9ZR9VVW","optimalPurchaseTarget":-100,"optimalPurchaseTargetScore":-100,"availablePurchaseTargetList":[],"optimalSaleTarget":-100,"optimalSaleTargetScore":-100,"latitute":"52.003807","longitute":"-1.408150","amountDemanded":"2","pricePrefered":"15","distancePrefered":"15","energyTypePrefered":"2"},{"index":144,"seed":"AOHSTN9IKNUXBDLVCNUOUTANFGWL9DFIHACFOBSMUMDE9PVHGHGBO9RAIGGSIVOCXUKIMXODMKAAXLSOM","address":"VOVJYEWATN9SUWQSOTVFLKCAVBLRGENGLOXDJLBJODJZZMIIEWDWUBQMALQZQEZKSQHTFFETHLZLIRYFZ","optimalPurchaseTarget":-100,"optimalPurchaseTargetScore":-100,"availablePurchaseTargetList":[],"optimalSaleTarget":-100,"optimalSaleTargetScore":-100,"latitute":"50.969324","longitute":"-1.058860","amountDemanded":"2","pricePrefered":"15","distancePrefered":"10","energyTypePrefered":"2"},{"index":145,"seed":"RJPXCQASVOAOOJKHEGYOQTLWBNEFVWSJTBBJRMKVSQOTRCGQUMPG9YWNKRGPYPC9QLUKLPSYEJBDXEPSJ","address":"SKXGJENA9BTNQQQPXQBVBLZPB9MNLJZDMGO99DPSXKWGTPEHFGXRWWFGFVNJBZGWCIWRHNXTILHWUKTQW","optimalPurchaseTarget":-100,"optimalPurchaseTargetScore":-100,"availablePurchaseTargetList":[],"optimalSaleTarget":-100,"optimalSaleTargetScore":-100,"latitute":"51.637014","longitute":"-0.569287","amountDemanded":"4","pricePrefered":"16","distancePrefered":"13","energyTypePrefered":"4"},{"index":146,"seed":"OBLQXQVKMDTDBGBSJEBQCCTJICETDHKHNCDYVVKWNVOCHCUOOINAGKM9SDNDSGXQ9UADQTOBX9TUFR9QW","address":"NE9A9AUFOTQOBESHQLEKSACMFWUZLDUTLAIKEEWXPMGMDG9DNWDTFRXQZSDGKUDQGWFLJRQGRGGHPUEVW","optimalPurchaseTarget":-100,"optimalPurchaseTargetScore":-100,"availablePurchaseTargetList":[],"optimalSaleTarget":-100,"optimalSaleTargetScore":-100,"latitute":"51.582422","longitute":"-2.225781","amountDemanded":"6","pricePrefered":"15","distancePrefered":"13","energyTypePrefered":"3"},{"index":147,"seed":"CEDYYYTRV9RH9QDGVKE99AMOM9OTNJECKVWQTFUEHUNYIWQYRCMLQSAAG9RPQWNIFLMGIFD9KBPVBSCTL","address":"Q9UDQCTZNDFUQTXRV9SNGBAOIGZMSBHCKJYQAGFKTDPWEBSLSKOFEUKIVHQQRQMSGEQNBKYVXZ9PLXMFW","optimalPurchaseTarget":-100,"optimalPurchaseTargetScore":-100,"availablePurchaseTargetList":[],"optimalSaleTarget":-100,"optimalSaleTargetScore":-100,"latitute":"52.251448","longitute":"-0.921802","amountDemanded":"5","pricePrefered":"15","distancePrefered":"12","energyTypePrefered":"3"},{"index":148,"seed":"JSGAHABIOQEUNHSITXULFOCXQJDRNLTIHYBSBBHYMSEEQDABIGGKHBQORS9OVPJDJVIUHEOGNYLHQDBBU","address":"LIZXKTWYXVZNSAGYDDMITCVTEYOQBDWXHVRJOBQSWP9LTTSZVNDA9NFUIQCUWL9KZTTKMDTSADZY9ZKYA","optimalPurchaseTarget":-100,"optimalPurchaseTargetScore":-100,"availablePurchaseTargetList":[],"optimalSaleTarget":-100,"optimalSaleTargetScore":-100,"latitute":"51.398200","longitute":"-0.095083","amountDemanded":"5","pricePrefered":"16","distancePrefered":"15","energyTypePrefered":"1"},{"index":149,"seed":"QQEEAGPJGD9BAWQBMR9UCYQTBKLUFVYYQYNNKPEGMVCEAALPJQ9PDUECMNJDSACVTJSECHSVPWBIUUTTX","address":"NLZQM9EEIHQ9SOHVXAYYORQODIGTD9ZXBJIBXSWZDWWBZTRQDSUFSUKJT99HTSTSERUZHZHISQLDSCRHZ","optimalPurchaseTarget":-100,"optimalPurchaseTargetScore":-100,"availablePurchaseTargetList":[],"optimalSaleTarget":-100,"optimalSaleTargetScore":-100,"latitute":"52.218653","longitute":"-0.845467","amountDemanded":"3","pricePrefered":"15","distancePrefered":"14","energyTypePrefered":"4"},{"index":150,"seed":"DSJWBJSIXUTUKPFKKYXJAAUVRPIAFMDLBIUMQTMITU9XLBK9PWGYYR9RCUIGXLEIIKTIPQEYKESKSMV9U","address":"A9JLXBZFQGWBTYAGVOWJ9WYKGVOPN9FBSHWKMUDIROB9HXLOPHGJLPMLRAZEVYNBAQIHTZLEBBWEXZSZD","optimalPurchaseTarget":-100,"optimalPurchaseTargetScore":-100,"availablePurchaseTargetList":[],"optimalSaleTarget":-100,"optimalSaleTargetScore":-100,"latitute":"52.016207","longitute":"-1.755970","amountDemanded":"5","pricePrefered":"15","distancePrefered":"13","energyTypePrefered":"0"},{"index":151,"seed":"UMUCHFQVHBGIVTLRVDIKQRJAIFFFVJCLQNFCGDOHDOR99MLCQC9PDAJBVIMQPHHASNJYUWXIDACBGMJCE","address":"MNSOWJEYOGGINJ9JZKJUIVPFKSUOEDJNXKDFBCRKTITGYCEDYHZFPSWZCXMXKZZGOWXCWZXNBKDECFADY","optimalPurchaseTarget":-100,"optimalPurchaseTargetScore":-100,"availablePurchaseTargetList":[],"optimalSaleTarget":-100,"optimalSaleTargetScore":-100,"latitute":"51.408555","longitute":"-0.445631","amountDemanded":"5","pricePrefered":"14","distancePrefered":"12","energyTypePrefered":"3"},{"index":152,"seed":"GPQENQXRXDRPFURWVJHQDDLWMBDFUGWESLHWCGBFUETLGPHPVPYMQAJICVJWYOUVUBOAHFDRKMULSP99S","address":"KXW9OLBYGZAFIADDFZXCNKE9XIZKMCCPTUGTUVCITQGFJJXJEOGNFUOT9BSOF9UVBNDUHLZKQOJSMWRZW","optimalPurchaseTarget":-100,"optimalPurchaseTargetScore":-100,"availablePurchaseTargetList":[],"optimalSaleTarget":-100,"optimalSaleTargetScore":-100,"latitute":"52.048839","longitute":"0.078863","amountDemanded":"5","pricePrefered":"15","distancePrefered":"10","energyTypePrefered":"3"},{"index":153,"seed":"AVNDAKAUOWBICRCQBMBRHDDE9FDTYPQYITOWCI9SBTVCIPFNCWVLDXCTDBYIBBUKYIGVQDAVTDFMCNMOP","address":"LMVYWGCERWNZGTXNJRNIQIZHGOUIQAOUNAQALGFJGAM9OHIKK9APBXAHUYJSMDXBUJOKSX9SKTAW9BJZX","optimalPurchaseTarget":-100,"optimalPurchaseTargetScore":-100,"availablePurchaseTargetList":[],"optimalSaleTarget":-100,"optimalSaleTargetScore":-100,"latitute":"51.866446","longitute":"-0.150563","amountDemanded":"5","pricePrefered":"15","distancePrefered":"12","energyTypePrefered":"2"},{"index":154,"seed":"DYHGRME9NGGJMKRKKSIGGNABBBLYFJMRCKW9YCKBHVLOGEHIKQKDLGNVDTD9PFOUHILTQY9PNCXUCVMEM","address":"KTFPEQH9MPPTHLRYXZTZTRUHDTPPDOTOPHBDREMNBJPIZMAKMBI9KEJWNSLHIBWLTANLZETHYIKAAMUCD","optimalPurchaseTarget":-100,"optimalPurchaseTargetScore":-100,"availablePurchaseTargetList":[],"optimalSaleTarget":-100,"optimalSaleTargetScore":-100,"latitute":"51.018287","longitute":"-2.250411","amountDemanded":"3","pricePrefered":"15","distancePrefered":"14","energyTypePrefered":"3"},{"index":155,"seed":"CWWPEGUFXQSQPWSJMKKUWFJUTWPQDSEFXPNASYRULMBKCEAVJWSKWDYFUMUNBJ9GFRHMATHNHYE99TQTG","address":"KGRPUTWCNKRDYGTZKPJTAJOQS99GYILLZVUDSGEFPVOBLEJSYWPMJQKFXVQBMTAAIJYZSLFNDDTOVKSKD","optimalPurchaseTarget":-100,"optimalPurchaseTargetScore":-100,"availablePurchaseTargetList":[],"optimalSaleTarget":-100,"optimalSaleTargetScore":-100,"latitute":"51.041030","longitute":"-2.317869","amountDemanded":"3","pricePrefered":"15","distancePrefered":"13","energyTypePrefered":"4"},{"index":156,"seed":"R9GSHQOTDJ9SSWD9JQG9ADAUCPBFVGNQXTRBETJYIBMWGOQQJIEIMRCWPFJQSWGFRJHGXRVITJSEYNVKC","address":"S9DDDDQM9CVZPN9HX9WTJXODIRUURRIXXKSDRJHTMUYEFWAGCYBKFXBVQSLQVXCCVIOA9KGBVSQNQAXC9","optimalPurchaseTarget":-100,"optimalPurchaseTargetScore":-100,"availablePurchaseTargetList":[],"optimalSaleTarget":-100,"optimalSaleTargetScore":-100,"latitute":"51.786429","longitute":"0.093853","amountDemanded":"2","pricePrefered":"14","distancePrefered":"11","energyTypePrefered":"3"},{"index":157,"seed":"F9EGI9XYHDRFKWGUBVPLF9FOFPLUVDQWT9FRKPTIWWEVMVTGB9OOUHEBFRYLNHJCBBMUHOWJONOAN9KQR","address":"EKACHSQLFCZCCMMWMFMRQSYVBLV9EYXQEEGUCKMKMSNKAPR9SOBLFUQPLDCQPKAPGHYVRZAJIAKJCYUKD","optimalPurchaseTarget":-100,"optimalPurchaseTargetScore":-100,"availablePurchaseTargetList":[],"optimalSaleTarget":-100,"optimalSaleTargetScore":-100,"latitute":"51.376467","longitute":"-0.405021","amountDemanded":"3","pricePrefered":"14","distancePrefered":"14","energyTypePrefered":"3"},{"index":158,"seed":"HTSDPN9OHDBSHQVARKNBRTHILRLJBECAQVBXXKJTRCIMSEKV9VQD9VCBXKH9YQDPFSPCB9DLNPOQPHTMV","address":"ZJACFSPXSOPYJAUAAUCRBHNILPDYAKDLAPNGASOWQPGOAWSUYFCTMGCTIFDPWRUKBUUNFJDMWAUDFEHLW","optimalPurchaseTarget":-100,"optimalPurchaseTargetScore":-100,"availablePurchaseTargetList":[],"optimalSaleTarget":-100,"optimalSaleTargetScore":-100,"latitute":"52.246482","longitute":"-1.735425","amountDemanded":"4","pricePrefered":"14","distancePrefered":"12","energyTypePrefered":"0"},{"index":159,"seed":"DLCHKSNGNAIXKLIHBSTGYTTBQQIKKHQLMCWULQOSHEVHMPQIFVVCJXDWFDBSDKKJNSFPLOMWWDWXYXGMW","address":"ENPIOLSXRJHKHVUARSEQFEKLXSYSVJBFGKUSGP9IHZSHLDNGBYDKIAZRO9FNNXCJNXRQHGWOFTRUVWOIY","optimalPurchaseTarget":-100,"optimalPurchaseTargetScore":-100,"availablePurchaseTargetList":[],"optimalSaleTarget":-100,"optimalSaleTargetScore":-100,"latitute":"51.339287","longitute":"-1.594607","amountDemanded":"3","pricePrefered":"16","distancePrefered":"13","energyTypePrefered":"2"},{"index":160,"seed":"EYWW9HEHHGGAMIRVGQJYTEFT9L9HERPFMGOSUDINGPEMSCPHAEVMHAMGVBNPFGEVLHBO9C9XQGMSDJBMG","address":"Z9TIQIQBCSU9BHGMZUG9SDABSIPMRJEEKARBPJSQWNZFEAICQL9VERIJJRZJLVHZKBTFGZDZYPLPN9M9X","optimalPurchaseTarget":-100,"optimalPurchaseTargetScore":-100,"availablePurchaseTargetList":[],"optimalSaleTarget":-100,"optimalSaleTargetScore":-100,"latitute":"51.276726","longitute":"-0.751966","amountDemanded":"2","pricePrefered":"15","distancePrefered":"12","energyTypePrefered":"4"},{"index":161,"seed":"HSWFLQY9MHXBRSKGWEOQSF9BSJERFSLNDWMBSXVRYIFECORXVYVXQTDPMJMXTDPEPCFSHDBAOORMBHBLC","address":"DFVDUCPBXWIOMBKPFMUUEWQJ9MMVBDGRLQI9NHUOENQWBTKJNKUKEJLTHWAW9DWEOVKZPGCPVNHVWXY99","optimalPurchaseTarget":-100,"optimalPurchaseTargetScore":-100,"availablePurchaseTargetList":[],"optimalSaleTarget":-100,"optimalSaleTargetScore":-100,"latitute":"51.714640","longitute":"-1.155549","amountDemanded":"2","pricePrefered":"15","distancePrefered":"11","energyTypePrefered":"0"},{"index":162,"seed":"ODJYVAMGXUWA9OIVWRIMVXNQIUMCVCCLVBSMWERUXHGLHLPJXDSBUYXFIUHUWFIBDR9B9NTUWSOHAWVJA","address":"CIFGSKASZARB9ZA9RRSLRDQFPSBRUKLRTDLOE9AAZITPNLLYZEXB9JGYJNRURJTGLECR9WZMWIVHMSLZB","optimalPurchaseTarget":-100,"optimalPurchaseTargetScore":-100,"availablePurchaseTargetList":[],"optimalSaleTarget":-100,"optimalSaleTargetScore":-100,"latitute":"51.163390","longitute":"-0.191769","amountDemanded":"5","pricePrefered":"15","distancePrefered":"12","energyTypePrefered":"1"},{"index":163,"seed":"RQYTM9MAR9RWLMDQBXWHEXLBKKOYCNHRUGVRTCMWECXHBCAYHVNWAOVXYGYBQKSDXOEJKGLSITKCVSMGO","address":"V9HURMANUQZGXEAMTSCYXLQLZGCG9LVLDEVKNMYXJKWKZSFBHNJBHSXRDHPSEEMIJGXKICPDMPIXHDQWC","optimalPurchaseTarget":-100,"optimalPurchaseTargetScore":-100,"availablePurchaseTargetList":[],"optimalSaleTarget":-100,"optimalSaleTargetScore":-100,"latitute":"51.929238","longitute":"-1.316004","amountDemanded":"3","pricePrefered":"16","distancePrefered":"13","energyTypePrefered":"2"},{"index":164,"seed":"N9LUJPOXSVEFLXAF99SSBNJGMFABPMCJM9BNYTEEVFCU9BPKLCAGXSRMRNFIRFUTHRLN9XRSDXPCFDYAV","address":"OL9IYZGRAFRXMN99OBIDEVXEWSDBYJDTXYEFIPIL9WDBPSJINEXZDRRIVCE9DQBUPIMTM99FIEC9PJOPD","optimalPurchaseTarget":-100,"optimalPurchaseTargetScore":-100,"availablePurchaseTargetList":[],"optimalSaleTarget":-100,"optimalSaleTargetScore":-100,"latitute":"51.662870","longitute":"-1.874396","amountDemanded":"5","pricePrefered":"15","distancePrefered":"12","energyTypePrefered":"2"},{"index":165,"seed":"AGMWXRCH99EGRFXRDWTRQ9EMSYACDQGKDYCDFYXLQ9ECEYFXUB9LMICXWEVJFRBKXEFHSYSIWVQCYHYTS","address":"EWVFUBTACFIHHWPRNVEBJVRMGNMVC9YEUERYFZHKPVVCWLEJAQWFYWYBHGHNHOOU9VIRJKODIOUHGUQYY","optimalPurchaseTarget":-100,"optimalPurchaseTargetScore":-100,"availablePurchaseTargetList":[],"optimalSaleTarget":-100,"optimalSaleTargetScore":-100,"latitute":"51.675761","longitute":"-0.115033","amountDemanded":"4","pricePrefered":"16","distancePrefered":"11","energyTypePrefered":"4"},{"index":166,"seed":"VJ9PWKBFBXJXODSWTRSWPBLFDMMIUQSPQ9RNEW9XOERQVKXPJCRSPNHLRLHM9JTRDBDMA9PTTFFKCS9NN","address":"9MBTZPROZDDIZRABZVVJQJWMAFRYZZSBCXCVPNIFXVCKRVCVMIJYBCIJWWNWEXGVROIHKIQZXDNAQVCEC","optimalPurchaseTarget":-100,"optimalPurchaseTargetScore":-100,"availablePurchaseTargetList":[],"optimalSaleTarget":-100,"optimalSaleTargetScore":-100,"latitute":"51.660068","longitute":"-0.033060","amountDemanded":"5","pricePrefered":"15","distancePrefered":"11","energyTypePrefered":"1"},{"index":167,"seed":"IQLPHIKDMIPNDDWGWHIFJJXAWLGNMAOAISTEKBDPJUIVYVMOMSMTRUCPCDWIHHRITQRSNUTQJGLUYEOCA","address":"FQWMYBNVVCQUVEAXXLHDRYOYGOOOWKELUKWRJHUBYGAELVZ9PH9J9PMGFKICCEUHUVOHJAYSRPOLMCWBX","optimalPurchaseTarget":-100,"optimalPurchaseTargetScore":-100,"availablePurchaseTargetList":[],"optimalSaleTarget":-100,"optimalSaleTargetScore":-100,"latitute":"51.194276","longitute":"-0.278486","amountDemanded":"3","pricePrefered":"15","distancePrefered":"11","energyTypePrefered":"4"},{"index":168,"seed":"XOSTSVLBNVVBHN9VQL9YDDWPVYQVY9PCPYVEGWDDNAWFVHIFYIJCVTBM9NOJXDHKGODCXKAMU9GACC9JV","address":"SOZIJIQL99ENKTPBIDQXYTVPLNJRRNKCWWFMEMYUFLUDYKSAFFJBZNZSGMWBTZRUYNNXEVMGFXF9S9LOX","optimalPurchaseTarget":-100,"optimalPurchaseTargetScore":-100,"availablePurchaseTargetList":[],"optimalSaleTarget":-100,"optimalSaleTargetScore":-100,"latitute":"51.004777","longitute":"-0.973116","amountDemanded":"6","pricePrefered":"15","distancePrefered":"14","energyTypePrefered":"2"},{"index":169,"seed":"NI9STCCFUMQIPQCNFIMHBKIGCNXFQDYMMVIHQBWE9IS9SSHMYOFKVVWECHVNJQYBUQOW9XHFRENNQESRC","address":"MSGXRPFNN9CMPZSVTIBDMJDMELLTAZAYDFNGDUUOJRUTTVYDIDHWJCUQCAIYFTAZDJKTBHGMJIKIHHFUW","optimalPurchaseTarget":-100,"optimalPurchaseTargetScore":-100,"availablePurchaseTargetList":[],"optimalSaleTarget":-100,"optimalSaleTargetScore":-100,"latitute":"51.535466","longitute":"-1.016907","amountDemanded":"4","pricePrefered":"15","distancePrefered":"11","energyTypePrefered":"1"},{"index":170,"seed":"GGSDFUFQPUANDRAQSWBDBOAWOQF9ELFQFPOMCHEYXHYLEFCPOQYAJMCSAUJTGIJRIXOLGIR9WPNKWAGNK","address":"SJQCYASQHJHETLZORLXSHPQMCTXSNZM9QAFZIFAMTOSFAEP9TXJDASCKYPPJBWDXCJUXONNNHAHREV9BC","optimalPurchaseTarget":-100,"optimalPurchaseTargetScore":-100,"availablePurchaseTargetList":[],"optimalSaleTarget":-100,"optimalSaleTargetScore":-100,"latitute":"51.876826","longitute":"0.225963","amountDemanded":"2","pricePrefered":"16","distancePrefered":"13","energyTypePrefered":"1"},{"index":171,"seed":"JXRTFLVSEVPWAHDFPBPXMERXCLEQ9SN9LXH9JL9HDAVAJMISDVBSKKSG9FJSSPGTWJFNQSMYNHHFGCKCW","address":"ZEVMJTMZEDKFTMCICLGEABTHIB9TJLOJYZBSCF9TGYCCTPWLE9XYQSCIDDVPKQNQKQQAKEIXH9CFDHFVD","optimalPurchaseTarget":-100,"optimalPurchaseTargetScore":-100,"availablePurchaseTargetList":[],"optimalSaleTarget":-100,"optimalSaleTargetScore":-100,"latitute":"52.035333","longitute":"-0.613621","amountDemanded":"4","pricePrefered":"16","distancePrefered":"14","energyTypePrefered":"3"},{"index":172,"seed":"Y9SCIDLIF9K9IW9DCAC9QHCLK9WUVOBHOPYFYTWSADNGCHH9IDSM9FSKHUGGCGBWJNTERWSPGNU9ULUQG","address":"VUDZWIRBAYSQIXOTBBIKTIMTRCDPTIHUJMESJRPPHTKDOOYZHORXHWQDDVQAYEGRUEYCZJPTHVJNDXWTB","optimalPurchaseTarget":-100,"optimalPurchaseTargetScore":-100,"availablePurchaseTargetList":[],"optimalSaleTarget":-100,"optimalSaleTargetScore":-100,"latitute":"52.417094","longitute":"-1.310439","amountDemanded":"2","pricePrefered":"15","distancePrefered":"12","energyTypePrefered":"4"},{"index":173,"seed":"9RXQICIFRXRHTNUEEREDFXTRCJHHUJM9QDMMJUSSNXOLK9YCIHKFFKLJDNCJHXSOIIOAQNMYE9QPNK9TO","address":"YXODMXGCICOBYZTMPKXQTUFVBSCXEDHR9KOZAOTZOBABWAXDTL9YWTZJDEPGAEX9YRJCOYOKXQIFDOOCW","optimalPurchaseTarget":-100,"optimalPurchaseTargetScore":-100,"availablePurchaseTargetList":[],"optimalSaleTarget":-100,"optimalSaleTargetScore":-100,"latitute":"51.439196","longitute":"-0.727602","amountDemanded":"2","pricePrefered":"16","distancePrefered":"10","energyTypePrefered":"1"},{"index":174,"seed":"KQ9SJHRRCGA9NVBCUPTFRUYKOWKGFSUUVVYSDVBGHKTASPG9HQGUQDHPVVGGOIGKIJYYWTFYWVPLXGOAT","address":"WZIEAHIEKMWFIEBYPSCQUSEZVTFFHKTHATHGYYJVWZBMCG9UOYIZHNMQZXGMCFSUXDI9R9KQSAMBVTYCB","optimalPurchaseTarget":-100,"optimalPurchaseTargetScore":-100,"availablePurchaseTargetList":[],"optimalSaleTarget":-100,"optimalSaleTargetScore":-100,"latitute":"51.223118","longitute":"0.078454","amountDemanded":"6","pricePrefered":"15","distancePrefered":"13","energyTypePrefered":"2"},{"index":175,"seed":"YVFLPUNSWOETNJWDXOLYALYUMTGUTJROAYIHPRCSCUFYFILDXLOJLPQVVTYFTXCPPVTLLKIJXMCCTCHDA","address":"LDEZQVO9UYVKEIKXISBYZKAAFYDVIEPUXVZGTZKNE9GJVGNJVBRUNURXGYLLLSVHCTSSWGCAQRAZUGEMD","optimalPurchaseTarget":-100,"optimalPurchaseTargetScore":-100,"availablePurchaseTargetList":[],"optimalSaleTarget":-100,"optimalSaleTargetScore":-100,"latitute":"51.633083","longitute":"-1.309374","amountDemanded":"6","pricePrefered":"14","distancePrefered":"10","energyTypePrefered":"1"},{"index":176,"seed":"ICOASAN9TKQPHID9MXNXAGABRESCJXJBVDXQIPOS9HTQ9AKPRHBJMA9TOWGQDOBJVXPWMDSYHEPHEQCBM","address":"BNHWYCWKU9ZPBSMRQXBSDROGQF9YJINVNOROQKJWRHOGWVPSORDWNEA9PZHOKHNWPISSJSIFLFGMZDUZZ","optimalPurchaseTarget":-100,"optimalPurchaseTargetScore":-100,"availablePurchaseTargetList":[],"optimalSaleTarget":-100,"optimalSaleTargetScore":-100,"latitute":"52.227389","longitute":"-1.126345","amountDemanded":"3","pricePrefered":"16","distancePrefered":"15","energyTypePrefered":"0"},{"index":177,"seed":"TWGKGQARXDKDKBPSIUPQPIJGXSBGC9IFNUEYODSJODRXJAQCXHVTIDWISDCHGOJRVOUXPNXRHKLMQFAQL","address":"FCJXFXNUKCEYBNLI9XPGTFBRQJSWYBAHSBNWGNNPXPFBFOLSUFONBEFHI9QJQRPQOCPVWE9RNRZBVCILZ","optimalPurchaseTarget":-100,"optimalPurchaseTargetScore":-100,"availablePurchaseTargetList":[],"optimalSaleTarget":-100,"optimalSaleTargetScore":-100,"latitute":"51.013515","longitute":"-0.567562","amountDemanded":"2","pricePrefered":"15","distancePrefered":"14","energyTypePrefered":"1"},{"index":178,"seed":"XFPFRYDWTCVDCXIPBJHY9WRAYGTFUEGMRSIMIDBHWLBIKWJJQMHIGMBSSUGIDJW9MGLIRQDCLSDXDGE9S","address":"DBLNA9XCNXUJDHDMLNNTWVGGQBQLT9PDEDJPFIAZDVSXABMVMQ9PCOVIJOUQNTE9FHSKDXSMZGIO9JNW9","optimalPurchaseTarget":-100,"optimalPurchaseTargetScore":-100,"availablePurchaseTargetList":[],"optimalSaleTarget":-100,"optimalSaleTargetScore":-100,"latitute":"51.937614","longitute":"-0.653094","amountDemanded":"2","pricePrefered":"15","distancePrefered":"12","energyTypePrefered":"1"},{"index":179,"seed":"TOOVFOI99LHS9UCWNT99OGFJOQPTPWDKRKAJQ9ETYCABEVRIYFVDWNXXBGQUTQEVRVXWDXUULQFFTLOEW","address":"UOPXSSCX9IMCMFEUWAOJIPAFY9HBIYGVNBGJPYJXCS99NKGQBNTTWZMCPJSAFEDHZXAAZJ9XESQFQFMQD","optimalPurchaseTarget":-100,"optimalPurchaseTargetScore":-100,"availablePurchaseTargetList":[],"optimalSaleTarget":-100,"optimalSaleTargetScore":-100,"latitute":"51.697951","longitute":"-1.070106","amountDemanded":"5","pricePrefered":"14","distancePrefered":"12","energyTypePrefered":"2"},{"index":180,"seed":"VWOEJSYDTGPMVBLGONHW9QGBVYMJUFWIDGVJNWVE9GYFNXVLDH9UNQFBDOCEIYVYXQ9MFFJJSXMHOHVMT","address":"QTL9KXSDPC9OKEBXOFPSVXEZDAAYHJHTIQIBQMOCWRAPYDENKZCYHCDPLRIABNOAJOAXRXCWDJCWFCKBC","optimalPurchaseTarget":-100,"optimalPurchaseTargetScore":-100,"availablePurchaseTargetList":[],"optimalSaleTarget":-100,"optimalSaleTargetScore":-100,"latitute":"51.759295","longitute":"-0.652948","amountDemanded":"4","pricePrefered":"16","distancePrefered":"10","energyTypePrefered":"0"},{"index":181,"seed":"IDOXQHJ9EJDVCV9PET9QOJLF9GPSCCMSKAJVDCTQNSSTHIIBBBFQFVVSYDNSRADHGOYIBBYAIIMVJUPRT","address":"IJMTPJNOZNZPJBKTDQNZDVBACOBEUNSR9OJIWMYCGWODHE9FAUYFPKFJOWGRFAODRFDHAZQCWKGQLRVPC","optimalPurchaseTarget":-100,"optimalPurchaseTargetScore":-100,"availablePurchaseTargetList":[],"optimalSaleTarget":-100,"optimalSaleTargetScore":-100,"latitute":"51.387253","longitute":"-0.957513","amountDemanded":"3","pricePrefered":"15","distancePrefered":"12","energyTypePrefered":"1"},{"index":182,"seed":"LEFFIHTVJRUFOYBVSJ9FCHYQE9SVJTNBEHPHJSPQBFDSAKCPSYRYAUXOJV9WXSSOAIAUMHFMWVNHXRQVY","address":"PEBCGEWKST9N9HYAPOEHVGYEWYOXEYVVSFNRHIVEYEWLSRNHWS9ICJTWTFHZCIWFMNJBLWFQOMQXA9MCC","optimalPurchaseTarget":-100,"optimalPurchaseTargetScore":-100,"availablePurchaseTargetList":[],"optimalSaleTarget":-100,"optimalSaleTargetScore":-100,"latitute":"51.605551","longitute":"-2.045422","amountDemanded":"4","pricePrefered":"15","distancePrefered":"12","energyTypePrefered":"1"},{"index":183,"seed":"GUYWIAPEBGKXBIPBKUEYVSLJFMBGBEESDDBTAJGFWUSXFSDWAFDDHFMGJXOISXU9O9XT9W9KRBWNQAOFC","address":"EVVTN99TJATSLKIMNFPTXTJNTSEYENBTIOVVPC9HZSNOODSDBFYWMAOOSCKPL9ZDQKTISLQAHLHHJBCKY","optimalPurchaseTarget":-100,"optimalPurchaseTargetScore":-100,"availablePurchaseTargetList":[],"optimalSaleTarget":-100,"optimalSaleTargetScore":-100,"latitute":"52.192061","longitute":"-1.911996","amountDemanded":"2","pricePrefered":"14","distancePrefered":"13","energyTypePrefered":"3"},{"index":184,"seed":"GRLABDAUHVRPGXHBSMTIRMIDGFAFCPJCFEKYETGFWBRGHHBPQLVSCMQYMMHEPARBUVVADYRIKQHEWPLKR","address":"SPXNSHQGKDKSXOKT9GRQOZROQADSCEBCVIZKBARJTV9JVWBGZIH9BUCXVRDTSOKANFCMIZUNWMCXWMBEA","optimalPurchaseTarget":-100,"optimalPurchaseTargetScore":-100,"availablePurchaseTargetList":[],"optimalSaleTarget":-100,"optimalSaleTargetScore":-100,"latitute":"51.808812","longitute":"-2.083349","amountDemanded":"5","pricePrefered":"15","distancePrefered":"14","energyTypePrefered":"4"},{"index":185,"seed":"ADYFU9OJIHKBXJEHDIGGID9FGXGBE9PGDSYXLGWYLSMEQJVXVPGFFVXYTPDJKRQBLHSVECDOMWQOAO9WI","address":"OPNXSVUTTXKQHCTXZW9BVVAZXTHVKDRYNBEVKHVFFYSFBITHEXRSLDTIOKUUWNRKXDZCW9SRMOMKIWDLD","optimalPurchaseTarget":-100,"optimalPurchaseTargetScore":-100,"availablePurchaseTargetList":[],"optimalSaleTarget":-100,"optimalSaleTargetScore":-100,"latitute":"51.148573","longitute":"-0.493989","amountDemanded":"6","pricePrefered":"16","distancePrefered":"14","energyTypePrefered":"2"},{"index":186,"seed":"QFPKUIX99HXHKNOEKADPPNEKYQLCQYP9SQGMUHPLKV9STXBUKEOLPLLOVOFHLBMWPPRRAYBWVGMYFPDRX","address":"REVIJOSQIIIGGLPROTQNCTOSPARXTDIDOGVOQIZTYXPNOYUGCNTM9LRIKXRTJXQSWLV9JHHTPQIWOE9YD","optimalPurchaseTarget":-100,"optimalPurchaseTargetScore":-100,"availablePurchaseTargetList":[],"optimalSaleTarget":-100,"optimalSaleTargetScore":-100,"latitute":"51.903483","longitute":"-0.109202","amountDemanded":"5","pricePrefered":"15","distancePrefered":"13","energyTypePrefered":"3"},{"index":187,"seed":"LLVSTEYILPYREYJBPOXGDVPRUKVEFRFWBJMVWTSUBQYSIAULVADFJA9URDPDXUKGDEY9UTAAWKMABWDBV","address":"ZQOAHBSXGBORHEIEGHDGSLOWZSHJUUUENRIXLYHMLMKDTDKFVDCQAYJLJZGCPEW9NUNBCLNDJMDBJTKW9","optimalPurchaseTarget":-100,"optimalPurchaseTargetScore":-100,"availablePurchaseTargetList":[],"optimalSaleTarget":-100,"optimalSaleTargetScore":-100,"latitute":"51.747191","longitute":"-0.180296","amountDemanded":"6","pricePrefered":"14","distancePrefered":"12","energyTypePrefered":"3"},{"index":188,"seed":"EUGORAAWWN9MYB9UNQIJYYSHOHJB9UMLPKUSGW9YYSIUDOMOIFCEBRLLJIYE9YQRAOIVABSADBYRQB9X9","address":"DZLGXYHYNQCPHQFT9WZSEPTOSANNMG9EYTKCMHFHRUQSNGFPKWAXBXWUOQTACZVTYJYRFTOWVMSRVWNWD","optimalPurchaseTarget":-100,"optimalPurchaseTargetScore":-100,"availablePurchaseTargetList":[],"optimalSaleTarget":-100,"optimalSaleTargetScore":-100,"latitute":"52.035697","longitute":"-2.192863","amountDemanded":"6","pricePrefered":"16","distancePrefered":"11","energyTypePrefered":"1"},{"index":189,"seed":"CDAPC9PSPALDKPXWWRYF9QYPMDJNVYBJNYNPFOM9XEYXHGIYOSHGKVCTVMEGWI9VXHMMDWSXDNXIBR9DK","address":"NZTGFKHOHGQVEDLY9YXVZHKBC99BCRCCLHFDYNQDEBNRPDWKNOEZIVOVRHZPIPCXW9WYKEPHKWZFOPFEA","optimalPurchaseTarget":-100,"optimalPurchaseTargetScore":-100,"availablePurchaseTargetList":[],"optimalSaleTarget":-100,"optimalSaleTargetScore":-100,"latitute":"51.252108","longitute":"-0.152798","amountDemanded":"3","pricePrefered":"15","distancePrefered":"13","energyTypePrefered":"4"},{"index":190,"seed":"AXJUKUXPKOFJQGPHLDJVJTPKYAMGALJLGURBAO9RNCFWQMXAFWKALPDRHQMATPFRCWJJLIBTULPTXRAKH","address":"OGPYMEKXEOQLGNLRQIFDGBYJNQTMPNWBYZZXTQGDMQMJWDCL9WVVDUIXLKOKME9HXARAA9NCOFPOFWROZ","optimalPurchaseTarget":-100,"optimalPurchaseTargetScore":-100,"availablePurchaseTargetList":[],"optimalSaleTarget":-100,"optimalSaleTargetScore":-100,"latitute":"52.139513","longitute":"-1.495771","amountDemanded":"2","pricePrefered":"15","distancePrefered":"13","energyTypePrefered":"0"},{"index":191,"seed":"MGYEPVAGVMEORTYII9EPIBCOVVIDEKKMQSFSUNBKDAGPSMSYQ9UF9MRIWXXLD9LTE9EEPXPWKSDCJXYUO","address":"ILNCFMHDYRAGXDZKSAZOPBTSGSKIZIOBDJGCCPKJLBW9OQDIHN9FUPJVCKQLMUWSFTPMJPQBLWVHCNHFD","optimalPurchaseTarget":-100,"optimalPurchaseTargetScore":-100,"availablePurchaseTargetList":[],"optimalSaleTarget":-100,"optimalSaleTargetScore":-100,"latitute":"51.315464","longitute":"-0.844114","amountDemanded":"2","pricePrefered":"16","distancePrefered":"15","energyTypePrefered":"4"},{"index":192,"seed":"BHW9ENEHBIAIJCEGGQFCMWVCPYUAE9BPGGRXOJGKR9RY9DKHKYRSGSBBYGOTFQKIV9LWIQBBYLOXXLYJV","address":"GCSFALCBZLENTNBPDJCPFKQHHGMLIJLSVHVPIIUJRCVXDPFMX99ZEGB9KZPXHWPCEOBAVLMLDFKYESPAY","optimalPurchaseTarget":-100,"optimalPurchaseTargetScore":-100,"availablePurchaseTargetList":[],"optimalSaleTarget":-100,"optimalSaleTargetScore":-100,"latitute":"51.598265","longitute":"-1.821218","amountDemanded":"1","pricePrefered":"15","distancePrefered":"13","energyTypePrefered":"2"},{"index":193,"seed":"AEOVMSIQCTHJSDXD9ESLNPYPCIAC9NEGYYMHJSYROOXPWIUEBRIOW9P9PV9FTNKEBESDRPRHPJARWAMUY","address":"VUSHC9JFYELWWHOBDEGYBQWDFANFIKTWVVOLLXTHNT9TDRASXZIKSIMWEWNMTHUIGHHH9WTDWAAFHVVR9","optimalPurchaseTarget":-100,"optimalPurchaseTargetScore":-100,"availablePurchaseTargetList":[],"optimalSaleTarget":-100,"optimalSaleTargetScore":-100,"latitute":"51.969195","longitute":"-2.185994","amountDemanded":"5","pricePrefered":"15","distancePrefered":"14","energyTypePrefered":"2"},{"index":194,"seed":"PXKPCCBNILTFPWMYQLAVRTNHOCHDGPYOBB9ICSXUWWWUDACWGQT9DXEFWIGI9T9WWDNBAOFBKCLJLUBAC","address":"ERAZWVETQONXUGTSSLTW9ISB9FWATREKHHGUDRWZCVVPFRPN99DTTSDFOMJBSFZMCZDNQXMXCWHUYSX9Z","optimalPurchaseTarget":-100,"optimalPurchaseTargetScore":-100,"availablePurchaseTargetList":[],"optimalSaleTarget":-100,"optimalSaleTargetScore":-100,"latitute":"52.177797","longitute":"-1.187344","amountDemanded":"2","pricePrefered":"15","distancePrefered":"11","energyTypePrefered":"3"},{"index":195,"seed":"LFPUTUXCOEAPSJARTANBGRNRF9JECGQ99KCQDPUVBOBFILERLSUYJSHSKGLWLFXUXUJJDBQIKXVECHJGK","address":"MUCADYOKGONYDZDBVYVGDXOBJOAFUHKKPGQRQCW9DNRPSZHCBMDNHM9VXB99ESHC9CEIYLALIVYUUOONA","optimalPurchaseTarget":-100,"optimalPurchaseTargetScore":-100,"availablePurchaseTargetList":[],"optimalSaleTarget":-100,"optimalSaleTargetScore":-100,"latitute":"51.413054","longitute":"-2.345503","amountDemanded":"5","pricePrefered":"15","distancePrefered":"12","energyTypePrefered":"3"},{"index":196,"seed":"QSSATKJBEGPJPVDSKRODLTONNNXKRFGLYOLDJBOBCVRQPMPGHEDQBVSUCEDTUGSUBVVWLBVIKAMY9R9AD","address":"WJNMFSHWADSHDHSVFCTLSEPBINWSAMM99BYYK9OCTRBJHSR9IDVXZZEIGJWZDOMJFNFBGVXGFKXYKAUEC","optimalPurchaseTarget":-100,"optimalPurchaseTargetScore":-100,"availablePurchaseTargetList":[],"optimalSaleTarget":-100,"optimalSaleTargetScore":-100,"latitute":"52.064581","longitute":"-2.219952","amountDemanded":"2","pricePrefered":"15","distancePrefered":"11","energyTypePrefered":"2"},{"index":197,"seed":"BNEYGSJEVWMDKQQYLXOTKDKNTJIGVBWCANORGMEMFGSIP9YQQMBHTORIUVIRKQSOSLMHRXSLNTIBUYFXG","address":"G9UGMUFAPDBEVVTHBBKEAV9JXKLRNGCSJXGQWRWCBRAVLCKURRQIF9KAJJGYNNJQONFYKJKYFSYIARQZW","optimalPurchaseTarget":-100,"optimalPurchaseTargetScore":-100,"availablePurchaseTargetList":[],"optimalSaleTarget":-100,"optimalSaleTargetScore":-100,"latitute":"51.972032","longitute":"-1.687799","amountDemanded":"1","pricePrefered":"15","distancePrefered":"12","energyTypePrefered":"0"},{"index":198,"seed":"TXJEULMFEHALLWAQFUMGDIFPCTCWPH9FWDCBLEVQQXYD9L9TABXSWKDQFQYCTJEVAIWHFWBCVCFYEUCWW","address":"QXM9QFZVFBQTOKRRYYFKBSUWT9ISHBS9KVTLKCGZWYGTRPTFNJCONJN9UA9BSYDHQJWJTASYYBKU9QZDC","optimalPurchaseTarget":-100,"optimalPurchaseTargetScore":-100,"availablePurchaseTargetList":[],"optimalSaleTarget":-100,"optimalSaleTargetScore":-100,"latitute":"51.549820","longitute":"-0.641652","amountDemanded":"5","pricePrefered":"15","distancePrefered":"15","energyTypePrefered":"1"},{"index":199,"seed":"YOCCXWRO9VWN9TMYQ9SCK99NHAGVBMWJTGUWCBWSYXPQTDCAAFPWVSTGVTI9IFQ9FRCVTPTCEWS9KOCEP","address":"QHTOJUNZQKBSWLCSGAUA9PGEEOBUIPJIVVNFJSGCTVSWXVTKBGPUATRQVBE9ON9BLNPWZYGZBSPONUIAB","optimalPurchaseTarget":-100,"optimalPurchaseTargetScore":-100,"availablePurchaseTargetList":[],"optimalSaleTarget":-100,"optimalSaleTargetScore":-100,"latitute":"51.774176","longitute":"0.108642","amountDemanded":"6","pricePrefered":"15","distancePrefered":"14","energyTypePrefered":"3"},{"index":200,"seed":"FDNLPPYKSCAA9HEWK9BADVDMVOJIDLUDTHJKDGGHNCMLTSEBMVDMPGJGMLFMBSQRYTGPJLFRCJSESBKWW","address":"EAQVOWIEWZLBUIHNUSI9HRNJWOGZYFMOQONKOOEKTGWUOW9JYJNPUPRKHZMTEICBHTSEULKNQZOAQGKLW","optimalPurchaseTarget":-100,"optimalPurchaseTargetScore":-100,"availablePurchaseTargetList":[],"optimalSaleTarget":-100,"optimalSaleTargetScore":-100,"latitute":"52.331082","longitute":"-0.064168","amountDemanded":"5","pricePrefered":"14","distancePrefered":"14","energyTypePrefered":"2"},{"index":201,"seed":"VGQQIHAYKJJUSHNQFOXPUXODBRFHOF9IUOVDMJRRVMKDEUSVOCWNIXNPSCDPDIF9EASHBSPLVRWFCFYLU","address":"C9QVJVZZDZHVNNLEIWRQO9SIIF9ZWYAESZAZAHCDXTHLSLSRJJCLYWHVQMDBPIENEXZAEAFVOWQYMJNRX","optimalPurchaseTarget":-100,"optimalPurchaseTargetScore":-100,"availablePurchaseTargetList":[],"optimalSaleTarget":-100,"optimalSaleTargetScore":-100,"latitute":"51.936982","longitute":"-0.287208","amountDemanded":"5","pricePrefered":"16","distancePrefered":"13","energyTypePrefered":"2"},{"index":202,"seed":"QNPG99AVBQRSKMXGXRATAHILOOP9U9TTS9MRTNKKYIYOTYLMBPIGESE9OVEQNUICVC9SPCWHUUPJSQOBH","address":"AVWCVZGOBAAYOYIZTCGVFBPZAVBFAKJNBRTTUAPNIWZIYIISUGZZPELQUSVXCDPQOGUCF9TTJ9FSNOQAW","optimalPurchaseTarget":-100,"optimalPurchaseTargetScore":-100,"availablePurchaseTargetList":[],"optimalSaleTarget":-100,"optimalSaleTargetScore":-100,"latitute":"51.890549","longitute":"-0.546392","amountDemanded":"1","pricePrefered":"15","distancePrefered":"12","energyTypePrefered":"2"},{"index":203,"seed":"IHMLISNTOQJIVQJKEHVS9NV9BCOMKOSGPUDMLQKKW9GFRFRSDHFWWBUV9LEDCWNDK9JETJPQEE9UTKFQE","address":"SLUWYOXDXUSCZOBQSXPBNNEJVPBVKGRHNGEWDQEZWWUMNZUKIQXMHOZCGJFZORZHNTMN9ILCFFLWWCWW9","optimalPurchaseTarget":-100,"optimalPurchaseTargetScore":-100,"availablePurchaseTargetList":[],"optimalSaleTarget":-100,"optimalSaleTargetScore":-100,"latitute":"51.337969","longitute":"-2.323384","amountDemanded":"5","pricePrefered":"16","distancePrefered":"14","energyTypePrefered":"2"},{"index":204,"seed":"URMDVGHATKVEVHTH9JDMTJIWSKCQLFLBIYGYPGDGVNSQAME9F9AFHOCJIQKODSTTVDKHMMLWHPATDFPWL","address":"AJVAW9TJAPOTDMZLZD9FJGFUEHPVYIHQCSFBAVWZDMYQQFGYLJEYJORKZCLNKILXEQHWX9KDCFBDPNLHB","optimalPurchaseTarget":-100,"optimalPurchaseTargetScore":-100,"availablePurchaseTargetList":[],"optimalSaleTarget":-100,"optimalSaleTargetScore":-100,"latitute":"51.582934","longitute":"-2.115205","amountDemanded":"4","pricePrefered":"15","distancePrefered":"11","energyTypePrefered":"2"},