[{"index":0,"seed":"YRWFGTVMOVLGFPNJYFYLWFBBB9PMHEASGUDLHUIRBRYJRIMANWRXSGOXYFJMBX9YVXI99PIJXJUODIVKA","address":"DAM9GJNICZ9TMJCHTX9WBOFIET9JIDEJQTAGKQOHZNBVKWTVQWDNMA9WBSDJSGQACVRANUYTGZUJVDOLB","optimalPurchaseTarget":-100,"optimalPurchaseTargetScore":-100,"availablePurchaseTargetList":[],"optimalSaleTarget":-100,"optimalSaleTargetScore":-100,"latitute":"51.410475","longitute":"-1.982514","amountDemanded":"1","pricePrefered":"16","distancePrefered":"11","energyTypePrefered":"1"},{"index":1,"seed":"OMMLVHQPHXDQW9YPIHKOHOXBVIKR9QJEKJPPOYGY9SDFYJSAHUXIHAJ9PQYGDBWLYOKTOIRXGHTBTDPTV","address":"FBDHJHWXNBADMTNLGEPAYUFXPQJVLGIIKGWTTWWFPYTUEKEZQBNYCDLQKPBLE9JWSEATASYXVONDVPOPY","optimalPurchaseTarget":-100,"optimalPurchaseTargetScore":-100,"availablePurchaseTargetList":[],"optimalSaleTarget":-100,"optimalSaleTargetScore":-100,"latitute":"51.456424","longitute":"-0.262356","amountDemanded":"2","pricePrefered":"15","distancePrefered":"13","energyTypePrefered":"4"},{"index":2,"seed":"TDDRGTIVMF9RURAIIYKLIFGWBHMGNC9HJAQVGRJOQURKTKSAEMGHKGMBYWYYPBUK9SUHIVRNF9SVHMJHO","address":"YANUM9KRSCZMBVXOMUSROUDAGEHYHSLHDFSSQIBUHKJKHATFOQKWZTNTWSZXXVTAADMOJRERKPOQVJSTX","optimalPurchaseTarget":-100,"optimalPurchaseTargetScore":-100,"availablePurchaseTargetList":[],"optimalSaleTarget":-100,"optimalSaleTargetScore":-100,"latitute":"52.216044","longitute":"-0.711970","amountDemanded":"5","pricePrefered":"15","distancePrefered":"12","energyTypePrefered":"3"},{"index":3,"seed":"BDUPESYUWKHJJTNEABLUUXAWEBCLLAN9F9CMKJYFYDMRSSIDDDHNGHOWKLBTVBSCBVJRNSPFDQNYGGOSG","address":"JC9AVCRXXUEPWAHMJGKLW9HOKJE9JREVEGEHSFBLIJNBWFPH9PSZKMQBIQ9KHSQMLMACCRRHCHZUXDVFC","optimalPurchaseTarget":-100,"optimalPurchaseTargetScore":-100,"availablePurchaseTargetList":[],"optimalSaleTarget":-100,"optimalSaleTargetScore":-100,"latitute":"51.331873","longitute":"-1.903804","amountDemanded":"3","pricePrefered":"14","distancePrefered":"11","energyTypePrefered":"3"},{"index":4,"seed":"XCUQF9ABXCYONTTOXJCVFWNGFVTCVSNDHASXPAECARWITEEHYWI9N9KBLENXLQT9NLPSKP9AOKJLYRTUJ","address":"TVRFUYCBMNUPNEJDVDDPGSPSXWIASUUAJTLNQXGK9YNMDFOHEIAYZUE9JYHGCBVWM9MEYIJGMXNCNTUBY","optimalPurchaseTarget":-100,"optimalPurchaseTargetScore":-100,"availablePurchaseTargetList":[],"optimalSaleTarget":-100,"optimalSaleTargetScore":-100,"latitute":"51.951609","longitute":"-1.469438","amountDemanded":"5","pricePrefered":"15","distancePrefered":"15","energyTypePrefered":"3"},{"index":5,"seed":"EPHMLVKTKASGOKCWNT9QDRATIEXRWVHRPOYQWGOHORHC9RRXWLNOSTPQ9DONKRPKASDWLE9Q9NDBFQNNH","address":"WTA9USQGVKKISCXJEICYYZJ9CNXTHNU9HUSZPJRORFTUND9YGUPDW9PWXO9CLFBBDSLWKNZPFUAXOOCZW","optimalPurchaseTarget":-100,"optimalPurchaseTargetScore":-100,"availablePurchaseTargetList":[],"optimalSaleTarget":-100,"optimalSaleTargetScore":-100,"latitute":"52.358644","longitute":"-2.019780","amountDemanded":"5","pricePrefered":"14","distancePrefered":"14","energyTypePrefered":"1"},{"index":6,"seed":"FWQKYGRDHG9UNKYTQWLNTOFDRPH9DPPALQEUKQFGVPKDRKC9BNPWFC9O9FBAYMFGXRFJUCKXDXQGUIDBS","address":"ZSTI9RWEUSVIKBXYODXEHKZLAYUNNKPGBP9CAFVWULFGKRGO9SMWKWMIXDITTQXEJLMHXTVJXQSCMGTID","optimalPurchaseTarget":-100,"optimalPurchaseTargetScore":-100,"availablePurchaseTargetList":[],"optimalSaleTarget":-100,"optimalSaleTargetScore":-100,"latitute":"51.932127","longitute":"-0.166752","amountDemanded":"5","pricePrefered":"14","distancePrefered":"12","energyTypePrefered":"0"},{"index":7,"seed":"UCYBTVWIEQPBXPEBYAKRDWXH9ICEUNLE9WWUCNUSQUOWCX9MGKRUYBXVQLGYVIAXCO9UBGKVTXWA9YWCQ","address":"MOQGAZUCVRHXZDZOBTZWSBYKDOFOPKEUHRAAVBXKSDJUXADHRSHZJCTMSYSARQLTQRGLUKHFGQXACWNRW","optimalPurchaseTarget":-100,"optimalPurchaseTargetScore":-100,"availablePurchaseTargetList":[],"optimalSaleTarget":-100,"optimalSaleTargetScore":-100,"latitute":"51.271197","longitute":"-1.439990","amountDemanded":"3","pricePrefered":"15","distancePrefered":"13","energyTypePrefered":"1"},{"index":8,"seed":"WVCQUGSAKPHNCJUKRBCGLMTVAR9WXPWDUBVWPSECVFIMUYUCEDLDQSWDNB99AXTJ9OYBKUGR9DKANFCXR","address":"BYQNMKODWQJFOKKCDPWITAXCTFPBBNGZNHCVAIHRDHQHGPR9DFXEWVCX9IOXXSHQGNTUUPMVKYBFGC99C","optimalPurchaseTarget":-100,"optimalPurchaseTargetScore":-100,"availablePurchaseTargetList":[],"optimalSaleTarget":-100,"optimalSaleTargetScore":-100,"latitute":"52.027295","longitute":"-2.014523","amountDemanded":"5","pricePrefered":"15","distancePrefered":"15","energyTypePrefered":"3"},{"index":9,"seed":"ODKENWIUYKWYWERMEYRU9APLJFNYAUXWSJTGVJNMHVRGVCWBHADOBLWGJGCJQUR9DHUXJMJVDTUTCQPJB","address":"D9OXXOJHLJNFOPZDXHLRBAWEMEKJKMYCXYMWZEUZSBJQGURORFRAP9IBD9TVM9ERCWUBYGZJGXGUSPIKW","optimalPurchaseTarget":-100,"optimalPurchaseTargetScore":-100,"availablePurchaseTargetList":[],"optimalSaleTarget":-100,"optimalSaleTargetScore":-100,"latitute":"51.661369","longitute":"0.270762","amountDemanded":"2","pricePrefered":"15","distancePrefered":"12","energyTypePrefered":"3"},{"index":10,"seed":"QDHQRWPBVVTMDFCXVX9CBHVVXEPTUCUWYOTSKPS9WEOBXPVL9JAKKTQCAMDQXQBCRTHF9OFBYOANGCKTY","address":"GRZHJHRYAOXNTPONGTDRSKH9XKFVAKFBYPTEWEHXLOOTQSNHNIMIPK9YSZOXBIKBFKANBJDVPAUNSADMW","optimalPurchaseTarget":-100,"optimalPurchaseTargetScore":-100,"availablePurchaseTargetList":[],"optimalSaleTarget":-100,"optimalSaleTargetScore":-100,"latitute":"51.760532","longitute":"-0.439700","amountDemanded":"4","pricePrefered":"16","distancePrefered":"15","energyTypePrefered":"2"},{"index":11,"seed":"JIYBANMBADKJR9LFYEWBLUN9PRSQUJQHHWRRVEDVXBFWTQQMKJGQJOSMIABJGSYGMPQOFUMGXDMS9GKHI","address":"WYFUSUZRRFTMUFCQPPR9RFQCDUQHONMUYP9RLESBPZIWLMMQFTKLARNPOSSIN9OGRWXZZWYGUJNLOVHVC","optimalPurchaseTarget":-100,"optimalPurchaseTargetScore":-100,"availablePurchaseTargetList":[],"optimalSaleTarget":-100,"optimalSaleTargetScore":-100,"latitute":"51.280271","longitute":"-2.270136","amountDemanded":"6","pricePrefered":"15","distancePrefered":"12","energyTypePrefered":"3"},{"index":12,"seed":"NDIAGMAGJJOLKK9KSAEKFLSEGXICQFSRB9JLXRXJDIVSQ9STEPEKUKFQUIJU9F9NTFRELGUHRVTJDMTVN","address":"APHIGDNPMUNHHHUFDONEAON9NZLUEJWEHVNVBSIVQWIQDLHMXRLHHZSVFSMH9EEONFXHSJETMPHPYIVIW","optimalPurchaseTarget":-100,"optimalPurchaseTargetScore":-100,"availablePurchaseTargetList":[],"optimalSaleTarget":-100,"optimalSaleTargetScore":-100,"latitute":"51.576327","longitute":"-1.360097","amountDemanded":"2","pricePrefered":"15","distancePrefered":"10","energyTypePrefered":"2"},{"index":13,"seed":"HEMLTTOXUCBJ9PXGXDIYFTTKFHCBVLCJDXGOCYU9ITJE9HLMRN9QBFHONQF9ASCIBTBCRWHJCYQ9HESBO","address":"KXACDWYNYNRUMBBIBJYNCYXLMXPZAQANVXXI9YVOBJUDQLIAVJEITKQRCKNQJNOEPFHEYA9WPSGDQIUMC","optimalPurchaseTarget":-100,"optimalPurchaseTargetScore":-100,"availablePurchaseTargetList":[],"optimalSaleTarget":-100,"optimalSaleTargetScore":-100,"latitute":"52.286592","longitute":"-0.929908","amountDemanded":"5","pricePrefered":"14","distancePrefered":"10","energyTypePrefered":"3"},{"index":14,"seed":"TGTJQNPJIXIGSKYWWSFJHBRGXSJFUUKBIMLKUVPNPXGTHDCPTBDCOHOYYEMKYKHBJRQQPSFGOVYQEPMHV","address":"NWURRWO9UVIXRF9JOMCPVZHGHZWALFQCPCICO9BRPEIXJHHWZOFPTEOONC9UHYFSFEJFDPTWXJRBAUOSW","optimalPurchaseTarget":-100,"optimalPurchaseTargetScore":-100,"availablePurchaseTargetList":[],"optimalSaleTarget":-100,"optimalSaleTargetScore":-100,"latitute":"52.303947","longitute":"0.206108","amountDemanded":"3","pricePrefered":"15","distancePrefered":"13","energyTypePrefered":"3"},{"index":15,"seed":"EWVUMXYJXETYNVUDMWJISHMMECDSPPBSPJGQTTKCDW9YETAMHKQMCSGYHUDTBWNPAKOSTLCPIOQYUKSOP","address":"GWXVATWPEUO9QTKJUMYQJVHSAHKCZDWNLOXJVCXLMEWFRPZEXF9FUGZT9AXXNEIMXVXVPBMUABSEJCKRX","optimalPurchaseTarget":-100,"optimalPurchaseTargetScore":-100,"availablePurchaseTargetList":[],"optimalSaleTarget":-100,"optimalSaleTargetScore":-100,"latitute":"52.264127","longitute":"-1.077514","amountDemanded":"2","pricePrefered":"14","distancePrefered":"14","energyTypePrefered":"2"},{"index":16,"seed":"QKISUUIXAIJESEEPGQPX9WIWRFJMYEEQKUWWPRL9FMSH9AJWODQBYWKJKOITMKMWTTSGQIWTWDIWSNJMS","address":"GGQ9JOOIRLWCXBRNUYHIHMWBXUSYH9HCKPRPKQPCJQY9CSPWHVWWSJGIARHQZOXPQQOMHVUEUEOJNBENY","optimalPurchaseTarget":-100,"optimalPurchaseTargetScore":-100,"availablePurchaseTargetList":[],"optimalSaleTarget":-100,"optimalSaleTargetScore":-100,"latitute":"51.080695","longitute":"-1.543163","amountDemanded":"1","pricePrefered":"15","distancePrefered":"11","energyTypePrefered":"0"},{"index":17,"seed":"RJVGJTKOT9WDJKCYSHXBCM9KOOEIDCNBSLHKIJUOEVPJXSXCHEQAGFRIX9LWHXEQITVJYQYNVBFTIESGN","address":"UYFYOJCBOAB9RAXBJACAFVMVHXJQAGIRQOQSLBDHDAQSSPXYBXCQBIESOFCZOJHKRTOFBUOJFAILJVDTB","optimalPurchaseTarget":-100,"optimalPurchaseTargetScore":-100,"availablePurchaseTargetList":[],"optimalSaleTarget":-100,"optimalSaleTargetScore":-100,"latitute":"52.219246","longitute":"-1.114482","amountDemanded":"3","pricePrefered":"15","distancePrefered":"12","energyTypePrefered":"1"},{"index":18,"seed":"9LTUNHCYLILUWFNDYUKSQVQ9JGVEFLIPLURP9BD9HX9EN9CSRNYLOGTWWOJMSXRBXRVNXCQEWBUNBEYMR","address":"MNAGTAVRFQVXMZBOTDP9MHBFFQDBSQQLBRAQCLATALKSTARZLKQMR9AARDWZOGILBJLWRGNVISCXQYUT9","optimalPurchaseTarget":-100,"optimalPurchaseTargetScore":-100,"availablePurchaseTargetList":[],"optimalSaleTarget":-100,"optimalSaleTargetScore":-100,"latitute":"51.312953","longitute":"-1.207545","amountDemanded":"2","pricePrefered":"15","distancePrefered":"14","energyTypePrefered":"3"},{"index":19,"seed":"BOUHFGTUOKJMEXPYAXHWSLTYWYHAFDFFJNAUOVTLEQIUIBKX9PHMLBJNTCIRULJPSASBIC9ULTNETNFPB","address":"PIPFZGLKDVBJYVLLXZCSOUXHLWSMMFSGS9PSQYEBZBYGIYD9D9RBXGHARHPINLUOBNOBCUDTVVRLGYPIW","optimalPurchaseTarget":-100,"optimalPurchaseTargetScore":-100,"availablePurchaseTargetList":[],"optimalSaleTarget":-100,"optimalSaleTargetScore":-100,"latitute":"52.207464","longitute":"-1.154694","amountDemanded":"3","pricePrefered":"15","distancePrefered":"11","energyTypePrefered":"0"},{"index":20,"seed":"ESBGCDWXVRCAOIOOEQAXBCYJKVLQSNEEIQXRIAT9OHQNACIDOMQF9LLCBEVRIUEYTPLEYOYTM9FSIASUE","address":"BNIYHMPWFVGAQLOKPVPEPXOXMHPUVWZETYPLTPOGZIRIWCHHAWOTSFAGGYWFOBBRBFSOXVVTRYYHG99SB","optimalPurchaseTarget":-100,"optimalPurchaseTargetScore":-100,"availablePurchaseTargetList":[],"optimalSaleTarget":-100,"optimalSaleTargetScore":-100,"latitute":"51.378357","longitute":"-0.023457","amountDemanded":"4","pricePrefered":"14","distancePrefered":"10","energyTypePrefered":"3"},{"index":21,"seed":"VOTU9CBSAFKVKVNPUYFUAUJIROLQMFCEUUOHYLUJOHKFYPSTIUJP9DNYMCVSFQDCTOEKDFOEBK9OONGVW","address":"FPRP9VOUPBASWIMJARZLNLFJRCNNPJJWZRSGJHDTJIULGUHUCNHPYAQB9VEFAQYVRDNOMFUENAMSCUTDD","optimalPurchaseTarget":-100,"optimalPurchaseTargetScore":-100,"availablePurchaseTargetList":[],"optimalSaleTarget":-100,"optimalSaleTargetScore":-100,"latitute":"51.740642","longitute":"-2.298767","amountDemanded":"3","pricePrefered":"16","distancePrefered":"11","energyTypePrefered":"1"},{"index":22,"seed":"NMPOJXKGEEIVQGF9TFTEX9DSJDMURGCVBLBEXRTOFTKGGDKLKKJWLGHNPQOVSLRBNFMOMQPBXSXHEDNMW","address":"BJFQJSNOJFITKTKEXHGVJPKHJ9JPFARHVLTUTJILLKRGBVUWQWGOEUDEOZFVWWPPZOMMLDVJQLELEOQTX","optimalPurchaseTarget":-100,"optimalPurchaseTargetScore":-100,"availablePurchaseTargetList":[],"optimalSaleTarget":-100,"optimalSaleTargetScore":-100,"latitute":"52.181520","longitute":"-1.012867","amountDemanded":"4","pricePrefered":"14","distancePrefered":"14","energyTypePrefered":"2"},{"index":23,"seed":"D9XBTMUOXMGPOTWMYRXPWUNK9GRR9KFVODGVGUFNCYKCOIUJEMONVTTOQELGAVMSG9GUWHYGCUKX9GNSD","address":"YBQAWCZONKFEWQG9ILWYZ9DYTOKRPWLACJNWAOLMRNQHWBMFATYCVSAEOCFBIUXAKQZDLDZWGVWVRBCGB","optimalPurchaseTarget":-100,"optimalPurchaseTargetScore":-100,"availablePurchaseTargetList":[],"optimalSaleTarget":-100,"optimalSaleTargetScore":-100,"latitute":"52.073459","longitute":"-2.151324","amountDemanded":"5","pricePrefered":"14","distancePrefered":"12","energyTypePrefered":"3"},{"index":24,"seed":"CJFFLVMNJMDS9UEMAQPQQDOTBJVDSCYUPSFIXVVQNVBII9RTCTQG9ULBHSADKQJRMXTSRPBFJHWKNYJBW","address":"MOCVBC9TYVVBSURZZRWHYKFEELMORQACKJCDSARENIHFSHRPSPCKJKRDCXCFYYSFMSIGHUBHKFIUBAFDZ","optimalPurchaseTarget":-100,"optimalPurchaseTargetScore":-100,"availablePurchaseTargetList":[],"optimalSaleTarget":-100,"optimalSaleTargetScore":-100,"latitute":"51.005092","longitute":"0.093379","amountDemanded":"3","pricePrefered":"15","distancePrefered":"11","energyTypePrefered":"4"},{"index":25,"seed":"M9ESQGOLRKDPDLHJKMHQFYGKOIEREPXCXMJQVYXGFWJMNPILVTHTUKO9FDIJD9VPLQYEJGPYXJG9WAPER","address":"UMAA9FCEAPUPTZHOZYLDGLQWIZLDLLYDMCMW9NBKOHEXUKCPZFPVMLIFHEACRYGP99EZVGCAUIIISVCYD","optimalPurchaseTarget":-100,"optimalPurchaseTargetScore":-100,"availablePurchaseTargetList":[],"optimalSaleTarget":-100,"optimalSaleTargetScore":-100,"latitute":"51.818289","longitute":"-0.344071","amountDemanded":"1","pricePrefered":"15","distancePrefered":"12","energyTypePrefered":"3"},{"index":26,"seed":"KMSWWYHPODWU9EUOAAQWVX9BGWWWDITDNWCCILXQYGUAXVQDQDNFMBFVDKQMAHT9VTDORRHKLNXRXDHBJ","address":"AISRLALPPELFSELNFBKWFU9RXFYJRDO9KFNDBK9CKHRNBENCFHMWEDDIHTPDEJEGNLJENHASLWCHFUM9B","optimalPurchaseTarget":-100,"optimalPurchaseTargetScore":-100,"availablePurchaseTargetList":[],"optimalSaleTarget":-100,"optimalSaleTargetScore":-100,"latitute":"51.813637","longitute":"-1.561086","amountDemanded":"5","pricePrefered":"16","distancePrefered":"12","energyTypePrefered":"4"},{"index":27,"seed":"WNWSKCPSTULKQJYMFUAXBBCTKVYXATFBTHPDESDMWWININEJOHFJHUMTTGU9LSQNCJSSPQCQWJNWXL9LL","address":"ROTCVQPPVRRIPRSBI9YZQNRL9KLMDQJFEQQ99BMBEEJPVEZZYCBEWOUQRDJO9RDLUOTFFWNKCSTBG9RVY","optimalPurchaseTarget":-100,"optimalPurchaseTargetScore":-100,"availablePurchaseTargetList":[],"optimalSaleTarget":-100,"optimalSaleTargetScore":-100,"latitute":"51.885724","longitute":"-0.824465","amountDemanded":"5","pricePrefered":"15","distancePrefered":"10","energyTypePrefered":"1"},{"index":28,"seed":"MTNXERSHG9LRNSIGHGGRPSEUNNMHFARDGIBOSK9DGKMMJ9M9KSMVNNBECFN9BTBMYEVNJAVTXAXPEW9GE","address":"EQPWUFCUIHGRKJTDKIPQABZXMXQD9IROPETXGWH9TZPPHHYGSEP9USUWRT9KVLLESETGX9IXYIVXVECEW","optimalPurchaseTarget":-100,"optimalPurchaseTargetScore":-100,"availablePurchaseTargetList":[],"optimalSaleTarget":-100,"optimalSaleTargetScore":-100,"latitute":"52.111816","longitute":"-0.787272","amountDemanded":"3","pricePrefered":"15","distancePrefered":"14","energyTypePrefered":"2"},{"index":29,"seed":"AXFUKUW9RUHPUKNOVDHDLBSAISBEKUGEEUB99VX9CUHSMPOBKBVVYCHTHHBJ99NXCKTJGDK9MPPNFRRJL","address":"AJEYT9QAFSFSEMKGNHCDXZNXJFR9QTEEVIHSXEYTOWDGPVXSIWGUQDCVOBHCMANJXLTSCDLGAFNRUAYUY","optimalPurchaseTarget":-100,"optimalPurchaseTargetScore":-100,"availablePurchaseTargetList":[],"optimalSaleTarget":-100,"optimalSaleTargetScore":-100,"latitute":"51.474259","longitute":"-0.000116","amountDemanded":"1","pricePrefered":"15","distancePrefered":"11","energyTypePrefered":"1"},{"index":30,"seed":"BTCBPPADBIMSEEUEPVRSWGM9VPUIRFKMKWRBSTDDFBPGTLDOEWRO9QAPOSOXTW9QPICCINV9NLXJKCAIG","address":"QZKEZDRAMMKJVLKAPZSHCOZEBIGQNFUYA9EKNOESDERKQZBUFYKRBOGBL9OIZQCJVKSUKDNKDFSUUAI9Y","optimalPurchaseTarget":-100,"optimalPurchaseTargetScore":-100,"availablePurchaseTargetList":[],"optimalSaleTarget":-100,"optimalSaleTargetScore":-100,"latitute":"52.354909","longitute":"-1.281264","amountDemanded":"4","pricePrefered":"15","distancePrefered":"10","energyTypePrefered":"4"},{"index":31,"seed":"AWLXSBSFRBMSIPTBIDEMGQHKMYMURHKSJTSN9IPWNWKVPX9BHWIKIGGSXKCAARBTFMQ9BYGGDIRECEKUF","address":"DYWBSEAMOYZ9HLVRYMZWUXOTQMZZBTQHFNKCJAHBZWT99IKECWQLBNJPIBZYKYAMGFWURHF9FMQFBTVGD","optimalPurchaseTarget":-100,"optimalPurchaseTargetScore":-100,"availablePurchaseTargetList":[],"optimalSaleTarget":-100,"optimalSaleTargetScore":-100,"latitute":"52.157631","longitute":"-0.204997","amountDemanded":"4","pricePrefered":"15","distancePrefered":"12","energyTypePrefered":"1"},{"index":32,"seed":"MXUUJBAVVODOOIWXOKOUPSGQSXHANWPYLGWPTRWRPUWYKDHMFFIPNYGSQVDR9IJLNHCDTPWRKXMOFJJHR","address":"FFACBGZEZOAUZIIKUGBQYGWZEM9RKNJLIGEZRUW9TKUUHXKVJTJMVZZBIBSWNAYBOKACNRF9YMQQNN9TB","optimalPurchaseTarget":-100,"optimalPurchaseTargetScore":-100,"availablePurchaseTargetList":[],"optimalSaleTarget":-100,"optimalSaleTargetScore":-100,"latitute":"51.305811","longitute":"-1.237811","amountDemanded":"3","pricePrefered":"14","distancePrefered":"13","energyTypePrefered":"1"},{"index":33,"seed":"WPLQSNKWEBUKLUWXJYSVMI9MRUMNCAXQCWGGMOWVSUDDQYBTYDEWMLTXVPRAWAURCNO9KMUUVNFAKKAQT","address":"OENZOLMYSPDYTVKTWBJZGPE9FRRQS9RLQZTUYTBDYVFEDYDIKTVMUGOCLVBCCSSSJFLYENTPE9WGG9GPB","optimalPurchaseTarget":-100,"optimalPurchaseTargetScore":-100,"availablePurchaseTargetList":[],"optimalSaleTarget":-100,"optimalSaleTargetScore":-100,"latitute":"50.970623","longitute":"0.225692","amountDemanded":"3","pricePrefered":"16","distancePrefered":"14","energyTypePrefered":"3"},{"index":34,"seed":"RFYLB9GVRFDPTEQSFERNKFTIVSXBNHCLGSFDXKPGDVPBGWYKMETRREBODFLVFCRRULCQDJVURFNLUK9OT","address":"GGG9KZLYKLDHQFUDVILYBWQOKDCWSAJXUXCOLMONWGXTFYLQSLB9VGEUSHOPAAHHSTSKQQMKNMGQDRKFB","optimalPurchaseTarget":-100,"optimalPurchaseTargetScore":-100,"availablePurchaseTargetList":[],"optimalSaleTarget":-100,"optimalSaleTargetScore":-100,"latitute":"51.408482","longitute":"-2.131550","amountDemanded":"5","pricePrefered":"16","distancePrefered":"12","energyTypePrefered":"2"},{"index":35,"seed":"AHVMIN99K9KMMTEVBLAFICHWALXDFMIDLCL9HXXMMSNOSWXNPXNUUKYFEBBULCBSEJGMAHDTUE9XCMMSH","address":"VKZONCTOUQWSBIKRAKZPRLKLAJKVNLDWPBQLCTUGMTDJKGZGGUUXYWUUVSWWLWRPPRYVQJEBPUFKQUOFB","optimalPurchaseTarget":-100,"optimalPurchaseTargetScore":-100,"availablePurchaseTargetList":[],"optimalSaleTarget":-100,"optimalSaleTargetScore":-100,"latitute":"52.299749","longitute":"-1.292520","amountDemanded":"6","pricePrefered":"15","distancePrefered":"14","energyTypePrefered":"4"},{"index":36,"seed":"LVJUWLIGHUGFCBYDUBWVUEAFUCGBDNDD9YKI9CGTIRGOKHKXMCBGRM9SWKBXERNHITUMTXPXOMGALANYQ","address":"IOCTDRJBAPWK9XGYIBUSRMGNCKNTIUJGKJWJGGWNKN9JBRZUUZKOYSVMFHJJZGSXBUBTC9CPTHMCYQKMW","optimalPurchaseTarget":-100,"optimalPurchaseTargetScore":-100,"availablePurchaseTargetList":[],"optimalSaleTarget":-100,"optimalSaleTargetScore":-100,"latitute":"52.419052","longitute":"-1.970921","amountDemanded":"4","pricePrefered":"15","distancePrefered":"10","energyTypePrefered":"3"},{"index":37,"seed":"SOWISDVJESADXMFMWY9LNSDBLLMFDFGMLHLABBGPTMACEOVIHUFBFPLJSBRDITTBRMWIHYAYJVHQ9GJTM","address":"9RLVTABWEPGLQWNKGCGMETBZPYFNPVLDP9LAMBAZHFYVXFAICIMIPFUEQYXMAJKBXZGOJHSWVBWU9ERKD","optimalPurchaseTarget":-100,"optimalPurchaseTargetScore":-100,"availablePurchaseTargetList":[],"optimalSaleTarget":-100,"optimalSaleTargetScore":-100,"latitute":"51.925867","longitute":"-1.830338","amountDemanded":"1","pricePrefered":"16","distancePrefered":"14","energyTypePrefered":"3"},{"index":38,"seed":"SIFRH9DNMQQHMKDFBXMXBAWGUDWVOKHQESNWTBBUYDRPRITLFCANJNQLGIWYOUAYK9EHMSXSDFE9CBGJB","address":"FARKTHZU9ALBTRLWQBIJLEPUQAP9CBZWWTLLB9RWWNMFOXGUXSUTZLJN9ABBUVHVHENBPBSYOONWGNDCD","optimalPurchaseTarget":-100,"optimalPurchaseTargetScore":-100,"availablePurchaseTargetList":[],"optimalSaleTarget":-100,"optimalSaleTargetScore":-100,"latitute":"52.061405","longitute":"-2.205762","amountDemanded":"4","pricePrefered":"16","distancePrefered":"14","energyTypePrefered":"1"},{"index":39,"seed":"KATPNCQBPDXV9V9XBSCKADSJGQGFDETMHCWXLJHNJTSNPKRQSKUBKMXQTTBTXEOBTPHJVMXAGEOGWIKMB","address":"PVMTW9AVBKDFIJNPZRIEAED9WDHDXTLKB9PUWORWQTHMRBWBBSKYIIBPAANXBKZXDTTGP9XRRWSGHYTYX","optimalPurchaseTarget":-100,"optimalPurchaseTargetScore":-100,"availablePurchaseTargetList":[],"optimalSaleTarget":-100,"optimalSaleTargetScore":-100,"latitute":"51.800526","longitute":"-1.878023","amountDemanded":"4","pricePrefered":"14","distancePrefered":"13","energyTypePrefered":"2"},{"index":40,"seed":"FWWYOCTBXMOCMXLFOGHYBUYVFGQLRJWMLWFTQWOVYGBBYMIURFOKXASUDBTWQUUEEUILQOMLVUXRYJXMK","address":"MLJJIYYZSNKLHW9FZXJURXNPWQSTEMNUZWKXZUGTXMFCEGXMZPRLCEEOL9GE9DEWITBWDXNPXTQMSHLM9","optimalPurchaseTarget":-100,"optimalPurchaseTargetScore":-100,"availablePurchaseTargetList":[],"optimalSaleTarget":-100,"optimalSaleTargetScore":-100,"latitute":"51.524611","longitute":"-1.959503","amountDemanded":"6","pricePrefered":"15","distancePrefered":"12","energyTypePrefered":"1"},{"index":41,"seed":"HIMNVO9OBJFIWKWAUIL9WHOWINFAYTSNDAYTUYC9LUJRLXOFNTX9O9JWYBFASFHNHNYEJ9U9QJNPMGFWR","address":"EIYKDWGLIVFYTIIGWHVLYCCGVFOBBLUXFQIXOZ99FGKRMCIOPEKTYMWKVZOEJBMILATBWCNZERTXWJLUW","optimalPurchaseTarget":-100,"optimalPurchaseTargetScore":-100,"availablePurchaseTargetList":[],"optimalSaleTarget":-100,"optimalSaleTargetScore":-100,"latitute":"51.496942","longitute":"-0.706368","amountDemanded":"6","pricePrefered":"16","distancePrefered":"12","energyTypePrefered":"2"},{"index":42,"seed":"TMPLGJPRPOCMHON9NTYDL9LXXSXSAESNEUQAEDUIDEDWMKNTIGUIWOEJOIXDHFOCWXEIJ9SFPLPFUMREA","address":"HXEECPV9QMMM9QLWFBAJMYYQHCSIJ9APUWSHHHIEAVIJDQOSDVHMZLDIDNAMLW9BYNKWCZGLTGORX9NHD","optimalPurchaseTarget":-100,"optimalPurchaseTargetScore":-100,"availablePurchaseTargetList":[],"optimalSaleTarget":-100,"optimalSaleTargetScore":-100,"latitute":"51.879367","longitute":"-1.591675","amountDemanded":"2","pricePrefered":"15","distancePrefered":"11","energyTypePrefered":"2"},{"index":43,"seed":"VKEHKIYXGTPNVYLTKAGAPOFVKTESOPHWVT9TCULFNIVOYVJGBQYQVYKHOW9LEDTCSIVCDFPWNHXXBISRF","address":"OQXMQJ9VJIXQJRTYYGXGCTDZF9NLHHKRLVWTHXMDCFZKHYYHZDUHNPGGFPGDUCGQCRZAWQHXTVXUDNISY","optimalPurchaseTarget":-100,"optimalPurchaseTargetScore":-100,"availablePurchaseTargetList":[],"optimalSaleTarget":-100,"optimalSaleTargetScore":-100,"latitute":"51.440680","longitute":"-0.695715","amountDemanded":"2","pricePrefered":"15","distancePrefered":"12","energyTypePrefered":"0"},{"index":44,"seed":"UUVNKJBXTYYERDWRERDUIDKIRNRNKJFOMMUJLY9IXCNSOBAFAYOPMNOSHPTSVRAQOULPIJYLLJJXG9YJR","address":"9CROYRUPUZGLIHTHJEMMMNHIGGWUCXRVWZLSERPSVQTLTNFFEUANURAZDBNYEGUPSNGEHSKI9OBS9ADUC","optimalPurchaseTarget":-100,"optimalPurchaseTargetScore":-100,"availablePurchaseTargetList":[],"optimalSaleTarget":-100,"optimalSaleTargetScore":-100,"latitute":"52.383091","longitute":"-2.316772","amountDemanded":"1","pricePrefered":"16","distancePrefered":"14","energyTypePrefered":"2"},{"index":45,"seed":"J9WOP9LYPIP9TREURWIBINRFSWONFYMAELU9SDKKEXMCRSSEIKITFJGAXUYEWHPUFRLPOXNNUYNUD9NBO","address":"WWRIAPUMBZAQUBUUY9RJRKMPRXYCUAX9TLYBICCPDBQDNJGAHBUPJTYQKMEITUELUEUFZLCBRIZUROZCA","optimalPurchaseTarget":-100,"optimalPurchaseTargetScore":-100,"availablePurchaseTargetList":[],"optimalSaleTarget":-100,"optimalSaleTargetScore":-100,"latitute":"52.236528","longitute":"-1.797425","amountDemanded":"3","pricePrefered":"16","distancePrefered":"14","energyTypePrefered":"2"},{"index":46,"seed":"XMEAMTBYIISJOXTMQRWHHTIBVLPJ9MAJORUDQYDTGBEOOOCLPBTRXWMRIJCFDWBYGMWDM9SNVQPB9DADD","address":"DE9NELUBHSZFZGLKDBUKWOSCGUKBURYFTHUZQWQPZRMGLYGDIQQEOWZYYOOIBLUMHPBNWZMNZKLHLGJIW","optimalPurchaseTarget":-100,"optimalPurchaseTargetScore":-100,"availablePurchaseTargetList":[],"optimalSaleTarget":-100,"optimalSaleTargetScore":-100,"latitute":"51.690706","longitute":"-0.862431","amountDemanded":"5","pricePrefered":"16","distancePrefered":"12","energyTypePrefered":"4"},{"index":47,"seed":"EJQQIMOEMXSPVMOOUDMBEOUYY99HPJPK9PPOFMORCQAFYWECTLUWR9AVTXQIIWBYSNRGWEQDESXGMMPXC","address":"OMCVITVFXNVSZATHR9NOWOYFL9LQFPLHDPZDDOEVRMYOTNFQJIYFTUPAPKFFEIPJHDYMPIBXGDFVVUPNB","optimalPurchaseTarget":-100,"optimalPurchaseTargetScore":-100,"availablePurchaseTargetList":[],"optimalSaleTarget":-100,"optimalSaleTargetScore":-100,"latitute":"51.939898","longitute":"-0.076926","amountDemanded":"2","pricePrefered":"15","distancePrefered":"12","energyTypePrefered":"0"},{"index":48,"seed":"VW9QM99WUHWXQA9IXTDDKKVBXNFTOPTMKVGBFOSXYJG9PEYSROGTLDHTNKFWBXLT9KV99WLRCRARMMKKD","address":"WGVRDDYHEJLTTOEHVPUDXPRSEFYOUEQUKJINKHNVBAHIJOYLPKXPMY9JIXQUVEHS9KQJHVGKOXTDGRIBX","optimalPurchaseTarget":-100,"optimalPurchaseTargetScore":-100,"availablePurchaseTargetList":[],"optimalSaleTarget":-100,"optimalSaleTargetScore":-100,"latitute":"51.667586","longitute":"-0.205033","amountDemanded":"2","pricePrefered":"14","distancePrefered":"12","energyTypePrefered":"3"},{"index":49,"seed":"RETCBXGO9LEMABIDIEVRTMAPPXCUMBLSUQHOUGNQMPLPIECXMJJBGTWGTEHWYOXIBSPOP9FKMSQVFGDGB","address":"LEXMWOLMHC9ONVVRRTRZZPQVKFTCESZKDUU9GISUAZZNQEYXTJRBWFRHMNWIBRVCCZBNMHDNFDJNRJHYC","optimalPurchaseTarget":-100,"optimalPurchaseTargetScore":-100,"availablePurchaseTargetList":[],"optimalSaleTarget":-100,"optimalSaleTargetScore":-100,"latitute":"51.822975","longitute":"-0.792799","amountDemanded":"5","pricePrefered":"15","distancePrefered":"14","energyTypePrefered":"2"},{"index":50,"seed":"LNKPCTTKRDULTUXGGT9SKTJAMWDWMANASHRVO9RXUVSSEL9JDPPGSDRKMORLRIVYGDGDFVYPITKSVG9FR","address":"RMBNUQEXPV9TCASPFIDAMEKJUGYGFDAESLWHYFHCFB9YURDCCRDFI9VCSSQBZXJ9ZDXGR9LEQXZHKDRIC","optimalPurchaseTarget":-100,"optimalPurchaseTargetScore":-100,"availablePurchaseTargetList":[],"optimalSaleTarget":-100,"optimalSaleTargetScore":-100,"latitute":"51.064732","longitute":"-0.807822","amountDemanded":"4","pricePrefered":"16","distancePrefered":"14","energyTypePrefered":"2"},{"index":51,"seed":"AKAJUUPTUYKJPIYVNGQT9ROVFBABVDHGGVOE9BFJW9XOHDMDALXJLNEBBFF9SPTEIJIXRSGAJNKQN9NDX","address":"DJZCWOYINNHGARINAVUMLVMLCOXKNRL9TRQZSGGICQJHKYWO9IXOKBXXUEDCZECGSOQC9DHCDDVHTMDZC","optimalPurchaseTarget":-100,"optimalPurchaseTargetScore":-100,"availablePurchaseTargetList":[],"optimalSaleTarget":-100,"optimalSaleTargetScore":-100,"latitute":"51.317757","longitute":"-1.519066","amountDemanded":"4","pricePrefered":"15","distancePrefered":"13","energyTypePrefered":"3"},{"index":52,"seed":"VKSSYAFOHVKYUPRDHQXMGBPPPUMXEVEMA9RXOWJHVIVUYUSHSOKDXJPMXMDKJQLUNKCHJJNOWLQWQFCLB","address":"AAPJZWZNHSBIMHTYYKLIEKLFWTLQKCVEVORGRUGGDKTOU9KDFNMNMYYEMHWPWFHMWTGLPIVCEAUKSCNGD","optimalPurchaseTarget":-100,"optimalPurchaseTargetScore":-100,"availablePurchaseTargetList":[],"optimalSaleTarget":-100,"optimalSaleTargetScore":-100,"latitute":"51.240216","longitute":"-1.373620","amountDemanded":"3","pricePrefered":"14","distancePrefered":"11","energyTypePrefered":"2"},{"index":53,"seed":"GR9WLHJLDFFN9I9EXSXLJYUNC9LWILMXUFQDICPILEBS9QSXJMGGAOORLEKCPLAEVJNI9ACAYSMEPCHKW","address":"AYVADNJNGXAGJJW9JQBAP9WAIONLJ9HP9UTCBKVGULQJLBWMSYIKTZUVOICANKBSI9AQOBZ9QSNMHSAQA","optimalPurchaseTarget":-100,"optimalPurchaseTargetScore":-100,"availablePurchaseTargetList":[],"optimalSaleTarget":-100,"optimalSaleTargetScore":-100,"latitute":"51.336576","longitute":"-1.959507","amountDemanded":"5","pricePrefered":"15","distancePrefered":"13","energyTypePrefered":"1"},{"index":54,"seed":"SPUDIGKMANITVUPCLBBXBEFLALUAFHSYVFGYTVUSAOVSIAOUJFQLNIJUQTTSQ9GIIVSPNKA9YAOQDJAOS","address":"9HIPVNVBRWEKNBARBALXXIHKT9ZWZQRSASQAPHIKHYHWVAKF9PVFGHULZ9KMIIQNJEBROWECRERGVVBZX","optimalPurchaseTarget":-100,"optimalPurchaseTargetScore":-100,"availablePurchaseTargetList":[],"optimalSaleTarget":-100,"optimalSaleTargetScore":-100,"latitute":"51.774304","longitute":"-0.591548","amountDemanded":"4","pricePrefered":"15","distancePrefered":"13","energyTypePrefered":"2"},{"index":55,"seed":"PFINHWSTKLKHWRPOLSXRXEII9QMUOHEHBPH9SAYQSGXNBCKLSYHITKJEPWAVDOJNTUDORBMACKGT9PLJF","address":"VLVUUPAFAFRHOGKDNXR9KWUAQWTIKDMGOYYFXLLBVY9TDEFOKERTMZYQGSGYVNIWVZIZPDBVBATYKVAJW","optimalPurchaseTarget":-100,"optimalPurchaseTargetScore":-100,"availablePurchaseTargetList":[],"optimalSaleTarget":-100,"optimalSaleTargetScore":-100,"latitute":"51.049190","longitute":"-0.761730","amountDemanded":"3","pricePrefered":"14","distancePrefered":"14","energyTypePrefered":"2"},{"index":56,"seed":"NGLCKLYY9NELKXINOVYHSGENKTPDYPXEGKWPGYNMYLYWIWIAHBNAKLWJLDLEBBJDOCKOYKVIMPKPKBQU9","address":"MIAVHCBXATIAXYGJRDBLKRPTZTURUL9WYEWCWUGNOOWTAKWYNIMUQRGXLLLMTWNTDJFHRZVBFNFXYTCEW","optimalPurchaseTarget":-100,"optimalPurchaseTargetScore":-100,"availablePurchaseTargetList":[],"optimalSaleTarget":-100,"optimalSaleTargetScore":-100,"latitute":"51.007306","longitute":"-0.429914","amountDemanded":"3","pricePrefered":"16","distancePrefered":"12","energyTypePrefered":"0"},{"index":57,"seed":"PWP9IHHKNQDOBSIIBATRGICVHRN9G9HGDJTTGKFOJTKTEBBMGPPQD9DUCFJBQWXBKNYMW9GFSBYQFALQX","address":"ODAKUMBLPHBMISJTTVZ9ZPPONDAJOJMCXXZMSYSUFJXTFORAGTICWNRN9PZCWSQZZMHAXPHCNMBYWX9PZ","optimalPurchaseTarget":-100,"optimalPurchaseTargetScore":-100,"availablePurchaseTargetList":[],"optimalSaleTarget":-100,"optimalSaleTargetScore":-100,"latitute":"51.776895","longitute":"-0.664464","amountDemanded":"4","pricePrefered":"16","distancePrefered":"15","energyTypePrefered":"4"},{"index":58,"seed":"YSOJAOWSOIQPOGQWAGYQD9LBJ9UN9A9SJ9KITYGSWUMT9HCPF9WCEOYIEMVEJKCDVGLANUODBFGLEDPOQ","address":"CTCY9GBWARJYSJOGJZLHXLAZKCDTUYBZS9TQSVHHKLVA9MJWNGKVL9WS9XDTQNATXPYKFL9YFLHPRBDA9","optimalPurchaseTarget":-100,"optimalPurchaseTargetScore":-100,"availablePurchaseTargetList":[],"optimalSaleTarget":-100,"optimalSaleTargetScore":-100,"latitute":"51.561355","longitute":"-1.081781","amountDemanded":"1","pricePrefered":"14","distancePrefered":"14","energyTypePrefered":"3"},{"index":59,"seed":"GYVPAECAUIWCSDHRUUDHTBKYHKGNKFNNGDDEGYYMFBRWXLEQLGNF9FJBPWAYRHDWBYKPBTQTK9QJUVURL","address":"GOOC9FGAKQQATJVKNCMVUZDTIZUKRIKXJ9GFMQPNSRXNCRLHA9KETMUFWWHIIPXWOCWXGNSNMWYZEAPTA","optimalPurchaseTarget":-100,"optimalPurchaseTargetScore":-100,"availablePurchaseTargetList":[],"optimalSaleTarget":-100,"optimalSaleTargetScore":-100,"latitute":"51.334770","longitute":"-0.631983","amountDemanded":"4","pricePrefered":"14","distancePrefered":"13","energyTypePrefered":"3"},{"index":60,"seed":"SYBKMIWYK9MTWR9TTSSANRHRJDNEKSFQRNTUEELOAQQMLJYKNSAWQNCNKYDMVUYJJPH9AEJIBXXLDJGQX","address":"NXCDOCHIXNKZNKZMUHGSOAXUGFODWLB9NCDVLLTDRWMXEINOKIZXSTSVMEGXXG9FAJVNVHIDCEMFKMVJA","optimalPurchaseTarget":-100,"optimalPurchaseTargetScore":-100,"availablePurchaseTargetList":[],"optimalSaleTarget":-100,"optimalSaleTargetScore":-100,"latitute":"52.104011","longitute":"-2.145291","amountDemanded":"5","pricePrefered":"14","distancePrefered":"14","energyTypePrefered":"4"},{"index":61,"seed":"ULTHFGXOBTMBBIWQT9AVSCBEWFYLGFEGRCOKSFGWHIUGIFSWFWNRDASASLXYDKCDYNN9KIROUEQETBAKY","address":"OGXXRPFAYMFHLEDPOXOJFMSLEWYU9MDSA9UWCMQNYGTBTFEJOJKYOIHAPJAXPZCBDEHRJTRLTIMHVSSSW","optimalPurchaseTarget":-100,"optimalPurchaseTargetScore":-100,"availablePurchaseTargetList":[],"optimalSaleTarget":-100,"optimalSaleTargetScore":-100,"latitute":"52.008617","longitute":"-1.778646","amountDemanded":"4","pricePrefered":"15","distancePrefered":"15","energyTypePrefered":"4"},{"index":62,"seed":"ID99PSAHR9YRWXYISYRRBVFPDUGDXFBASMXLOLGIFYR9YFFNTUMSPAIOKKMXEOUFPMEJU9MTOVWKHBAQM","address":"NHS9INAMCGRTVPZEYTDJFKXEDEURKUIJCSOV9UXWFBJLYKQBZOFCMIZBJDWSNIEDPJVPHAFVWY9LBWD9W","optimalPurchaseTarget":-100,"optimalPurchaseTargetScore":-100,"availablePurchaseTargetList":[],"optimalSaleTarget":-100,"optimalSaleTargetScore":-100,"latitute":"51.713929","longitute":"0.291295","amountDemanded":"5","pricePrefered":"15","distancePrefered":"14","energyTypePrefered":"3"},{"index":63,"seed":"NUNURCVAAXXHVEWEFSSJTARNXGIDQEHA9WSWJK9SVUFVJYMIFDBKHEUXGXYQSCBIUATF9VFOYUHOLSWIC","address":"ZADFPVNOEVKGUA9ISCDAQJFQCI9RMRHIZYUOXBQMR9FQPPKZYUOMUXESSTV9NTMF9UEJJWZHOGROJWPL9","optimalPurchaseTarget":-100,"optimalPurchaseTargetScore":-100,"availablePurchaseTargetList":[],"optimalSaleTarget":-100,"optimalSaleTargetScore":-100,"latitute":"50.959880","longitute":"-0.462761","amountDemanded":"2","pricePrefered":"16","distancePrefered":"13","energyTypePrefered":"3"},{"index":64,"seed":"HIKCAGJUBKQQAETTIUVDBOQAFKHOXREPGTGJLQNAUSAGUOAXW9BJACWHSRLPHOMSAEIEDKNOWVJLK9SYE","address":"RFOUDMPROYPQMB9ZX9DC9CSJYKHOARDSQUKFUZSEBWXUSIJFPBBMS9ENCPIKEMYGMSYBZHMOLVBJCVCKW","optimalPurchaseTarget":-100,"optimalPurchaseTargetScore":-100,"availablePurchaseTargetList":[],"optimalSaleTarget":-100,"optimalSaleTargetScore":-100,"latitute":"52.053423","longitute":"-0.742681","amountDemanded":"3","pricePrefered":"15","distancePrefered":"14","energyTypePrefered":"3"},{"index":65,"seed":"P9TUCCWXARDJBSSYLGCWIFHTVXOUFBOFQFA9KYNMUPD9EN9XGSDKK9OXUBAEHABYTICEWNITFT9DRSLBX","address":"ASOHAJWFAICPEPOGAJ9UIQCJRDTVMINHUCLEUVWRT9FXOGWNESLMKCGOTGCZUUOXITVMQMLWWSELBXBFY","optimalPurchaseTarget":-100,"optimalPurchaseTargetScore":-100,"availablePurchaseTargetList":[],"optimalSaleTarget":-100,"optimalSaleTargetScore":-100,"latitute":"52.155491","longitute":"-1.632654","amountDemanded":"3","pricePrefered":"16","distancePrefered":"12","energyTypePrefered":"4"},{"index":66,"seed":"UIUU9RLLTEPEUAAP9H9ORGIFSU9AACAAFYEQABXYDREGXUQBNDILTNSKSXCWMMSKNIUVSHXLNONIQJLW9","address":"NQPEHEWNAVSLJKGVERUGKLBLDFYXNLBOTPQJXKJJWBQOVSUUTOD9WEUCFSVYMUORUUXJQKTAPMUFDPEQW","optimalPurchaseTarget":-100,"optimalPurchaseTargetScore":-100,"availablePurchaseTargetList":[],"optimalSaleTarget":-100,"optimalSaleTargetScore":-100,"latitute":"51.808012","longitute":"0.002476","amountDemanded":"5","pricePrefered":"15","distancePrefered":"14","energyTypePrefered":"2"},{"index":67,"seed":"KEL9QYRVLOMDWMNJNGLJWLWHXOWUJQYEPEOBJUOBT9QXKDXUQDYOWSPSLQLVJBKJUHL9LPRQYGNWHFFWB","address":"LOAGFSDEQDTXTIO9ZIUNK9UMOUCAKXZDDZPUSBDDHLXESSFEMZZOYMPBXSIXSPUZCZTXJQGYBSHOPXEPB","optimalPurchaseTarget":-100,"optimalPurchaseTargetScore":-100,"availablePurchaseTargetList":[],"optimalSaleTarget":-100,"optimalSaleTargetScore":-100,"latitute":"52.279756","longitute":"-1.557450","amountDemanded":"2","pricePrefered":"14","distancePrefered":"12","energyTypePrefered":"0"},{"index":68,"seed":"HRNUYKSKCPWCEAXWNSDYWPOVRORPLCVUCKBVVQDSQGYCSFQBDC9UL9HYQUMSLV9FMS99KTBRTCEFLJWRB","address":"TGFFURSCREXHQNTREHNAGDITWTIYUGKVQCNYAZTJNAU9OPKMOIKNJMYOTQJXMUEEANALA9VTHCVWMUFGZ","optimalPurchaseTarget":-100,"optimalPurchaseTargetScore":-100,"availablePurchaseTargetList":[],"optimalSaleTarget":-100,"optimalSaleTargetScore":-100,"latitute":"50.980943","longitute":"-0.886254","amountDemanded":"1","pricePrefered":"15","distancePrefered":"14","energyTypePrefered":"0"},{"index":69,"seed":"SICWBXYMDRELSMCJ9PMCPVWSVTJFFJOXPXUDDMXHSBPUMWAAYFBMYF9RR9OVGLTV9HND9UYJGFCWKKGOV","address":"UFEQNYPCHTKNLZRSYHZQTDGRYY9PSUYTUBUUXIOZVBMKN99AXTGZTHOSC9DBJ99PKMIDT9FOIINDWC9WB","optimalPurchaseTarget":-100,"optimalPurchaseTargetScore":-100,"availablePurchaseTargetList":[],"optimalSaleTarget":-100,"optimalSaleTargetScore":-100,"latitute":"51.674834","longitute":"-1.941225","amountDemanded":"2","pricePrefered":"15","distancePrefered":"14","energyTypePrefered":"0"},{"index":70,"seed":"QONLKTQVOJFSGLCKOIWDERBQBY9GRRRWCPMKIUWX9JKQSGIXKSAYPLRCKTONT9PCIOERVKPBTWWGTWMXC","address":"PFCUWUKUW9CTDEUVTAHWJTIRZPIVXP9IWNQGQVEQEVCVVMTPQDUMYBRZSNKZPQMVIGRVTHTRKRGYSSIJD","optimalPurchaseTarget":-100,"optimalPurchaseTargetScore":-100,"availablePurchaseTargetList":[],"optimalSaleTarget":-100,"optimalSaleTargetScore":-100,"latitute":"51.895112","longitute":"-0.625058","amountDemanded":"4","pricePrefered":"15","distancePrefered":"11","energyTypePrefered":"3"},{"index":71,"seed":"UFRGNXQ9WWFNVXFJFXPTQY9DAVQMHVBDO9VHDBMDOMARFSYQ9KMHHYTWVHCS9PTLKTLSCJVYPOOELOUQK","address":"QIWWWNOVQPHQHWOSIDYMIOKH9XONUZBMRCPWJSYANAUTH9NGYLDQIEELQAHIXUAF9X9ZWU9PCVROJVMFW","optimalPurchaseTarget":-100,"optimalPurchaseTargetScore":-100,"availablePurchaseTargetList":[],"optimalSaleTarget":-100,"optimalSaleTargetScore":-100,"latitute":"51.330903","longitute":"-0.710738","amountDemanded":"1","pricePrefered":"16","distancePrefered":"10","energyTypePrefered":"0"},{"index":72,"seed":"VSAVTWTBNRKDJGXGSYJCWKIFFPEEYCOKOKVBEHLFNIURQYWXXRBKPLMOUGTBSHRVDMRAWIDRHW9BRRKSG","address":"WAXV9JVHTJFXHRG9NVOAAZJJWVSCIAABXIAISCGWVOKIVTZRVJGGOLDOMJLPTPXSRFAU9UWKXAUTC9JDW","optimalPurchaseTarget":-100,"optimalPurchaseTargetScore":-100,"availablePurchaseTargetList":[],"optimalSaleTarget":-100,"optimalSaleTargetScore":-100,"latitute":"51.437018","longitute":"-0.877104","amountDemanded":"3","pricePrefered":"14","distancePrefered":"11","energyTypePrefered":"1"},{"index":73,"seed":"YCCYPXSEMQDLLDWELFBVWXXIREF9VTIHPTRYFMVBNHOLXJBDJ9I9FHBTAOWHGJVQVVKJKEHA99KE9UCFH","address":"BSHLGOORSOWSAYZOUJOOFYTUVTVIIASNPHZAPKITYXTCXABVVIOWTJHIPIN9UKAWXKEPTTPCWNRKEBBKY","optimalPurchaseTarget":-100,"optimalPurchaseTargetScore":-100,"availablePurchaseTargetList":[],"optimalSaleTarget":-100,"optimalSaleTargetScore":-100,"latitute":"51.078247","longitute":"0.139206","amountDemanded":"2","pricePrefered":"15","distancePrefered":"13","energyTypePrefered":"2"},{"index":74,"seed":"YXUJAT9KDSESIVQHDULMHNNOKEBXANCUQTIXIHRB9GBDHIQTFYHDPVRALBFILIBLSVUVSQERAVVQBTQYG","address":"IGJZEQFERKVDPJPAO9HWOGYABXMOOJBMEWNM9RWGX9LHUKEERGPFEKXN99PBFHXCVHEVIMYVYZEWZKIKD","optimalPurchaseTarget":-100,"optimalPurchaseTargetScore":-100,"availablePurchaseTargetList":[],"optimalSaleTarget":-100,"optimalSaleTargetScore":-100,"latitute":"51.680145","longitute":"-1.278353","amountDemanded":"3","pricePrefered":"15","distancePrefered":"10","energyTypePrefered":"2"},{"index":75,"seed":"BKGXVHWGMYUVSEVIIHXAMIXRLHXLULKIWWVQKGFNHLTKIOPGDNRWLTIVHCUVHOOWHHR9SFJGVWUXLAQHL","address":"CMAMUJUPDMCLOWFDTLGE9YNJIBRPT9BJVMKEAKEUBKMORJBPXOTRR9EXDJNYYRXKNFJSKWQAOEZ9IOSCZ","optimalPurchaseTarget":-100,"optimalPurchaseTargetScore":-100,"availablePurchaseTargetList":[],"optimalSaleTarget":-100,"optimalSaleTargetScore":-100,"latitute":"52.364425","longitute":"-0.858548","amountDemanded":"4","pricePrefered":"16","distancePrefered":"15","energyTypePrefered":"1"},{"index":76,"seed":"QXCQRD9JKBDEMFQWSSUBX9EY9LNSWVNMLIEXPHILRWMRAVGFKDJIBRRRTN9OTSATGHVVUEVTIOSTANLAB","address":"VWANMSNDYOPSDRHY9BUQAWBZRMRXFHUMDKJFWKEN9QNNE9IDIRTELHFDBPWJODADHCNKKXEMU9LPCOOUD","optimalPurchaseTarget":-100,"optimalPurchaseTargetScore":-100,"availablePurchaseTargetList":[],"optimalSaleTarget":-100,"optimalSaleTargetScore":-100,"latitute":"51.932068","longitute":"-0.116041","amountDemanded":"5","pricePrefered":"14","distancePrefered":"12","energyTypePrefered":"2"},{"index":77,"seed":"CFPUXIRQRSGQEHETWUHNSDXEOAKTAYPDIWYNXJUQYWYQWXFYTQBVDRGNKRARXIUEVQBIFMTMT9LHAXECD","address":"NIZSYHCRBXYRGJOKFNVAW9XYOIUFLJWMB9WNYVDHPZSOK99ROOWAJLO9ERQDI9VRZYLVKNEKSHMWRFJMX","optimalPurchaseTarget":-100,"optimalPurchaseTargetScore":-100,"availablePurchaseTargetList":[],"optimalSaleTarget":-100,"optimalSaleTargetScore":-100,"latitute":"51.636070","longitute":"-1.302189","amountDemanded":"5","pricePrefered":"15","distancePrefered":"12","energyTypePrefered":"3"},{"index":78,"seed":"9BW9XNWHTFHWWFUWYUWMQADU9C9VSOPBAVTAUTXSMDS9FMMMMSLNCXAGA9DLG9DURORXR9IGVGRNMRFAF","address":"MNFPMLXNBEQJFCEZHOGIIFYOBRHKZQ9P9UZFHRBHIGGBBKGBOJDRG9JDUVTWWQYXVGNUQVBUTDWZXOMB9","optimalPurchaseTarget":-100,"optimalPurchaseTargetScore":-100,"availablePurchaseTargetList":[],"optimalSaleTarget":-100,"optimalSaleTargetScore":-100,"latitute":"51.565646","longitute":"0.256578","amountDemanded":"4","pricePrefered":"15","distancePrefered":"14","energyTypePrefered":"3"},{"index":79,"seed":"YQCSSIOUSFFSKHRHHDWIPGMXUEQYWUHKT99V9ENFGJWWVQPYJQPQRNFPNXHSNFPYASGLTQLGKWGQGVRJE","address":"JCTGBUMETEHHRVWF9JAOFWUILPBTCWXZZICWWURJIUUEPYQRLQZJAZCAQZORTHFDBQLECDLA9LPTDJCR9","optimalPurchaseTarget":-100,"optimalPurchaseTargetScore":-100,"availablePurchaseTargetList":[],"optimalSaleTarget":-100,"optimalSaleTargetScore":-100,"latitute":"51.692762","longitute":"-0.077286","amountDemanded":"1","pricePrefered":"15","distancePrefered":"13","energyTypePrefered":"1"},{"index":80,"seed":"HYQEPDKLGPTISECTMDNHKRRUYVUYBMELGAQWHLQJYIVGQHATJLONCGTMBE9SUGCJQM9OBXTPPGOYLTIWU","address":"XEUPOZTFMRLUEVQCHH9HPZHFYWC9PJUCSPKRFAOUGLFIWFZWCSDGFNXURHSQJOXSFRBOZEXGKYHXQQBWB","optimalPurchaseTarget":-100,"optimalPurchaseTargetScore":-100,"availablePurchaseTargetList":[],"optimalSaleTarget":-100,"optimalSaleTargetScore":-100,"latitute":"51.362515","longitute":"-2.168772","amountDemanded":"1","pricePrefered":"15","distancePrefered":"12","energyTypePrefered":"3"},{"index":81,"seed":"VGSVEUAALHYNERG9WMAHABIHP9VSJEIBE9EXQEK9TKCXUFPQMJAHQKBV9HJHYCIOPRLJJPT9PGYGGEMVC","address":"VJJNHZIYZLKFJRYPTRGR9WAHFMCDHKGUIHAGMONH9FVSVEXWSAAPISYVLFAKMIEFNKYGPWTUJTBLBSKIW","optimalPurchaseTarget":-100,"optimalPurchaseTargetScore":-100,"availablePurchaseTargetList":[],"optimalSaleTarget":-100,"optimalSaleTargetScore":-100,"latitute":"51.264133","longitute":"-0.416060","amountDemanded":"1","pricePrefered":"14","distancePrefered":"14","energyTypePrefered":"0"},{"index":82,"seed":"EDGW9YB9LFHTDTJNFKDMNGLCTEPMXPONCQAOJVWXDTPCFEVKAUNDCCPCCQFWMWKWFVMXNOUKEJJELDCWH","address":"XBABNCMQPGJSVUSXNKXK9QQQTKPLDRVKLHJJH9ZSWLTTILFFCMSZVOSCNWFETHPQZ9AITHUGLIC9S9LWD","optimalPurchaseTarget":-100,"optimalPurchaseTargetScore":-100,"availablePurchaseTargetList":[],"optimalSaleTarget":-100,"optimalSaleTargetScore":-100,"latitute":"51.373842","longitute":"0.080277","amountDemanded":"5","pricePrefered":"14","distancePrefered":"14","energyTypePrefered":"1"},{"index":83,"seed":"JEGIGSLNGYSSWVLHBCTDGLUK9XRRSPLKFCLBCJ9SDAGOC9AORLAYDDIEIGBU99CVOAVAYPBWNSQYALLJS","address":"IVXYKQWVQTNZALTAALSJHMVVLQKSGVRUMUEDZHTDGEFZFLHKIC9CMRUXOANJAWNTG9JCXNZUZMNCPFPQW","optimalPurchaseTarget":-100,"optimalPurchaseTargetScore":-100,"availablePurchaseTargetList":[],"optimalSaleTarget":-100,"optimalSaleTargetScore":-100,"latitute":"51.148686","longitute":"-0.038088","amountDemanded":"2","pricePrefered":"14","distancePrefered":"13","energyTypePrefered":"2"},{"index":84,"seed":"TEKUDMAVXQNR9QPBLAEDSGSOSMPQQKMABUWFESTWENUPFVJYFDJLEJAWJ9TWRVMS9UAQEXPGPTXJRYXD9","address":"HMBWQPT9XQGDNOZOTCIBSCISXBJDWYLJJJZYSDMIUFALHTRSUWVWGSMXS9LPCEILISWLXJYRWPMUSLNDD","optimalPurchaseTarget":-100,"optimalPurchaseTargetScore":-100,"availablePurchaseTargetList":[],"optimalSaleTarget":-100,"optimalSaleTargetScore":-100,"latitute":"50.985201","longitute":"-1.602953","amountDemanded":"1","pricePrefered":"15","distancePrefered":"14","energyTypePrefered":"1"},{"index":85,"seed":"HCJFRARALUUBGKKSGGMOHFJOVAQLNIIMXTXUTGAPNEGL9DSMYTOCNXHTCFTNGLQDVPVMJMCXQDGORBCFM","address":"XUUWZQPGCZFVZ99YLGSFBCVYLZJCKZ9IDTLLRYOHHBTZEXRFA9JPFIM9FMLOSZHRMSAWPNOLQWVOXFKQW","optimalPurchaseTarget":-100,"optimalPurchaseTargetScore":-100,"availablePurchaseTargetList":[],"optimalSaleTarget":-100,"optimalSaleTargetScore":-100,"latitute":"51.146309","longitute":"-0.798901","amountDemanded":"3","pricePrefered":"16","distancePrefered":"12","energyTypePrefered":"4"},{"index":86,"seed":"MKOKVBNUBNPTUHIMLIYXPIOPRWQAHGMYM9S9DTWDWPOIOXXWMMQWMEHTKFRNUIRCFKFC9IJTGUNCEARCT","address":"ONAJAUZPVAQZEDPYAEDCOSKMYMFWFNFYV9DSSCCJEKVN9KNZLPZBDTJRLUVUEOQVE9XUV9DDBNUUJESL9","optimalPurchaseTarget":-100,"optimalPurchaseTargetScore":-100,"availablePurchaseTargetList":[],"optimalSaleTarget":-100,"optimalSaleTargetScore":-100,"latitute":"51.556809","longitute":"-1.151232","amountDemanded":"3","pricePrefered":"15","distancePrefered":"12","energyTypePrefered":"1"},{"index":87,"seed":"CDHWJWACIKEJCYQCEAIBKPTWYQFTMXUYIKVGQNQILQCHEEHNJXDVHBSGFNGOIMI9PGIDUHAEETKGSXKST","address":"YHIXRAUYZXXDGTKIVTBLJLHVCHI9ZPLRENJESFURYBJESCFELQJVDISLUBPFM9VJFIXETLWZQCDFSMYJD","optimalPurchaseTarget":-100,"optimalPurchaseTargetScore":-100,"availablePurchaseTargetList":[],"optimalSaleTarget":-100,"optimalSaleTargetScore":-100,"latitute":"52.318551","longitute":"-1.525054","amountDemanded":"1","pricePrefered":"15","distancePrefered":"11","energyTypePrefered":"4"},{"index":88,"seed":"JEEVWPNMIHNFSTUEBUFKAFOLOFYLQUTNDOPCNCUH9JEGSXSUPAHGMMMDLGHDJOOMK9FQIIKQYJKMXYLBH","address":"ZVRIOGZSUACCDVTCUFBOFBGEYPOOVX9INMUGJWOJEMMPQJURUXHIULMLPUQBFBZREYKXZPHJEFGLUXMTB","optimalPurchaseTarget":-100,"optimalPurchaseTargetScore":-100,"availablePurchaseTargetList":[],"optimalSaleTarget":-100,"optimalSaleTargetScore":-100,"latitute":"52.208142","longitute":"-0.646237","amountDemanded":"6","pricePrefered":"15","distancePrefered":"12","energyTypePrefered":"1"},{"index":89,"seed":"GTRNUNJPKBITHDHIIBPPUCLMWKMRFMWTULFTYWCFGJFBR9KGPWCC9GGOLAAUPJOMWLOXSIVCUKHOSMOUM","address":"BKYSHZJRXFAUGVKYQFFUAKGVKLHAUOPGGSDQMNKNHRCNOMW9EUTF9EDDYEGALRHXVTJ9KICFXSBXAWTPC","optimalPurchaseTarget":-100,"optimalPurchaseTargetScore":-100,"availablePurchaseTargetList":[],"optimalSaleTarget":-100,"optimalSaleTargetScore":-100,"latitute":"51.769114","longitute":"-1.735737","amountDemanded":"4","pricePrefered":"15","distancePrefered":"12","energyTypePrefered":"2"},{"index":90,"seed":"M9AULDCWWJPXCC9SBDJF9AJECYPDE9AJSSTIAWIVXAYGBPAVNRQTFEOHTUGBCLJRLBVJTXNLQANINSEDX","address":"VCWPFOUTDCXRPWSP9OBTBODMYMFPS9MEZBPWRPIYVDDDZZ9AQVEIVVBQRPNFXUTNPAIZSFDH9BEILLUFW","optimalPurchaseTarget":-100,"optimalPurchaseTargetScore":-100,"availablePurchaseTargetList":[],"optimalSaleTarget":-100,"optimalSaleTargetScore":-100,"latitute":"51.431106","longitute":"-2.377653","amountDemanded":"3","pricePrefered":"15","distancePrefered":"11","energyTypePrefered":"4"},{"index":91,"seed":"FJMYYLCQBNIOSWQJGIVDDXGOMMKEJRJREQADJPYLECEPEXCMOTRRYIPCVMWKAFMVRGBWGJAQNYNHJTJJJ","address":"CJAOOLVHVF9IOISTGMIHPGGMQ9ZOGOFHVIIPZMJ9SUGMOFYSLUWHABSCJLADTJNZZBMHMREAFRZKWAOWY","optimalPurchaseTarget":-100,"optimalPurchaseTargetScore":-100,"availablePurchaseTargetList":[],"optimalSaleTarget":-100,"optimalSaleTargetScore":-100,"latitute":"51.956884","longitute":"-0.735317","amountDemanded":"4","pricePrefered":"15","distancePrefered":"14","energyTypePrefered":"2"},{"index":92,"seed":"IFWWWQSAASLGWMFRPQSNXLECMO9UDAKNRIE9NNSYF9SVAEFEIUXBOWXWCCRIHKKHA9OCJFUOIERMWEXJM","address":"WDEFNPROCUYEANRTKGT99PNXLHVBKJHYLXOHGVESPDTPUOPVJVPLSGUEGGHKAXUUQFUAUFVPHOJSGFBTZ","optimalPurchaseTarget":-100,"optimalPurchaseTargetScore":-100,"availablePurchaseTargetList":[],"optimalSaleTarget":-100,"optimalSaleTargetScore":-100,"latitute":"52.309776","longitute":"-0.867339","amountDemanded":"1","pricePrefered":"15","distancePrefered":"15","energyTypePrefered":"1"},{"index":93,"seed":"MKWTCVPHYXB9GDQKCXJTCSGUMKL9YYN9HPIRBLEXWAEMPIBEQIJ99QFG9VLYTQOR9ETYFOFYMOHJFJMMK","address":"RIJHXJNOMQWMCXRTHFKHYGVGGKURZAXSBRNMPNHDXMTOZXGRCAFJXFXYNNJXQRFHGKLXJQVJRMSRFHPJ9","optimalPurchaseTarget":-100,"optimalPurchaseTargetScore":-100,"availablePurchaseTargetList":[],"optimalSaleTarget":-100,"optimalSaleTargetScore":-100,"latitute":"51.473411","longitute":"-1.346415","amountDemanded":"6","pricePrefered":"15","distancePrefered":"13","energyTypePrefered":"1"},{"index":94,"seed":"9TVQDKKWQFGEGNAQAKENLIUJGVMAMB9IIFYWBLSIFIMEWAIGMWAMD9GCAWHEEDABDUMSOWKQAIVLIGNIS","address":"GQMLMYCCYUQO9G9RHPERDAPJFYSI9ZOETPRAI9KPLCIUQEKEPLTLPLIX9UMXMYN9MIHCFFEGMPBTHZGXX","optimalPurchaseTarget":-100,"optimalPurchaseTargetScore":-100,"availablePurchaseTargetList":[],"optimalSaleTarget":-100,"optimalSaleTargetScore":-100,"latitute":"51.622677","longitute":"-1.142907","amountDemanded":"6","pricePrefered":"16","distancePrefered":"13","energyTypePrefered":"0"},{"index":95,"seed":"SMNRY9VDSBAUUOFRUIBSOIQFCHNPASYYTJGIGSLFHRBXPPEXXHCSIPWWERJACKTLXEAVDKMJMVQWWEOUM","address":"CLXIRDUWINFWVAFFYN9JQPFIBV9DWJEUSQT9ZMFIRSCT9XPQFRDXQROTGTOYKPCOPMUGIROOFQWQMXCEW","optimalPurchaseTarget":-100,"optimalPurchaseTargetScore":-100,"availablePurchaseTargetList":[],"optimalSaleTarget":-100,"optimalSaleTargetScore":-100,"latitute":"51.606665","longitute":"-2.021401","amountDemanded":"6","pricePrefered":"15","distancePrefered":"13","energyTypePrefered":"3"},{"index":96,"seed":"XFLIM9NMXMAJFWXQHCYDXLQHXQHH9JQFMLNGHGCIUJIRUNPMVGKGXA9UKORXJBHORYRF9OIWJLFSRSCWD","address":"FWPRY9FDFBNOOVOO9LXTZKMYUMTGHXKKCJWBXDV9MAICPGWESRFVQAOVZNVDJHCAYXHUWVTQRTKXFCAUC","optimalPurchaseTarget":-100,"optimalPurchaseTargetScore":-100,"availablePurchaseTargetList":[],"optimalSaleTarget":-100,"optimalSaleTargetScore":-100,"latitute":"52.226278","longitute":"-1.260980","amountDemanded":"1","pricePrefered":"14","distancePrefered":"13","energyTypePrefered":"1"},{"index":97,"seed":"NTXFGPDRMRSMICVROXHJXIMIWFCEDOVXTBN9ULEG99FRUVVREDP9RYFX9OONUGRLYTWUOEHLLHYSHWGNT","address":"HZGB9NGJJSBWXZNBY9ENXBSRJLLBYLH9IGTXKQQQGBPOYTLOUIKKP9EGBBZBOGQTD9OJFXGGRYRLMFFND","optimalPurchaseTarget":-100,"optimalPurchaseTargetScore":-100,"availablePurchaseTargetList":[],"optimalSaleTarget":-100,"optimalSaleTargetScore":-100,"latitute":"51.546837","longitute":"-2.222364","amountDemanded":"1","pricePrefered":"14","distancePrefered":"13","energyTypePrefered":"3"},{"index":98,"seed":"BJDHVFOJLFHVRAUKPNKPFUKGRDIEANSGTSOJEIGDSJJXNCUJRXGODJ9PFQCHIWQSUKACBLGUWLYJHAEMV","address":"9ZDOAJGCTAUVDPHLQEOLVRTSBRCPSIARBH9FFHG9CIXTEZO9KIJPGRKGLFNGYCOXVERYIOBPDYCUOEHID","optimalPurchaseTarget":-100,"optimalPurchaseTargetScore":-100,"availablePurchaseTargetList":[],"optimalSaleTarget":-100,"optimalSaleTargetScore":-100,"latitute":"51.303189","longitute":"-1.562425","amountDemanded":"6","pricePrefered":"14","distancePrefered":"11","energyTypePrefered":"1"},{"index":99,"seed":"RGMXEVVSDK9HIXEEDJJKBRMCJFXAPDWYUDRSTEJSMROQAUMRICKNCNGHOXEPPMCOUPEVYBSNFJJWLBHNC","address":"SEFRDU9PTDNWWNCUGCBDUIHTDEEBY9HJAYQBPAQFKVPC9FLFPWSUHPTKFGTWJNLPXKJ9BUQYQPXDQEMJB","optimalPurchaseTarget":-100,"optimalPurchaseTargetScore":-100,"availablePurchaseTargetList":[],"optimalSaleTarget":-100,"optimalSaleTargetScore":-100,"latitute":"51.938161","longitute":"-1.174450","amountDemanded":"5","pricePrefered":"15","distancePrefered":"12","energyTypePrefered":"3"},{"index":100,"seed":"FCUOGTGIOPRAGVMIAAXUNHFBLTDFCGMMEHDHELRBWUPXJMSEUQOXOAADDBHIFHODRASNPVJFRXXVHVVPN","address":"LXKDOJSNSHOEHPOQHDMQQADMSBAOXRTVRSWDEKTOMOCEYTLE9TZOKPLKESIWAEFGYZUQODCBXTETODEY9","optimalPurchaseTarget":-100,"optimalPurchaseTargetScore":-100,"availablePurchaseTargetList":[],"optimalSaleTarget":-100,"optimalSaleTargetScore":-100,"latitute":"51.984473","longitute":"-1.450279","amountDemanded":"3","pricePrefered":"15","distancePrefered":"12","energyTypePrefered":"3"},{"index":101,"seed":"SOSBDRO9LOIIHRAKSYYHXSOF9RKYPYUWAAGSMBDKRIFYDTCEWENVOMLJRRKSUGUXIDOCPGYYQWLE9JPAS","address":"LLLUQSFXPTOLIPFWZXVUOX9JMHRTAJLMDPW9VRMJQVYCNQJMUFVOBPANQY9NAYOHQT9DTEKWNUSDZDEOY","optimalPurchaseTarget":-100,"optimalPurchaseTargetScore":-100,"availablePurchaseTargetList":[],"optimalSaleTarget":-100,"optimalSaleTargetScore":-100,"latitute":"51.654127","longitute":"-0.024775","amountDemanded":"4","pricePrefered":"15","distancePrefered":"13","energyTypePrefered":"0"},{"index":102,"seed":"YNSUATNTWKUUQHEFFXGQYKGGJTQFRBPFSKRYESEXGAEYWLCSAAFYQKSBKSRK9JAWOIGVRVHMSOJRFSROK","address":"XIOSJVELYDXHCVPYDNJLMHPXPFYEVDPZLFFZ9ZR9KQQSCJCUHFDJMGBJPKTNEBGYBDCHBSVO99GAUEOZW","optimalPurchaseTarget":-100,"optimalPurchaseTargetScore":-100,"availablePurchaseTargetList":[],"optimalSaleTarget":-100,"optimalSaleTargetScore":-100,"latitute":"51.150359","longitute":"-0.708862","amountDemanded":"4","pricePrefered":"15","distancePrefered":"11","energyTypePrefered":"4"},{"index":103,"seed":"QJWAIYIBPNQCWQIIIMDNQINRIRDRMXSJERRTUFIXLYPJLQCCTGEMWBWPHBHWJTTXUBCKRMINGQQOICF9W","address":"EP99FAJWMVMTYXVVOGPNYJHUGGQGKGCREVOCAVGNPFMFLEMFZSUPATDXVTOZNR9PAENXRXEZFJSJXRBPD","optimalPurchaseTarget":-100,"optimalPurchaseTargetScore":-100,"availablePurchaseTargetList":[],"optimalSaleTarget":-100,"optimalSaleTargetScore":-100,"latitute":"51.002087","longitute":"0.124276","amountDemanded":"6","pricePrefered":"15","distancePrefered":"14","energyTypePrefered":"0"},{"index":104,"seed":"VIQSQYAMJORRPBDV9NOUNCUIRGUOJWGYOYYKHBMLGRF9YJSEKSDLVFQFTTRDYEVRCWNAPFYGUVNGHXXSJ","address":"HVNADVPQPVKCILTVONBIMBLRIQBL9HOSNIEJHFEWKSJSKJHEPTQTXAQWEJVKCORK9TFMCFJRGRDZNCFZX","optimalPurchaseTarget":-100,"optimalPurchaseTargetScore":-100,"availablePurchaseTargetList":[],"optimalSaleTarget":-100,"optimalSaleTargetScore":-100,"latitute":"52.122369","longitute":"0.026473","amountDemanded":"5","pricePrefered":"16","distancePrefered":"14","energyTypePrefered":"3"},{"index":105,"seed":"IRLSHXKYNSMAMQS9XYCATHURNJFJNJXTNNVKCTIESASCHPVYWURYY9DVPBKXY9JMQYLKBGQTXIYTHFMPK","address":"TGUAAVFUTZDSOLQQVGRPCFXNOZFXGKVGSJYPQCIDISBIIIOUQJEGAJJLGQWRSDTXLWAHJDWOXHJNBNXJA","optimalPurchaseTarget":-100,"optimalPurchaseTargetScore":-100,"availablePurchaseTargetList":[],"optimalSaleTarget":-100,"optimalSaleTargetScore":-100,"latitute":"51.457210","longitute":"-1.506749","amountDemanded":"3","pricePrefered":"16","distancePrefered":"12","energyTypePrefered":"3"},{"index":106,"seed":"DJKNHELNF9RUULIQOGFRDOQ9XAETLHQBQFPWDS9OMLOGVRKOBNKGUQSMM9GXLXIAJFOWA9LHRNUU9VVSC","address":"RFUVQIZWCVBZPPEEVXNT9VURYRBKFXVYVOWOILMDRSGC9KWREUDPPVEAJHFNDXURKWDHFUYUDUTEUMI9W","optimalPurchaseTarget":-100,"optimalPurchaseTargetScore":-100,"availablePurchaseTargetList":[],"optimalSaleTarget":-100,"optimalSaleTargetScore":-100,"latitute":"52.329906","longitute":"-0.415029","amountDemanded":"5","pricePrefered":"15","distancePrefered":"10","energyTypePrefered":"4"},{"index":107,"seed":"GXSERFUDEJCH9UIY9BKAIHWBGGCJCWEEURRMAWXKBLIPXGHBWRLQF9BIGOTHGMDEAAMQAGROKMGLLKWKV","address":"QMSJBGGZUNGATYJNPSQODEBHKFMBRATYNJMTQSRUVHIJJHUCXPYXRCZZCXTNCHFFOPIBKSARYIRF9YHCD","optimalPurchaseTarget":-100,"optimalPurchaseTargetScore":-100,"availablePurchaseTargetList":[],"optimalSaleTarget":-100,"optimalSaleTargetScore":-100,"latitute":"51.778663","longitute":"-2.183164","amountDemanded":"3","pricePrefered":"16","distancePrefered":"15","energyTypePrefered":"3"},{"index":108,"seed":"LGKSNEUNRSBLBAJRKBHFTLFXV9LDUWURSIQKJBDFIDKAJWBRWKWDBPDWLUXTKMC9E9CDJGMBF9APPMSFU","address":"IWAPIHKHLUERMQSCJYYVYQGNNAVASQEGELLLPJOMALOTT9FWXMVBXUGYDTWAPLWASGYLXDPKBXASINOOX","optimalPurchaseTarget":-100,"optimalPurchaseTargetScore":-100,"availablePurchaseTargetList":[],"optimalSaleTarget":-100,"optimalSaleTargetScore":-100,"latitute":"51.174276","longitute":"-1.024538","amountDemanded":"2","pricePrefered":"14","distancePrefered":"11","energyTypePrefered":"3"},{"index":109,"seed":"BFXVRVPSWXYLYYPFPXUWFCTVNEMA9SRVONJNSWXEJYBUBMNKPROOOSBMMJ9SJOAYHJSSVGUHLCDTNEJ9V","address":"TEAPLWCX9DWRVEESFCZLBTYZHWGRI9XCE9KKOEYLBHLAGQMNQQVBFOJSWKUOLZGBXA9JMQNVWHTWDCDYX","optimalPurchaseTarget":-100,"optimalPurchaseTargetScore":-100,"availablePurchaseTargetList":[],"optimalSaleTarget":-100,"optimalSaleTargetScore":-100,"latitute":"51.986074","longitute":"0.022482","amountDemanded":"3","pricePrefered":"15","distancePrefered":"14","energyTypePrefered":"1"},{"index":110,"seed":"9QQAXVDQUXVPKDYBUYDVTXSWECBLNPIALUQGSIMIHQ9ADGRASQAGTHYCCCKWYTWDAXDSNABHAGWXGKHKB","address":"LX9MSEPINJLXYFXGWROXDQLMBDFS9R9JXVICLQBFTLEGDQKIKGYFOYTUWRUFYWYOFXZFPAFQGBSCQQDBX","optimalPurchaseTarget":-100,"optimalPurchaseTargetScore":-100,"availablePurchaseTargetList":[],"optimalSaleTarget":-100,"optimalSaleTargetScore":-100,"latitute":"51.677588","longitute":"-2.268837","amountDemanded":"3","pricePrefered":"15","distancePrefered":"14","energyTypePrefered":"1"},{"index":111,"seed":"JOGYWTWIPAFBMFNAECDRFTJJCPWKYWFKPCMJICNWRETWRATGJ9BBGSOYMGCYRKMKLTUYFEGEYRVMNSNDW","address":"9UZAYKSQTWEYDYBKYKIKLVV9BPEHDLYZRDYMAAIPYDDPDNFKIYHKIW9WXMUSGKLAFDXAYSIHFKGHYN9MA","optimalPurchaseTarget":-100,"optimalPurchaseTargetScore":-100,"availablePurchaseTargetList":[],"optimalSaleTarget":-100,"optimalSaleTargetScore":-100,"latitute":"52.148054","longitute":"-1.666004","amountDemanded":"2","pricePrefered":"15","distancePrefered":"12","energyTypePrefered":"1"},{"index":112,"seed":"HUNGUVSPCVFLNSIEQDMEMJYOUEVK9WUMBIFCCEXMXYBORW9HGSOTST9WPFMWHVTCOJEIABUDMQXNJIWOG","address":"IYDGSBWIBZNP9AKZYWDISXEUXLMVSNHVJDRNMCCUZNLPRFHECMSP9PJTLENYKG9RJCH9YKYZJMWAMLE9C","optimalPurchaseTarget":-100,"optimalPurchaseTargetScore":-100,"availablePurchaseTargetList":[],"optimalSaleTarget":-100,"optimalSaleTargetScore":-100,"latitute":"51.807167","longitute":"-1.460575","amountDemanded":"5","pricePrefered":"16","distancePrefered":"13","energyTypePrefered":"1"},{"index":113,"seed":"DQFNVMDCLHNJGPPKULB9JCIDEKXOEHWGLFGWAOKBJXGVWYBTSSCMAMQJFUCLHRCHKORXLGMJSAHINHLJW","address":"MCNK9YWRZPIUFYXVVRJZC9IGL9FAIWORUCA9XAQROEOBVRQNWNHW9ZCQVXUJTZ9ZXAHHGTMYMBZOJGUBA","optimalPurchaseTarget":-100,"optimalPurchaseTargetScore":-100,"availablePurchaseTargetList":[],"optimalSaleTarget":-100,"optimalSaleTargetScore":-100,"latitute":"51.351077","longitute":"-1.620379","amountDemanded":"4","pricePrefered":"14","distancePrefered":"12","energyTypePrefered":"1"},{"index":114,"seed":"COVEONSQYWPPCSUIHJSR9OMIMMWAXHUFCS9LOMPBHEJYVGVSXSEGWJWBVPKUQTOSPLWTKBYNRXTUXPQIN","address":"CJQKLUJZDAQZLXCA9B9URMHEUDCSDVKQGAKVLXOSAPUFBXJAQQVDTUFILBBEYBQTMOTZSXVHHVYXOKHUD","optimalPurchaseTarget":-100,"optimalPurchaseTargetScore":-100,"availablePurchaseTargetList":[],"optimalSaleTarget":-100,"optimalSaleTargetScore":-100,"latitute":"51.618860","longitute":"0.286284","amountDemanded":"6","pricePrefered":"15","distancePrefered":"11","energyTypePrefered":"3"},{"index":115,"seed":"YRGGV99XUVGFKMBRMAXKLMMLVPJUEWJJJINDVKAFXWBLUYIGUR99FMGMBVB9WGVYY9DXSURLMPLDOSONC","address":"NCSTGWRJVMZBFEIOSXFKVDTQGWRTCCWABEHGLXNIKQTIHCPOZWTEZS9XQKZFGKSOZPFKONGSDPO9QWPSA","optimalPurchaseTarget":-100,"optimalPurchaseTargetScore":-100,"availablePurchaseTargetList":[],"optimalSaleTarget":-100,"optimalSaleTargetScore":-100,"latitute":"52.414324","longitute":"-1.565895","amountDemanded":"5","pricePrefered":"15","distancePrefered":"11","energyTypePrefered":"2"},{"index":116,"seed":"PWWRGERQMXHWTEDMSM9UIRAOTHCQSAKWFCSVYXGYBEVFJKKOAUXVYJEESJWX9RUFPCF9VIGW9KQKXXEHT","address":"EICGDJWEHEOPJ9MKMRZKPLBYJALVPZAEUYMUOEPIABLZLAHCAPHOOVKEQ9YKJNREBXZW9WUXQNRNXNNVZ","optimalPurchaseTarget":-100,"optimalPurchaseTargetScore":-100,"availablePurchaseTargetList":[],"optimalSaleTarget":-100,"optimalSaleTargetScore":-100,"latitute":"51.141971","longitute":"-0.730151","amountDemanded":"3","pricePrefered":"16","distancePrefered":"11","energyTypePrefered":"1"},{"index":117,"seed":"XRLLVPSKE9YQHLGRRPIYKL9JFUJEAQMAQGUOLNUFWULYXSCFWQPJJLUQOOQNHYJWBADQLESNMVJPRQBIS","address":"CZPEJINLFWTUPFAXDCTXGMACKSZ9VPKJXLXBQJEPSWT9SOXLHCKHQWIPS9LLGAJYTQHIDCZOKEKJADXLD","optimalPurchaseTarget":-100,"optimalPurchaseTargetScore":-100,"availablePurchaseTargetList":[],"optimalSaleTarget":-100,"optimalSaleTargetScore":-100,"latitute":"51.112915","longitute":"-1.993207","amountDemanded":"4","pricePrefered":"14","distancePrefered":"12","energyTypePrefered":"2"},{"index":118,"seed":"TTGMO9RXFEPVRQDBDCIUJMJIWCOQEKY9PFXBSAMQTYHUOJDHKSRIQIMCLFYYDY9XQRWFPKNUPQBWUITSM","address":"IMSUZMEENATDUCKPEZASQAFBKJMNPUFAUAJTBFP9OWNWYCFGU9BFJWTLBVSSHSGEWGWULDBXOWZTGTIOW","optimalPurchaseTarget":-100,"optimalPurchaseTargetScore":-100,"availablePurchaseTargetList":[],"optimalSaleTarget":-100,"optimalSaleTargetScore":-100,"latitute":"52.421558","longitute":"-0.345925","amountDemanded":"4","pricePrefered":"15","distancePrefered":"11","energyTypePrefered":"3"},{"index":119,"seed":"KDPOQCOPWFGPVSSIYNROLCASAOIXQ9UHRKUCCNTAFHPPUEGBDKRWXNL9VOARMREI9FKFYOLXWD9KQWHPE","address":"POXWPUNNKGZAHJHYWWYCFDJBHHUMWMGPBPFGMRSOTINZVHGWJAMIHIFSAQXOPZHNNEFUCLRNUBWAOLGDC","optimalPurchaseTarget":-100,"optimalPurchaseTargetScore":-100,"availablePurchaseTargetList":[],"optimalSaleTarget":-100,"optimalSaleTargetScore":-100,"latitute":"51.768522","longitute":"-1.745576","amountDemanded":"3","pricePrefered":"15","distancePrefered":"11","energyTypePrefered":"3"},{"index":120,"seed":"FSLWPTVFXHRCUGBU9OXM9YTXASMFGNDIXQCHBEMUKXXUPRRWYQXYUCFNE9WBBOFCGCAUMBQWDASNGIOUY","address":"DMBG9GDAJRZRRLKNCGMFAWSXXIPEYXDZXCR9AXCRBUVUCAGNRUNYTKFE9BUZDXBQHYKECOOKPSKMHJUZW","optimalPurchaseTarget":-100,"optimalPurchaseTargetScore":-100,"availablePurchaseTargetList":[],"optimalSaleTarget":-100,"optimalSaleTargetScore":-100,"latitute":"51.402485","longitute":"-1.284204","amountDemanded":"1","pricePrefered":"14","distancePrefered":"11","energyTypePrefered":"3"},{"index":121,"seed":"YXOEWPAKQPKMWJSKXEPXXMM9VUGE9OPISSUSOGWYDIBFMECRQHMNWCULT9GFIU9YUFX9SRNNCPDTVMYMU","address":"DHLJZNYKNOKHYLCQ9PEL9JVALIWHWZMQLGGUNWTPQFUKQPLSRPPW9NFFZDDHDTXWAW9GMHYYXHLGTIA9A","optimalPurchaseTarget":-100,"optimalPurchaseTargetScore":-100,"availablePurchaseTargetList":[],"optimalSaleTarget":-100,"optimalSaleTargetScore":-100,"latitute":"52.178971","longitute":"-0.562375","amountDemanded":"5","pricePrefered":"16","distancePrefered":"15","energyTypePrefered":"3"},{"index":122,"seed":"EYAVMEQKPLNTTSVDBKIGIPANIKNNIGJNHFVT9LSEFMMCEANSAHSPGVHYEPYJGVXMHIT9CUQSYLIXBJPXT","address":"UGCTYVH9SBFLQHNZLEBPIRUMPJLMZMNASAJFGBHLPFVESLSUMVKJINFHL9X9ZFRWGGLOXEWDHIWYNHFTY","optimalPurchaseTarget":-100,"optimalPurchaseTargetScore":-100,"availablePurchaseTargetList":[],"optimalSaleTarget":-100,"optimalSaleTargetScore":-100,"latitute":"51.173506","longitute":"-1.860471","amountDemanded":"2","pricePrefered":"15","distancePrefered":"15","energyTypePrefered":"1"},{"index":123,"seed":"KEWIDGMEGUF9NBPYEUHFNGJRYO9VNUJJBNMIFOJDHKMTEUXXDPMETMGLPKSAYFHFNGMEJKSYVEFMPX9IX","address":"XDKSUZPGYFXFLAPJUVC9RXJATYZUQLJKAAUWYQSDHEPEWIJBYPCLHWHLRRAPGBUIAHI9PDDPRGLDZZASX","optimalPurchaseTarget":-100,"optimalPurchaseTargetScore":-100,"availablePurchaseTargetList":[],"optimalSaleTarget":-100,"optimalSaleTargetScore":-100,"latitute":"51.215283","longitute":"-1.288948","amountDemanded":"5","pricePrefered":"16","distancePrefered":"15","energyTypePrefered":"2"},{"index":124,"seed":"IJVVC9XIOYU9FRRRVSMYLQBJTVYOIAYW9MTFSSIMGVFOHKSKGKONYPGWDGGNR9UBMMTTRDWFDAOTOLBIQ","address":"MYWMEWELBJCAKXTIXPGXAZZGTDOSOPBROZGDDUQSVEWYEVUVZKCWQNJHQZESK9FHXYGFJSEZBBRQQKVWD","optimalPurchaseTarget":-100,"optimalPurchaseTargetScore":-100,"availablePurchaseTargetList":[],"optimalSaleTarget":-100,"optimalSaleTargetScore":-100,"latitute":"51.005345","longitute":"0.194747","amountDemanded":"6","pricePrefered":"14","distancePrefered":"14","energyTypePrefered":"0"},{"index":125,"seed":"9WHMIILOKOLIFTKJUTLPVJYMBKMPSVJTIOOAISUQKTRVGYH9QUC9POXGWJEW9KHIIVPMKRCVRU9NECITJ","address":"XYPTLVMRQMSOZEDPCBQJUQHMFMYACTZBQSCF9UHFMKJHGSPIKYNSXISFPPUILERAYVBZHIXHUZMEQMLM9","optimalPurchaseTarget":-100,"optimalPurchaseTargetScore":-100,"availablePurchaseTargetList":[],"optimalSaleTarget":-100,"optimalSaleTargetScore":-100,"latitute":"52.312309","longitute":"-0.063109","amountDemanded":"3","pricePrefered":"16","distancePrefered":"14","energyTypePrefered":"3"},{"index":126,"seed":"MKXBRJIYBNBWJNBNNHSDQVFV9ANNTLGRBXSEGQPDIPCKMVSPQLSFYUCBLE9IMSXHIYFNVWMGVYURRRGUT","address":"XVMLXWSHHVYBUXEEFEYXFSFCWO9VAVFGSAQVRDHPZAAIQRHGOMVVSLTBJDJQYYOLIGFGLSEJFZOPTESKC","optimalPurchaseTarget":-100,"optimalPurchaseTargetScore":-100,"availablePurchaseTargetList":[],"optimalSaleTarget":-100,"optimalSaleTargetScore":-100,"latitute":"52.366080","longitute":"0.245274","amountDemanded":"4","pricePrefered":"15","distancePrefered":"14","energyTypePrefered":"3"},{"index":127,"seed":"TACPYKJCM9KLNXNBTHSFEQVNPPSXVMFLUNMO9TNNDSNVITAFAQNXGADSSYMGHPBUOPIHGCRPYSMGIF9SQ","address":"QSSFUEAFMRZLQWJFRYPVFXRVJLZVS9VKFZFZJOH9AYQZDEHPLLXKMJGAQKRFI9ADDAHDVWBGILYLYENGC","optimalPurchaseTarget":-100,"optimalPurchaseTargetScore":-100,"availablePurchaseTargetList":[],"optimalSaleTarget":-100,"optimalSaleTargetScore":-100,"latitute":"52.161196","longitute":"-0.979922","amountDemanded":"6","pricePrefered":"16","distancePrefered":"10","energyTypePrefered":"3"},{"index":128,"seed":"IMYWUSTRPXCVGGNCUALXOGBSKPNBYUFPVAPWIIDPXGQBN9NVTSKOJFEANOWNCEUVJKDPYPBHDRCQSOCF9","address":"VBIAOIEJGHXPPZIKFOFWCWCCFWRJSPLLUZITJZYZDOTMLIBVQTFXQUTSZJZVUXWHWZAWYAVDZICFLLAUD","optimalPurchaseTarget":-100,"optimalPurchaseTargetScore":-100,"availablePurchaseTargetList":[],"optimalSaleTarget":-100,"optimalSaleTargetScore":-100,"latitute":"51.864803","longitute":"-0.206107","amountDemanded":"2","pricePrefered":"16","distancePrefered":"13","energyTypePrefered":"4"},{"index":129,"seed":"PSYMACU9GAOKMDAPEKIGWUDT9BNVYYEUAOTIKGDBSRXHSEAYOBQXXYSLLQSUBIYVN9WEYBFQFONDYBFGP","address":"PSFOIUXGXQARGSTJHVCVPZJKPURFAAL9RIMBYXGSOYCEJZEXOY99SGGVPHLEWOFGMHIONKNR9ENTCXUKX","optimalPurchaseTarget":-100,"optimalPurchaseTargetScore":-100,"availablePurchaseTargetList":[],"optimalSaleTarget":-100,"optimalSaleTargetScore":-100,"latitute":"51.362602","longitute":"-1.971348","amountDemanded":"2","pricePrefered":"14","distancePrefered":"14","energyTypePrefered":"1"},{"index":130,"seed":"LS9CFUHLORERSIYXGLTBFJIKARQQKTEN9WHT9YQRWMXFSGXXHVGUUPACFJAOOFMFKI9QDVRLHMDKTOSBP","address":"IBFLVNQAWVPEBDIICKPZZNCEAGBQERIA9CQUDWZYFIFPECYOGMN9KDZS9INVWFGEMZYFKGCUQOKHFWANX","optimalPurchaseTarget":-100,"optimalPurchaseTargetScore":-100,"availablePurchaseTargetList":[],"optimalSaleTarget":-100,"optimalSaleTargetScore":-100,"latitute":"52.026135","longitute":"-0.886159","amountDemanded":"3","pricePrefered":"14","distancePrefered":"12","energyTypePrefered":"3"},{"index":131,"seed":"EWQGITPKJHIDVLFQHGW9VQEINXSERNVPBRBDELER9C9MLHIDORQBQYXV9JNPSECLBBSJDSVWQCUTWKOMS","address":"UHEISEEPJUFHKMWBFSAF9ECMFPGZN9AUUFGSWBTEJXT9UPRHU9NFLUAUDDOSTIFRQU9RLLBVY99JSKBRC","optimalPurchaseTarget":-100,"optimalPurchaseTargetScore":-100,"availablePurchaseTargetList":[],"optimalSaleTarget":-100,"optimalSaleTargetScore":-100,"latitute":"51.390573","longitute":"-0.810346","amountDemanded":"4","pricePrefered":"14","distancePrefered":"11","energyTypePrefered":"0"},{"index":132,"seed":"CUOFFP9QLGCGYXVJGUDYBCURBQMKFCHOIDUQHRSTWTC9LKEDI9TLENDWSPFFOMKLPPMIUUIYJWFBAPSMO","address":"MQSVRGNUXJISWK9LLJCVHKSVNPCCGZREDEHDIQQTGME9PAGWURJQRKCNXPJKN9HVEGEPL9ZFUKBTZTKC9","optimalPurchaseTarget":-100,"optimalPurchaseTargetScore":-100,"availablePurchaseTargetList":[],"optimalSaleTarget":-100,"optimalSaleTargetScore":-100,"latitute":"52.150415","longitute":"-0.963547","amountDemanded":"1","pricePrefered":"14","distancePrefered":"14","energyTypePrefered":"2"},{"index":133,"seed":"GIWVAJBDYACIQWIE9GQXLXFVPCDTLKIRGGAIUGYHYTIMUQREVVUNYRGMXPBQEVJHS9ASJAG9RBTNFXKOK","address":"R9QNQTWUYGHLHCXMRSGRGELLGODXJTTALUBYNZRUJTRQQBRHQTFWXISXNFPRAXPNQBUZSRAUKJVKU9CQC","optimalPurchaseTarget":-100,"optimalPurchaseTargetScore":-100,"availablePurchaseTargetList":[],"optimalSaleTarget":-100,"optimalSaleTargetScore":-100,"latitute":"51.693805","longitute":"-1.194451","amountDemanded":"4","pricePrefered":"15","distancePrefered":"14","energyTypePrefered":"1"},{"index":134,"seed":"PIPIXTRNBGAKJGPQRTPLTMQNOPDH9WTKVATMOLRQXWINIOFUJCVBHDSQFWQFWMTGKMCNHUEOSWNUGXUJX","address":"TH9ZBEVYYUMFNLJAFQGTWBNEVTTPZFWFZCEP9TCPEJZPZFDEZUCGPZCYVYE9ENCZLYMXTEIQFIABC9USD","optimalPurchaseTarget":-100,"optimalPurchaseTargetScore":-100,"availablePurchaseTargetList":[],"optimalSaleTarget":-100,"optimalSaleTargetScore":-100,"latitute":"51.385981","longitute":"-0.608074","amountDemanded":"5","pricePrefered":"15","distancePrefered":"13","energyTypePrefered":"2"},{"index":135,"seed":"LGNWHRFVCUQIGKTYWBJUBUMVGXNPFBQJCTASOFHWHQQPHINWAGKKPSIOXMTHXQPQTURNK9YEBMOALBNWE","address":"ARKNJAORMSCVJIGKOQEGTW9HVRXTYIMKSCPVUDPUHDSMGPQQI9NHV9DTMQEHOVYLUPPSXGTQGRUH9YJJY","optimalPurchaseTarget":-100,"optimalPurchaseTargetScore":-100,"availablePurchaseTargetList":[],"optimalSaleTarget":-100,"optimalSaleTargetScore":-100,"latitute":"51.887078","longitute":"-1.148095","amountDemanded":"5","pricePrefered":"16","distancePrefered":"11","energyTypePrefered":"1"},{"index":136,"seed":"PDJALYIVQWT99WKRNB9AHOLJCCKGAMXIWUHU9MHCBDRFPUGVAYAJPSBUMKYKLNIPYYHDJGQILDWMM9HFC","address":"CSCJKXRSOPNU9HABCUNKPVWNZAZVWI9NQZALLFTRDWQTOKVSKOKHILFY9MOOMEWPEIGXZOPMLRBCBTSYY","optimalPurchaseTarget":-100,"optimalPurchaseTargetScore":-100,"availablePurchaseTargetList":[],"optimalSaleTarget":-100,"optimalSaleTargetScore":-100,"latitute":"51.006320","longitute":"-0.650516","amountDemanded":"6","pricePrefered":"14","distancePrefered":"15","energyTypePrefered":"2"},{"index":137,"seed":"I9YTRNLWCUAYMGYPPSIBFMIJFOYJVUVOSJOFOT9LSRBETAQFAJLNWAMHPIKSLLULPXDDKTLSFVFICWAEQ","address":"PKSGXWKQQMZNHWCN9TDVQTPSOFCXVYLWTHMVXPOPKAXENVIN9XZRTMTKYOVXMYREZFNJDHVHCYVIIWMYD","optimalPurchaseTarget":-100,"optimalPurchaseTargetScore":-100,"availablePurchaseTargetList":[],"optimalSaleTarget":-100,"optimalSaleTargetScore":-100,"latitute":"51.360865","longitute":"0.075977","amountDemanded":"6","pricePrefered":"15","distancePrefered":"11","energyTypePrefered":"3"},{"index":138,"seed":"PGFHEIERUBMBGBYANIOUVVJBBKSXWYOBHTETSRYKV9IALLFAGIEBNHQFMPAKLTSNMEAJVNCWCCEWFKLWA","address":"UMS9FBDOZSUYJP9YBMTBQZYVUOXZLACSVKAAJHTJVXYGDWVISOF9LXELMSFHH9TKBEDHYPOJNTBYVVFLD","optimalPurchaseTarget":-100,"optimalPurchaseTargetScore":-100,"availablePurchaseTargetList":[],"optimalSaleTarget":-100,"optimalSaleTargetScore":-100,"latitute":"51.161907","longitute":"-1.514355","amountDemanded":"6","pricePrefered":"14","distancePrefered":"13","energyTypePrefered":"3"},{"index":139,"seed":"UYLBLS9PTXLEGXQDSUYSBGCURU99QW9BQXHTVEK9XUROABWYDVFRNBNCDFD9BWCRULWXJWIKUWBDTNHUO","address":"EHYMCUNKFVEGQEKIDPXKIQEJNQYZ9MNC9HYG9HZHGGGDMISISWBKFQRSVFPK9LBOVVK9MLVVEJBQOWIV9","optimalPurchaseTarget":-100,"optimalPurchaseTargetScore":-100,"availablePurchaseTargetList":[],"optimalSaleTarget":-100,"optimalSaleTargetScore":-100,"latitute":"51.223028","longitute":"-1.574425","amountDemanded":"4","pricePrefered":"15","distancePrefered":"12","energyTypePrefered":"1"},{"index":140,"seed":"EWKGRXNYLCLDGTDSOJGCOBLYWRALYDVWDBJOXWPIQJDJSUTGIKMXQEEVHWJFHFOOORNGCUFNCDMPCASXY","address":"KESFBIQDXJGBKGZBNAURQPXGVEMEPPBBHZLLGJUWGYZTZSNQJGPAI9EA9LOJWKEIFRNGI9MFYZKMDLCCA","optimalPurchaseTarget":-100,"optimalPurchaseTargetScore":-100,"availablePurchaseTargetList":[],"optimalSaleTarget":-100,"optimalSaleTargetScore":-100,"latitute":"52.421762","longitute":"-0.458131","amountDemanded":"3","pricePrefered":"14","distancePrefered":"13","energyTypePrefered":"3"},{"index":141,"seed":"HWWLHATEMIEKDDXHIBNKKCTXNPTLYEDCLEEKCLKKSFQHEEYC9SHNBTTJFVBJWLWCIMTMLYSSHSOOIMYXJ","address":"GUE9DCHDTWPCRZYNAH9LRSXOTKAZRACXHEKDUPXYLUXVWATOILESIQROVVERBTFCEXKUDABLHHAXDTSQY","optimalPurchaseTarget":-100,"optimalPurchaseTargetScore":-100,"availablePurchaseTargetList":[],"optimalSaleTarget":-100,"optimalSaleTargetScore":-100,"latitute":"52.016208","longitute":"-1.420657","amountDemanded":"3","pricePrefered":"15","distancePrefered":"13","energyTypePrefered":"2"},{"index":142,"seed":"HAPBKBJTPAIMJHKJFQLTWYAUVKSXJBV9IPRF9IQTHVEKBCEVKMJX9HSSMALQO9VEBMIFOPXCOFTRHBYSC","address":"ZETWFAWCAALRWEXRBGKUXYH9MQQI9QRLHGVIW99RWSRRVOHHZWCJXDGEO9DMMXOEEHCGXHECEEXIRWOWW","optimalPurchaseTarget":-100,"optimalPurchaseTargetScore":-100,"availablePurchaseTargetList":[],"optimalSaleTarget":-100,"optimalSaleTargetScore":-100,"latitute":"52.227075","longitute":"-1.727451","amountDemanded":"3","pricePrefered":"15","distancePrefered":"11","energyTypePrefered":"3"},{"index":143,"seed":"SPOJFRAOGQYJIKRVFNGOYXGLAROOOKFGE9IWUOOSNQH9SUKCQCXPUHOVWPQO9KGILLSIMTAXGEJBDYLWB","address":"JNRMIWZJBLGY9PVQSINX9JKGPGTBLPRXKPKCAXKJIZLJOFEBVY9FYYIKWKCMID9OCFYLMEEPBOOOCPGA9","optimalPurchaseTarget":-100,"optimalPurchaseTargetScore":-100,"availablePurchaseTargetList":[],"optimalSaleTarget":-100,"optimalSaleTargetScore":-100,"latitute":"51.896303","longitute":"-1.686879","amountDemanded":"2","pricePrefered":"16","distancePrefered":"12","energyTypePrefered":"3"},{"index":144,"seed":"P9BBHWTWECOKHVSVPXHUASWCGTHGHBUECHQHBGORLDDJFIKHT9HNWWJCJDWTUASNEN9NP9TWJCEMSYNTW","address":"XQCGSTISEKIZZWVRYALOWX9IXCDCJHA9GKZU9SODYANJ9LBJGHV9VZFNDVCNFRVNUNVYWGABHX9CLFOKC","optimalPurchaseTarget":-100,"optimalPurchaseTargetScore":-100,"availablePurchaseTargetList":[],"optimalSaleTarget":-100,"optimalSaleTargetScore":-100,"latitute":"51.748018","longitute":"-1.615755","amountDemanded":"1","pricePrefered":"15","distancePrefered":"14","energyTypePrefered":"0"},{"index":145,"seed":"NXGPJTIMVEMMBVFARWNMRNKSQOICWMOLTWGS9PIPUDNMDSFYAPBRCY9LFIQTDLPEROEHT9FFH9PMFJONX","address":"AENMGXVIXO9LZQDARKRHFGOWSFOBUZEPMVIELGQNCAOPSOZGSPQBMKNYEFVXBPYPXSVDOXFYFPPVVZONB","optimalPurchaseTarget":-100,"optimalPurchaseTargetScore":-100,"availablePurchaseTargetList":[],"optimalSaleTarget":-100,"optimalSaleTargetScore":-100,"latitute":"52.267296","longitute":"-2.046089","amountDemanded":"5","pricePrefered":"16","distancePrefered":"14","energyTypePrefered":"3"},{"index":146,"seed":"TWP9KES9SFAGQQLRJPGLBQFDYNXFPXYPPVCOYUTSOYSORUNFIUYIIDPAXHUADKWVJCRUFNGKLACWRJTBS","address":"YAQDICACB9CZYFENDEZWHRLBRTAXOVMZ9DHSCR9DGHALSR9WFPFRGXGOEQTEMCBPYWKHDSJOOXHZISSSC","optimalPurchaseTarget":-100,"optimalPurchaseTargetScore":-100,"availablePurchaseTargetList":[],"optimalSaleTarget":-100,"optimalSaleTargetScore":-100,"latitute":"51.099892","longitute":"-1.056105","amountDemanded":"5","pricePrefered":"14","distancePrefered":"12","energyTypePrefered":"1"},{"index":147,"seed":"SFCVDCKASHCL9IDGGEFUBMQFWLSPTSQI9MWKRKNHIRPOSMPORYDAUMAXQQBP9VPDFYJ9O9QVOXVXHUWVU","address":"GFQJRMMHAPLOKAFNVJSPEANMFFBKL9DQN9DQZSAPUUCPRNRBHXBNH9CGPBWNPOYPMYVKGHFCORXOOQGEC","optimalPurchaseTarget":-100,"optimalPurchaseTargetScore":-100,"availablePurchaseTargetList":[],"optimalSaleTarget":-100,"optimalSaleTargetScore":-100,"latitute":"51.447974","longitute":"-0.350623","amountDemanded":"4","pricePrefered":"15","distancePrefered":"10","energyTypePrefered":"1"},{"index":148,"seed":"VVYSHOLWJGWMTOXUYVEPH9VNTD9SUQXEAUX9BFQXLBRPNNCFUWUMXRSXTOKENFBMXEQRVAOKHPPAEKQMD","address":"XPLFDVZCAOBOQWKWUIDTJFCOBNAXJNYWEOMGZYUQQJNYI9OQCYGQKSSDOIDIUISQEWFBB9C9LYXLFACRZ","optimalPurchaseTarget":-100,"optimalPurchaseTargetScore":-100,"availablePurchaseTargetList":[],"optimalSaleTarget":-100,"optimalSaleTargetScore":-100,"latitute":"52.391038","longitute":"-0.853889","amountDemanded":"6","pricePrefered":"15","distancePrefered":"11","energyTypePrefered":"4"},{"index":149,"seed":"HLLSK99PHTGPXYQGNXYWGCPVBAXVNAITKRAGRCGUUISTXSHYSTJYLUUOBYNKIABSCHDFWQOWKCYDNAHUN","address":"OILWPDWOWKXQJIGOIADUPCRFGOBPBCHPZWNNOPFBVWLGYRJRFHKWWRY9ILEUSBLMTQGVCZL9ITYRXUDHB","optimalPurchaseTarget":-100,"optimalPurchaseTargetScore":-100,"availablePurchaseTargetList":[],"optimalSaleTarget":-100,"optimalSaleTargetScore":-100,"latitute":"51.560046","longitute":"-0.583769","amountDemanded":"3","pricePrefered":"15","distancePrefered":"13","energyTypePrefered":"1"},{"index":150,"seed":"WQQJENLURPEFDDDQUGO9KGNAFGMLQLQKI9NNAVGQYJHTLPVIDGWFJROIEQUWJNGBFTWIRPNUUWPCQMQMG","address":"OAYACELAVDEAEGPXPFNPMTWFAQUGQMVKGKDCZZNBBLHMHPQTAEVXUMBBFWYTMZOEEICKVPZNDTFVPWSHD","optimalPurchaseTarget":-100,"optimalPurchaseTargetScore":-100,"availablePurchaseTargetList":[],"optimalSaleTarget":-100,"optimalSaleTargetScore":-100,"latitute":"52.105887","longitute":"-0.221930","amountDemanded":"3","pricePrefered":"15","distancePrefered":"12","energyTypePrefered":"0"},{"index":151,"seed":"WSODMNKYBUPWBTMHPTXUBHJ9JICUFVMYYFVKBADGSLHIDOAJFHSOHNAFHWVIUVASKBAKQLQNGHVWRPIYW","address":"9OMGEREFGMBPDOPWXKYSYLXNEWMEVDH9KKTVHZNKNKXFBZVZUQNHBUKLIZKVXPRODMUKYRHVG9VOIZJGX","optimalPurchaseTarget":-100,"optimalPurchaseTargetScore":-100,"availablePurchaseTargetList":[],"optimalSaleTarget":-100,"optimalSaleTargetScore":-100,"latitute":"50.988249","longitute":"-1.771058","amountDemanded":"2","pricePrefered":"15","distancePrefered":"12","energyTypePrefered":"3"},{"index":152,"seed":"CUBDJVJMIHULRSEBUXBQJEBTCOVUVYOFS9QXADMOWEPTGXXDNFEBHHHECPRMEVXHJYY9XMUMSVIRBWJWV","address":"DXDAIGNSMPGDRDJCPOHMILFZWSEMFKLGAKBDSQQGASOBHUJQSENX9P9RHRESBPIDBVJCEGZXEEQTUZYZB","optimalPurchaseTarget":-100,"optimalPurchaseTargetScore":-100,"availablePurchaseTargetList":[],"optimalSaleTarget":-100,"optimalSaleTargetScore":-100,"latitute":"51.109901","longitute":"-1.012661","amountDemanded":"1","pricePrefered":"15","distancePrefered":"15","energyTypePrefered":"0"},{"index":153,"seed":"UYS9HNOMQQWKESJYWLDOTCWVRXFPAUQUHLQDIXRCOSNQPINOI9YLOTDTKQNVXGNHGBCWAWXIBJJDIUX9Q","address":"AJWJ9BKQSIWJLFOTQGJAVALQWGBINYMHQKFOBECYLXHSPLAPKVZ99IUOYXVCKIJKMMCFOPUMYYRIHRMDZ","optimalPurchaseTarget":-100,"optimalPurchaseTargetScore":-100,"availablePurchaseTargetList":[],"optimalSaleTarget":-100,"optimalSaleTargetScore":-100,"latitute":"51.047612","longitute":"-0.473867","amountDemanded":"6","pricePrefered":"15","distancePrefered":"10","energyTypePrefered":"4"},{"index":154,"seed":"GCEW9NTHWLRFOAPHUEBETTEHQCBDLNNVUBPMRPNNWTNVE9LDMEJ9OKIBWMEXEAWWEEHJSGPHHDNRAR9OU","address":"OJNPCUIRWSTHZWOLIGEUMPQGFDEM9HJBFYPBKEROIAJDOFYDNP9ZGILVYQKUIHWCPVEMJAXHYDMOCHZAD","optimalPurchaseTarget":-100,"optimalPurchaseTargetScore":-100,"availablePurchaseTargetList":[],"optimalSaleTarget":-100,"optimalSaleTargetScore":-100,"latitute":"51.541266","longitute":"-0.936675","amountDemanded":"1","pricePrefered":"15","distancePrefered":"11","energyTypePrefered":"3"},{"index":155,"seed":"VLMGXBHBMB9PXABHSEXVJIMLGJFRWITYOFTUAMJBYCQYHAXKRPUDUOCNREFDQIAXUUADDOANLOAKQFLBS","address":"MMWCAPDGMSDUKZ9UJFLSNAAJCPUCDKKVNWFTDJWPVIB9RS9IDDTRCFZAYOIDSSNHSSGUFAGSSFPJFZYWW","optimalPurchaseTarget":-100,"optimalPurchaseTargetScore":-100,"availablePurchaseTargetList":[],"optimalSaleTarget":-100,"optimalSaleTargetScore":-100,"latitute":"52.095424","longitute":"-2.048497","amountDemanded":"6","pricePrefered":"15","distancePrefered":"11","energyTypePrefered":"3"},{"index":156,"seed":"RQXGIVVVSEHXHMJDMDQDWSLKQBNOKKXTRCWMJ9EHQ9NNEYUXGTGCAW9NFALWQEFBMUVRYKMDCYYA99VLG","address":"LYJAZPPEOTNUJQRGWP99FHPHALZNZGQUPRSPCZMMZLXQTTBVBTVMVVUHIUUAXWWWHTCUYCYOLKYGQMEYW","optimalPurchaseTarget":-100,"optimalPurchaseTargetScore":-100,"availablePurchaseTargetList":[],"optimalSaleTarget":-100,"optimalSaleTargetScore":-100,"latitute":"51.727513","longitute":"0.282886","amountDemanded":"5","pricePrefered":"15","distancePrefered":"13","energyTypePrefered":"2"},{"index":157,"seed":"WNBWBGJCGIRFUDCVYOTABBNYDL9SDCKXVTAYAHWQXUJEJYDLVMTCQMUTKCHPBJECCDU9SHOYMOUYBKKBA","address":"PTINOAECMUE9IVPWGKYQTNUQHUZWYTMWCIGYXFASKENLFLRHFAXYSWHVZFDQBCXVCUXCPIJA9DYJPDEB9","optimalPurchaseTarget":-100,"optimalPurchaseTargetScore":-100,"availablePurchaseTargetList":[],"optimalSaleTarget":-100,"optimalSaleTargetScore":-100,"latitute":"50.971613","longitute":"0.178177","amountDemanded":"5","pricePrefered":"14","distancePrefered":"11","energyTypePrefered":"1"},{"index":158,"seed":"NTGUYBFNIQHDAIUETFPCDWVXPDFHYTXHHABWXQWMRMWWUCGQATHPJYUWXRJUPGVNYJEHBAV9JNQD9HMUO","address":"YKMCSYTNSSPXPXUMYXJGASLBEROGYHNKIYYEFWHWLEO9KMFC9CQPVVNNJVZHFKPNCVLGTZQULSBFSNEPW","optimalPurchaseTarget":-100,"optimalPurchaseTargetScore":-100,"availablePurchaseTargetList":[],"optimalSaleTarget":-100,"optimalSaleTargetScore":-100,"latitute":"51.895186","longitute":"-2.251699","amountDemanded":"5","pricePrefered":"14","distancePrefered":"11","energyTypePrefered":"2"},{"index":159,"seed":"HRV99XMKCC9DMMVNHLUOXJK9DMLUJLDKOKFENYBPMNUOGKGMWKIOUFOVQPXSGBBCCXR9XDYTDJOR9YNBJ","address":"UWVWFWUSIWLZIZWRUNHICLHUOMIZKFFMWRMWO9HAGV9H9ZGYZKWKTGVVDYDYDQQI9KOJCA9GIEVVQCJZD","optimalPurchaseTarget":-100,"optimalPurchaseTargetScore":-100,"availablePurchaseTargetList":[],"optimalSaleTarget":-100,"optimalSaleTargetScore":-100,"latitute":"51.885939","longitute":"-1.182330","amountDemanded":"5","pricePrefered":"16","distancePrefered":"15","energyTypePrefered":"2"},{"index":160,"seed":"SLIIPEONUVNXFTGERNUDFONYKJBOATCHGYCWENYRNBBONWJQTL9FUSULDTFUNTLCYJOTPEAWXUKIIQJIM","address":"PZYSYNWWZLZJSQ9RAQKJOCEFOMGHJLQVJIDKENJHQTD9GILPGBGLWKNIYPDIGVCO9CHJHFDJDU9WONBMC","optimalPurchaseTarget":-100,"optimalPurchaseTargetScore":-100,"availablePurchaseTargetList":[],"optimalSaleTarget":-100,"optimalSaleTargetScore":-100,"latitute":"52.391443","longitute":"-0.897743","amountDemanded":"4","pricePrefered":"15","distancePrefered":"14","energyTypePrefered":"1"},{"index":161,"seed":"AGODKXYRVWRWMDHNIPVMSPVOAGEESGJFDPYLQXDMMEHAAIKU9GBOREAYQHELAIBRFXOXYSPVUOOVMFYBV","address":"UNIEXJA9QLWQLIRDSXQAET9BQOHUOSDPZNRCC9CSQIXXOOMZCUOKJFDFKIANQPKIUQLTXZDDNPHUHNVPW","optimalPurchaseTarget":-100,"optimalPurchaseTargetScore":-100,"availablePurchaseTargetList":[],"optimalSaleTarget":-100,"optimalSaleTargetScore":-100,"latitute":"51.522720","longitute":"-2.041683","amountDemanded":"4","pricePrefered":"15","distancePrefered":"13","energyTypePrefered":"3"},{"index":162,"seed":"XGJBDJVPNNYYAEXKYKKITYYJFJG9P9PUHNHTK9DHODUN9CUJPKQKEKRNCIJQCOUSXLXEXFYETYJGJYGCL","address":"NFJI9BBFPMKBROLOTRMFZOVA9FAVAPECLDUUBDTCOAXFZQZIWKCTPYEOMTQHSAUGTZGJOXXBDAZ9PTKGC","optimalPurchaseTarget":-100,"optimalPurchaseTargetScore":-100,"availablePurchaseTargetList":[],"optimalSaleTarget":-100,"optimalSaleTargetScore":-100,"latitute":"52.380035","longitute":"-1.684583","amountDemanded":"5","pricePrefered":"15","distancePrefered":"15","energyTypePrefered":"4"},{"index":163,"seed":"WDJHQWEFLNVQYLDVDPRHFSNAPKRMCBINFQNSKTMUMIHSVWFPRFMQCTOJRKYMXSPWGDPSLBJDOQMLPE9GA","address":"BDRKRYMXXQARPGYJYGEAIJSDKABLIPPDBLGBWEPILSOKDUUOVBBAIQZQQEC9D9LROWWNLFRVVKMDLOAAY","optimalPurchaseTarget":-100,"optimalPurchaseTargetScore":-100,"availablePurchaseTargetList":[],"optimalSaleTarget":-100,"optimalSaleTargetScore":-100,"latitute":"51.032042","longitute":"-1.097934","amountDemanded":"3","pricePrefered":"16","distancePrefered":"15","energyTypePrefered":"4"},{"index":164,"seed":"OWMURULTGUDRFJ9UBXQPIUYYQDMCGYHWJAGSUCCJLYBNSYMKHJQHLIYPARSELHHXNLBU9RNOJHQCJXXAH","address":"GQHXSWLZPYKYAUBMXICHFCLSCOBWGEGHRLMERCYWIVKYDHKSSCMHHQJPMVLRXCGKINGYE9VKZMZODNNHA","optimalPurchaseTarget":-100,"optimalPurchaseTargetScore":-100,"availablePurchaseTargetList":[],"optimalSaleTarget":-100,"optimalSaleTargetScore":-100,"latitute":"52.126916","longitute":"-0.195420","amountDemanded":"3","pricePrefered":"15","distancePrefered":"14","energyTypePrefered":"3"},{"index":165,"seed":"NTOKGSAGXTMOFEPOPUFESABGGQEJDLFEIHTCGLLNKHFBUUUXLLJSTJWEACVTQMEGXXSKPVEDYTUPFMAFD","address":"WXEULCHW9SURUUXEQEPCSLGQ9XB9IACSBNIQGUIVCMLVXVKQZHATCRJBLWNXFSNIJY9WBLQXFTLFMQHQD","optimalPurchaseTarget":-100,"optimalPurchaseTargetScore":-100,"availablePurchaseTargetList":[],"optimalSaleTarget":-100,"optimalSaleTargetScore":-100,"latitute":"51.088396","longitute":"-1.657118","amountDemanded":"2","pricePrefered":"14","distancePrefered":"11","energyTypePrefered":"3"},{"index":166,"seed":"QTWFSAAJQT9CTCYVYRTYXJISGTCAJHERNNDNDGKOLGBNLGBSXUHGJWPTLFXR99HKASGAXYPEDLDYCJGU9","address":"99QETVT99MRPKWOBUJJZJNPOWXKAENJN9ZPONVMPKSBQOL9XTAWRCHEJPNOGQY9YXDKOFJRHJTRBAJZHC","optimalPurchaseTarget":-100,"optimalPurchaseTargetScore":-100,"availablePurchaseTargetList":[],"optimalSaleTarget":-100,"optimalSaleTargetScore":-100,"latitute":"51.425786","longitute":"-2.022290","amountDemanded":"5","pricePrefered":"15","distancePrefered":"13","energyTypePrefered":"2"},{"index":167,"seed":"HPSHXBUO9OMIHAWOLAORCPDGMXRJWDEQLWQUFASWUNELCECLCBHTTXVGOQ9ANMOXVKLDKQPNGARPXMKEK","address":"FLNXSPOUVSDIKVDFXPUMTNXCBQ9MPDJOPOOZUPR9SAWRDRZ9RKGSFNJCOSANCVLDOYEUKMQJWOGIIUNBX","optimalPurchaseTarget":-100,"optimalPurchaseTargetScore":-100,"availablePurchaseTargetList":[],"optimalSaleTarget":-100,"optimalSaleTargetScore":-100,"latitute":"51.415131","longitute":"-2.225669","amountDemanded":"5","pricePrefered":"15","distancePrefered":"11","energyTypePrefered":"3"},{"index":168,"seed":"NVTICFGXHCYPDSEQVCRVIOCXXJO9FVFI9AAUPJFVKQKTFOFYUPVNFQKMLGFKLGQSD9ENEOSQONBKVWOGT","address":"WFWGXCSGRIYZANKZF9DLLITYXJFFWPNYFVQPUM9YUBOCGZIRUITFUD9SEWQNNLXBLCOE9MHYPUKQRHFJY","optimalPurchaseTarget":-100,"optimalPurchaseTargetScore":-100,"availablePurchaseTargetList":[],"optimalSaleTarget":-100,"optimalSaleTargetScore":-100,"latitute":"52.258443","longitute":"-1.583956","amountDemanded":"4","pricePrefered":"15","distancePrefered":"11","energyTypePrefered":"1"},{"index":169,"seed":"9WPGWGSDVIAIDFGPBFD9ADAPSNBOQKGAINOHFNBUFFDHDXRXQALWLSJNTRPTTHSKCERCXRYA9ALCNOYEE","address":"QGDBCK9PBW9QSZHFFJQBXXKBNYXRYRCRC9GZTGDADAERKHWZBEMUMRITODLKAEGYEBFQXHT9MNGKWZZRZ","optimalPurchaseTarget":-100,"optimalPurchaseTargetScore":-100,"availablePurchaseTargetList":[],"optimalSaleTarget":-100,"optimalSaleTargetScore":-100,"latitute":"51.365984","longitute":"-1.863956","amountDemanded":"2","pricePrefered":"14","distancePrefered":"14","energyTypePrefered":"3"},{"index":170,"seed":"APNTANNRHGGARTBBKSWRYRN99IHYRHYLWHBOKGLSKV9THSDUWUG9LKBAFEEQGNBNBCBXPVM9WYEVPIBCQ","address":"KLQBRFTWIPKZPGVZUHMTQ9CV9VDOAKFTKBTACWARBJCDOIS9BCTNFRHMYXQXFKBDKZSCYFVXSAICLPTEX","optimalPurchaseTarget":-100,"optimalPurchaseTargetScore":-100,"availablePurchaseTargetList":[],"optimalSaleTarget":-100,"optimalSaleTargetScore":-100,"latitute":"51.297146","longitute":"0.252236","amountDemanded":"2","pricePrefered":"15","distancePrefered":"14","energyTypePrefered":"2"},{"index":171,"seed":"HOADTTEXWAFV9RNRQFPMH99IMVGKL9PMBWHFUY9DXBPYULWOLH9LNVSQKKDSQRJCURWNYVVAJOGIVT9BS","address":"XGQXXIWMDS9GMWHHQUMRASNLVODSYYZXPKZYSXEVFEVCUFWCZ9VCTTVGMLTDLSJWICIIOENV9HNFETRZ9","optimalPurchaseTarget":-100,"optimalPurchaseTargetScore":-100,"availablePurchaseTargetList":[],"optimalSaleTarget":-100,"optimalSaleTargetScore":-100,"latitute":"51.374628","longitute":"0.112488","amountDemanded":"3","pricePrefered":"14","distancePrefered":"14","energyTypePrefered":"2"},{"index":172,"seed":"K9QEDWNP9IYIWSGOWNWTYWANLHWT9RCQCCHFJ99XLCRLYDSWPQK9O9N9LSPJSHMNYUQGEAMHSWKPTKVOE","address":"ATZWOV9B9WLKRZMVZSKAKIM9LSKFYCP9IGYMUKNMKTOQERSPXNJMSXNXCVYPNDCCPDNE9BQVSKDFWURHD","optimalPurchaseTarget":-100,"optimalPurchaseTargetScore":-100,"availablePurchaseTargetList":[],"optimalSaleTarget":-100,"optimalSaleTargetScore":-100,"latitute":"51.082057","longitute":"-1.505196","amountDemanded":"6","pricePrefered":"15","distancePrefered":"15","energyTypePrefered":"3"},{"index":173,"seed":"IRF9IBDNBURHHHUREXRQVTIKDEIOUHGUVSCBIFJYIIQF9RDKEHALMQTTUPRADWVS9FHUBDTK9DXJTYADV","address":"CSYLWOZYGTHTXWJ9RR9ACOL9RPWVGATXBWCVP9CBYONSASUIRFLUSGMRQSJVIOAMDEPAYSHZWMPGTDKVB","optimalPurchaseTarget":-100,"optimalPurchaseTargetScore":-100,"availablePurchaseTargetList":[],"optimalSaleTarget":-100,"optimalSaleTargetScore":-100,"latitute":"52.013763","longitute":"-2.244906","amountDemanded":"4","pricePrefered":"14","distancePrefered":"12","energyTypePrefered":"3"},{"index":174,"seed":"BWIMBO9RDYTPIHLLYIUYUC9QJCHCSQOUTUIKUQXMGISUCMKJTAHGBTFKIVPIEC9KBTFN9DDBNRMELHNHP","address":"LJLUJUZQBYXCTWQWHSKC9VAR9NCFELKJDMMOSIQRQXQPSUHZGYKSXRSBLVWCCEI9LD9TPQAWWV9BXKJIW","optimalPurchaseTarget":-100,"optimalPurchaseTargetScore":-100,"availablePurchaseTargetList":[],"optimalSaleTarget":-100,"optimalSaleTargetScore":-100,"latitute":"51.391277","longitute":"0.152615","amountDemanded":"1","pricePrefered":"14","distancePrefered":"11","energyTypePrefered":"0"},{"index":175,"seed":"RYUUUKYWDGRBKYUPNOTNPVHJUJKDDTJWEAXFHNOYQOYBTXIPUPQFLGXEPELXPLKANKMCQF9NMHVWAEYP9","address":"VZWPIGPIONZALPDITPBCXYNXPSZRMLPZRCJVWHHNILKUUKCWLFWISBRGPNZEKWXVXPFQQVZFJALYOCDWD","optimalPurchaseTarget":-100,"optimalPurchaseTargetScore":-100,"availablePurchaseTargetList":[],"optimalSaleTarget":-100,"optimalSaleTargetScore":-100,"latitute":"52.436548","longitute":"-1.342534","amountDemanded":"3","pricePrefered":"16","distancePrefered":"10","energyTypePrefered":"2"},{"index":176,"seed":"MMVLDBSTGCSWGGWLUPOSQMONNY9SBFBBUPQEHBAPUIHLDWPHGEGIDGCKCQ9PQ9RCXWKFKCUUALARANFMI","address":"QLQUZ9RGTW9CBTOVTSWASZSXEPXSRLZIEFZBCLEOUSNYFDIEFNWXYUNPBSYIOYBTTNRRIF9WLLFTIDEDW","optimalPurchaseTarget":-100,"optimalPurchaseTargetScore":-100,"availablePurchaseTargetList":[],"optimalSaleTarget":-100,"optimalSaleTargetScore":-100,"latitute":"52.035486","longitute":"-0.985538","amountDemanded":"5","pricePrefered":"16","distancePrefered":"12","energyTypePrefered":"1"},{"index":177,"seed":"CS9GSBDARW9FLSMOJBFFOBKIJDFJ99CXNMCSTPQRLRTXQIGGLUWORYOSFSSWPECQ9CMQIWOGEMJFOUYIN","address":"XM9YAAKJKOXXGOGBTTWNFH9IDEHNYRITQMFQKBVKEPSWCGNDDUEHATRXKYLMTPFWLZWSLDPNZEVCVBRFC","optimalPurchaseTarget":-100,"optimalPurchaseTargetScore":-100,"availablePurchaseTargetList":[],"optimalSaleTarget":-100,"optimalSaleTargetScore":-100,"latitute":"51.500739","longitute":"-1.839579","amountDemanded":"4","pricePrefered":"14","distancePrefered":"12","energyTypePrefered":"1"},{"index":178,"seed":"MMRBVNRWKGYQTRAVX9MG9JLRYOLPWACSAJNUGUIGU9SGITQY9OLWVAWEDNWV9JQCEACRTFQMXWCYMAERE","address":"YIRBKEYSHYABKMTRFMQNQJLHQFFYHTKK9XBEXZRWWVGX9RMFBJRLCKTSJK9C9FN9TROYKYRIC9IVCTUPY","optimalPurchaseTarget":-100,"optimalPurchaseTargetScore":-100,"availablePurchaseTargetList":[],"optimalSaleTarget":-100,"optimalSaleTargetScore":-100,"latitute":"52.234770","longitute":"-1.142672","amountDemanded":"1","pricePrefered":"15","distancePrefered":"13","energyTypePrefered":"0"},{"index":179,"seed":"AKKIFKFOSQXPF9GSWKFGBCRYFAELMOEIDVPGJHACTDIA9IUYCIILFKMYYQDKIEKTKHCCIWVLKKYCRERAE","address":"UYBYEHXWVZBSTJTZUMZABTJFSEOM9IQJHCLGSFRYPZIVDAEWJLCIZGOPXXYGPZYKGXPZJKDAVUWPXVEHY","optimalPurchaseTarget":-100,"optimalPurchaseTargetScore":-100,"availablePurchaseTargetList":[],"optimalSaleTarget":-100,"optimalSaleTargetScore":-100,"latitute":"50.963532","longitute":"-2.186291","amountDemanded":"6","pricePrefered":"15","distancePrefered":"10","energyTypePrefered":"0"},{"index":180,"seed":"JNMQOCOKHS9XOJQP9XBOMRPMQTYNDEOMYAEXITM9MKKBOSAWCHWQJBR9VVCKILUYEUAAWDUVARWQSWARL","address":"NCMNTAKJKZSFUGHAUFTSYKYGXWXFMSINMXZGDS9NRHYNASJCCUZKXWTCMDLR9UOIKLQZKHJDZZPXOBBQW","optimalPurchaseTarget":-100,"optimalPurchaseTargetScore":-100,"availablePurchaseTargetList":[],"optimalSaleTarget":-100,"optimalSaleTargetScore":-100,"latitute":"51.362118","longitute":"-2.033978","amountDemanded":"2","pricePrefered":"16","distancePrefered":"10","energyTypePrefered":"2"},{"index":181,"seed":"BDAYVURVTUXJVIFEJDQ9NVQIPC9KNIAOGTFORKKAGAUKWNFAEWYWPLKMIRFCUSIKULEWJMOAWIHPCDYWI","address":"LVVZOOIVOULRT9DHNQTUBCJVYVJNCKQCUHVTGIVBZSSCINJIVWPJXFOZFXK9YNXBSHEUENCGXJNXPJCGA","optimalPurchaseTarget":-100,"optimalPurchaseTargetScore":-100,"availablePurchaseTargetList":[],"optimalSaleTarget":-100,"optimalSaleTargetScore":-100,"latitute":"51.002931","longitute":"-1.723304","amountDemanded":"4","pricePrefered":"14","distancePrefered":"11","energyTypePrefered":"3"},{"index":182,"seed":"YPSBEIYBVOQUQVJXROISVCAECWSAW9NURHCSMXRRAMFWTEYHPVPEMQRJSEJVGHJOJSSEENOPMJVW9DKQR","address":"LBTMLY9LOEDIITK9BBTXJAIPPZZITYZTMN9TLF9ARAIATHBOZUKFSDFOKEWTPZUDUZZSWOIWOQDPXCYYY","optimalPurchaseTarget":-100,"optimalPurchaseTargetScore":-100,"availablePurchaseTargetList":[],"optimalSaleTarget":-100,"optimalSaleTargetScore":-100,"latitute":"51.754587","longitute":"-1.961670","amountDemanded":"3","pricePrefered":"16","distancePrefered":"13","energyTypePrefered":"1"},{"index":183,"seed":"CSTPK9CWSQNBSABBPKTVPTKGRIVIDPTLKMRBYXINFLEFCASHFWNHURVKOPTTSCCLHOG9DLXJIHKSPHVJF","address":"WWUPCKPBS9H9CABHNGNRDRANKDWQZZLGTIOUPRA9WNZWNBAMHAGCZAMIGPCOOWBOQISCUFRUGFOCYHR9C","optimalPurchaseTarget":-100,"optimalPurchaseTargetScore":-100,"availablePurchaseTargetList":[],"optimalSaleTarget":-100,"optimalSaleTargetScore":-100,"latitute":"51.281293","longitute":"-1.343588","amountDemanded":"5","pricePrefered":"14","distancePrefered":"11","energyTypePrefered":"0"},{"index":184,"seed":"ARD9GSIMJHOXTYUBLWHJIOLGADOOBQTYVEJSMOBKEWMVCBAWWOEJFCVKN9FKVQAJYOYQHNGUTNDRDTCMC","address":"QCQOGYQADSPHCKCCEPCINJFKQPJXDLPRODJDOHI9UHZYLNZBQVHHJVCDHRMTWCSLSSYCOQMUBWFZFBIZW","optimalPurchaseTarget":-100,"optimalPurchaseTargetScore":-100,"availablePurchaseTargetList":[],"optimalSaleTarget":-100,"optimalSaleTargetScore":-100,"latitute":"51.505411","longitute":"-1.901200","amountDemanded":"4","pricePrefered":"16","distancePrefered":"15","energyTypePrefered":"0"},{"index":185,"seed":"QIPKHXBBGODAIFBEU9JHUWGKGDIABYRUQXXYYXHSYWALKDJAOHHJX9BSLNHUXRAQTUXSAVSBDTYVVMJUD","address":"YN9ZAWBDDBYFXHNWOUDUBRAZUBZ9GUJOXTNEYQCHUGMYECZB9MDBCVELGSKHOOGQXUIMSLENMJUZOXUMW","optimalPurchaseTarget":-100,"optimalPurchaseTargetScore":-100,"availablePurchaseTargetList":[],"optimalSaleTarget":-100,"optimalSaleTargetScore":-100,"latitute":"51.202470","longitute":"-0.694812","amountDemanded":"2","pricePrefered":"15","distancePrefered":"12","energyTypePrefered":"3"},{"index":186,"seed":"GDKGTCOIRBU9XAYVJFETEM9ANPRDHAJJTOIVUGMXEPFNYEYCUPGPNNXO9TIUXSGUSTL9GAUBSQWTNEDWR","address":"XNSXKTGSLSR9GEFFWXPKYCXYLTG9PVIJYYVFJJTKAKRVOEUGVRNIEFOBGXBWDSWQITUZCUN9PTPFTQLFZ","optimalPurchaseTarget":-100,"optimalPurchaseTargetScore":-100,"availablePurchaseTargetList":[],"optimalSaleTarget":-100,"optimalSaleTargetScore":-100,"latitute":"52.315349","longitute":"-1.383081","amountDemanded":"4","pricePrefered":"16","distancePrefered":"15","energyTypePrefered":"1"},{"index":187,"seed":"GNTQAIBPEWHAJWNXOILP9XNY9UHMMCKFJHRYLMNWJNEYSCYSAFAUGNICENKCWNKQEP9KSTIKDUHDTKGBF","address":"BXHXRVCETKKGLOVY9MKBPHSWLYUFGKSXDR9YCMWGNBVCLAZQNALRPKLBFWGSBJTCIMSUCSSDWDOKXGQY9","optimalPurchaseTarget":-100,"optimalPurchaseTargetScore":-100,"availablePurchaseTargetList":[],"optimalSaleTarget":-100,"optimalSaleTargetScore":-100,"latitute":"51.433689","longitute":"-2.209581","amountDemanded":"3","pricePrefered":"15","distancePrefered":"12","energyTypePrefered":"1"},{"index":188,"seed":"WGS9QXBJTISQRET9NNKQYAWUPHDEEHEFXMWWHHTCVMJFTYBLLYESTH9FFDFVRUOPUDDDJDFOEVLRWWMXC","address":"APCYAZKLBQPXOGJDVZDCWVX9FIPRLQMNZJXROIXLGFXKECTAIMYDZZZXOEOFFNRANRWMJNFNZUJBOLILZ","optimalPurchaseTarget":-100,"optimalPurchaseTargetScore":-100,"availablePurchaseTargetList":[],"optimalSaleTarget":-100,"optimalSaleTargetScore":-100,"latitute":"51.922540","longitute":"-1.333977","amountDemanded":"3","pricePrefered":"14","distancePrefered":"11","energyTypePrefered":"0"},{"index":189,"seed":"KFFCOEBISHJEHTCVFFWCSX9L9JF9GGXOHDAJVLIJCUBCURFJ9TLASPQDHAVOHVIVN99GY9RT9HDH9CHVI","address":"MPQOPCDLLGPBXMPNTFPBNRSGRYGTHQNYRL9TOKTHEVA9MFKSLIISNBVYQZIKWZRKXBHPIVOBTLEZBAILW","optimalPurchaseTarget":-100,"optimalPurchaseTargetScore":-100,"availablePurchaseTargetList":[],"optimalSaleTarget":-100,"optimalSaleTargetScore":-100,"latitute":"51.746295","longitute":"-1.819915","amountDemanded":"6","pricePrefered":"15","distancePrefered":"11","energyTypePrefered":"2"},{"index":190,"seed":"JS99FWHRFRRCHELHQTHPVYIDHQMWBK9UMBQXDTBLXK9KVCPBNVEKHXLFTCFSX9CX9XHUWHIIUGRILRMKK","address":"DCNRWZCWVWBVJDJEPLFPQMEBVYIPMHQOITHFBAWIFFBVCDXQEFXTUTKIADXSMFQXNFGJJQBFNFIUIOEJD","optimalPurchaseTarget":-100,"optimalPurchaseTargetScore":-100,"availablePurchaseTargetList":[],"optimalSaleTarget":-100,"optimalSaleTargetScore":-100,"latitute":"52.356953","longitute":"-0.816566","amountDemanded":"3","pricePrefered":"14","distancePrefered":"10","energyTypePrefered":"3"},{"index":191,"seed":"TFWLYY9LJOFYFJEKHTYIHPVXH9FNYYEEGGCTYNRJVH9LBYHMVIJYXEXXUHEOQRMPJSNPQGVMHFLPLXWEL","address":"RJWK9AOBIFVPVEYBUXSZFBZPEYRMTNQ9TLTWCXAPTVBJBUQCGDT9SAYKDKMLWHIJLLQXORLAJZYUWTPLB","optimalPurchaseTarget":-100,"optimalPurchaseTargetScore":-100,"availablePurchaseTargetList":[],"optimalSaleTarget":-100,"optimalSaleTargetScore":-100,"latitute":"51.998628","longitute":"-1.352718","amountDemanded":"5","pricePrefered":"14","distancePrefered":"14","energyTypePrefered":"4"},{"index":192,"seed":"XTASBOCNWPTXWBGIQMAOAQDYLEVDBKPXXNKXQA9C9CEXS9EVBPUVGVLQFMCPB9EWGHIKWYBGNWHVFFYXE","address":"D9IEYPMPQSPXQQYHXKRPZLLFUDEYXLBKMEZSGURHXHFJZCLOJJIFAITHXUVDVUHLWXDXKFPMLIDDXMHSB","optimalPurchaseTarget":-100,"optimalPurchaseTargetScore":-100,"availablePurchaseTargetList":[],"optimalSaleTarget":-100,"optimalSaleTargetScore":-100,"latitute":"51.548831","longitute":"-1.396325","amountDemanded":"6","pricePrefered":"15","distancePrefered":"12","energyTypePrefered":"2"},{"index":193,"seed":"TWKUSDNWOETO9DTBWLMWQLUKUWJQFS9TXMYIJHWMNCQAYGUNJPRICNWGGELKWTWEIYYAALS9CQYOGHIFN","address":"LMHWMKMXWEEKBGTQBZKGMBUJPHHVJFXVVVCUYBGAXYPMHBCZXEGNECVORGJPMKGOD9FSCAVFBFDBECYP9","optimalPurchaseTarget":-100,"optimalPurchaseTargetScore":-100,"availablePurchaseTargetList":[],"optimalSaleTarget":-100,"optimalSaleTargetScore":-100,"latitute":"51.063320","longitute":"-0.548226","amountDemanded":"3","pricePrefered":"16","distancePrefered":"14","energyTypePrefered":"1"},{"index":194,"seed":"MCHWAWXFGUBKKMVINPBEGEFOBEWLADKU9LJVQVCQ9LKA9XSTYJCFKQGPAIBXIQIKBF9YMIAGTGUXOVHUW","address":"KIGSEMOXZAPXZHNJOTENNYFXRJEINUPZH9IAXVFCMRGAEUBNPDHBDYBNIPYEHCIRRGX9PTWQPXDNDFCGD","optimalPurchaseTarget":-100,"optimalPurchaseTargetScore":-100,"availablePurchaseTargetList":[],"optimalSaleTarget":-100,"optimalSaleTargetScore":-100,"latitute":"51.749138","longitute":"-0.664251","amountDemanded":"2","pricePrefered":"15","distancePrefered":"14","energyTypePrefered":"0"},{"index":195,"seed":"9YPIDSNJAUTQWCTXKJSEPULAKPP9KVSSK9GWJBLMBHXBOJPPTTYPRDICTKGRNITRU9GGATQBSVQSKBYYS","address":"DVEDKSSBBPZKJOBPODHCKYJBZQQJRKXFCWJXWZKFGTHU9ELCOLPJEJBG9VFQ9MSBKDPMJXTOAXEMDZRWY","optimalPurchaseTarget":-100,"optimalPurchaseTargetScore":-100,"availablePurchaseTargetList":[],"optimalSaleTarget":-100,"optimalSaleTargetScore":-100,"latitute":"51.679111","longitute":"-2.326748","amountDemanded":"3","pricePrefered":"15","distancePrefered":"12","energyTypePrefered":"1"},{"index":196,"seed":"NAAWNPLCSNVLA9EUNPCAIPFGKRVXTRNIUFSIALPEMD9VNHJEOXOHGHX9LSKF99SAUJNIUPHPMDKONTRG9","address":"NDAOPGVXU9ORLKHNLTIALMQOKUOSITXRMV9ETLXDBBQ9PJAO9AMISGFV9YKEZHSL9BFSMPAUBDVWJFFTC","optimalPurchaseTarget":-100,"optimalPurchaseTargetScore":-100,"availablePurchaseTargetList":[],"optimalSaleTarget":-100,"optimalSaleTargetScore":-100,"latitute":"52.104300","longitute":"-1.739322","amountDemanded":"3","pricePrefered":"14","distancePrefered":"14","energyTypePrefered":"4"},{"index":197,"seed":"IQSDIJSQOTEOMOKYMO9THNYNRLQFBSKAWSDUTYOBAEUPLSOUHRIRUPQWJEWWGF9YITQCETDJPVM9VAPBW","address":"MMG9NZFXDMZIZXAEPLYALDLXLKCSNBSMYIWADMEBTUYD9RTBVBLEYCWSONUUOYOWFPNY9SFUDN9ATXMWB","optimalPurchaseTarget":-100,"optimalPurchaseTargetScore":-100,"availablePurchaseTargetList":[],"optimalSaleTarget":-100,"optimalSaleTargetScore":-100,"latitute":"51.040507","longitute":"-0.523856","amountDemanded":"5","pricePrefered":"14","distancePrefered":"11","energyTypePrefered":"1"},{"index":198,"seed":"DOHK9E9V9YFSWCRHWHWVFAJOHT9ERAHMIJ9DMWQV9JHGKPQOKWUVRNCOCWB9DBTQA9UNOECRYXLLOYVVQ","address":"9BNIIKLMBLSUAVKFH9NV9NDVYCBCMROTQPZYCKEHHLXGYUKFQCFEMSRKBAMXZLRMMMOZJAMXZYYO9LFEY","optimalPurchaseTarget":-100,"optimalPurchaseTargetScore":-100,"availablePurchaseTargetList":[],"optimalSaleTarget":-100,"optimalSaleTargetScore":-100,"latitute":"52.111767","longitute":"-1.641284","amountDemanded":"4","pricePrefered":"16","distancePrefered":"10","energyTypePrefered":"1"},{"index":199,"seed":"OEGTMFSRSADNQAVTVOUAHOE9WHYSUFQDEQUSFCYDF9GXHQDWNAIKFMAWB9BXSFEAPJNJBQNR9NPQXAASN","address":"MGAPDA9FPDUHUBLLMME9CKJHPZEZXGYWTDPJXVTEAWCFYDTWQKSNETLFOSQJQOIWEMUHTWYHYN9FTXKXD","optimalPurchaseTarget":-100,"optimalPurchaseTargetScore":-100,"availablePurchaseTargetList":[],"optimalSaleTarget":-100,"optimalSaleTargetScore":-100,"latitute":"51.409601","longitute":"-2.139851","amountDemanded":"6","pricePrefered":"15","distancePrefered":"11","energyTypePrefered":"2"},{"index":200,"seed":"NBPHIONRHVQOMUYISY9NXDEXOTMSLUGNBXCDSUYDSHVHXNPXTBDEIEPCBQLPYKEPBEDCHEASHABIDNUBN","address":"ROYORMOMJBRSQKEGEYNBNBWZYMRMXJS9UFD9KNTKDEAWQLKFCNEIEJKQMNZLMVOGIKDLJJEUE9W9WBCCW","optimalPurchaseTarget":-100,"optimalPurchaseTargetScore":-100,"availablePurchaseTargetList":[],"optimalSaleTarget":-100,"optimalSaleTargetScore":-100,"latitute":"51.984312","longitute":"0.043240","amountDemanded":"2","pricePrefered":"15","distancePrefered":"12","energyTypePrefered":"2"},{"index":201,"seed":"XQGJJDYXCT9JTUGK9TSFYHXCXXHKGRIFDHMJWUNSBIIVKHUATPDNSGJASTLQVDHYLNGBRWG9EEEYCKQLL","address":"9NZXHHBSDHKLZDGNPAMJPLHKLDSRNNECCJXXWTUJKFKCEHDLJCKK9TKSQJUJXEIHZGJ9BHCLXSLRBGTBD","optimalPurchaseTarget":-100,"optimalPurchaseTargetScore":-100,"availablePurchaseTargetList":[],"optimalSaleTarget":-100,"optimalSaleTargetScore":-100,"latitute":"51.595087","longitute":"-0.469505","amountDemanded":"5","pricePrefered":"14","distancePrefered":"13","energyTypePrefered":"4"},{"index":202,"seed":"QBWEGIYNFWAPDKQXKRW9CWQSVDRFXVPTBWVFCNG9RDRIWWOFQHVLEPRWWTNLNWYUWIQVROHCNKISFTEUY","address":"VKTNEDMDLUQDMKKVPCCGDQAYEJJGSLUISDHKMDLGAITLATLDDNUKGIZXZNAMZLOEEWSUYCTWMWTJZUGKD","optimalPurchaseTarget":-100,"optimalPurchaseTargetScore":-100,"availablePurchaseTargetList":[],"optimalSaleTarget":-100,"optimalSaleTargetScore":-100,"latitute":"51.167411","longitute":"-0.045289","amountDemanded":"5","pricePrefered":"15","distancePrefered":"12","energyTypePrefered":"3"},{"index":203,"seed":"RAQFGPQ9KTUTYYQHIPQHVBPEKJDSWXNWNGVJXJLHQFOEQNUQOPMVIKGNBVUAXPYODSLVGLKAMSKGTMCVT","address":"RJUCAT9YKIWHFTNF9CYLVKDQTZAVPDLIBXMNFULMVGTVBLIQBANZCQ9KXAOKHJSIUOQGHZUQTFWIFZUYA","optimalPurchaseTarget":-100,"optimalPurchaseTargetScore":-100,"availablePurchaseTargetList":[],"optimalSaleTarget":-100,"optimalSaleTargetScore":-100,"latitute":"51.179339","longitute":"-1.661585","amountDemanded":"6","pricePrefered":"15","distancePrefered":"10","energyTypePrefered":"2"},{"index":204,"seed":"MBBPEYMTWUYTHIQJFKFNCNDPLNBPJBEDVJGUWPMX9BLKGFJTYAMCXINI9KCOHSGYOBASMGRUNLVQENLVJ","address":"MKFLNZSAZDCXVPJFW9GSOYSVBZIWSGJMOKUXPC9DGNVHWPRTTWCGFFBSFMSEIOTOBOATN9UIYFRXVMDZD","optimalPurchaseTarget":-100,"optimalPurchaseTargetScore":-100,"availablePurchaseTargetList":[],"optimalSaleTarget":-100,"optimalSaleTargetScore":-100,"latitute":"52.039339","longitute":"-2.059434","amountDemanded":"6","pricePrefered":"15","distancePrefered":"11","energyTypePrefered":"2"},