[{"index":0,"seed":"QAVVLGCQJQWENHQLTIVRYRJPXIFFWAEQDRNIQMHFTKPHDVGGKQI9RCVFDTYHIRLFWYVLVQXNPNEKELDTX","address":"DZUMGTKPNCVCVYWJMP9YTKEGAKDQM9SAZBXOPLKBOCJZYBNFMP99D9SWPC9D9TSOLANDLRKYGBMBCVUNW","optimalPurchaseTarget":-100,"optimalPurchaseTargetScore":-100,"availablePurchaseTargetList":[],"optimalSaleTarget":-100,"optimalSaleTargetScore":-100,"latitute":"51.733857","longitute":"-0.482885","amountDemanded":"1","pricePrefered":"15","distancePrefered":"12","energyTypePrefered":"0"},{"index":1,"seed":"RIUNFQLKFYEDMKWOVVQQSPWPPGYVSNMKOYHUQYNCMGSFLLCHQDQRDTW9USWQXLDLAYXE9NTYENM9TWVXA","address":"9NPATJJKZXFRNAWCFIUPHVIJQPZHNZOVWEMYJ9WUFRFOPYGLOK9VTDJYGUWJWMWZACXWDQFPNNBGYPTQ9","optimalPurchaseTarget":-100,"optimalPurchaseTargetScore":-100,"availablePurchaseTargetList":[],"optimalSaleTarget":-100,"optimalSaleTargetScore":-100,"latitute":"51.480512","longitute":"-0.026497","amountDemanded":"4","pricePrefered":"15","distancePrefered":"11","energyTypePrefered":"3"},{"index":2,"seed":"9ESNTVGQSUNKXRSHGX9MJAXKNJVAQXHKHIRJXHTGRYDXSUQUYKBEBBJJQWDV9F9WFKJEGCNPONJSE9VUT","address":"CKUT9AJFQKLGQW9RATLGGOKLHDEBMVLHWAHZDLVACTQNLNTQKRMTUNPYSPIZMEXKDMJJOSL9CNCXHEIAW","optimalPurchaseTarget":-100,"optimalPurchaseTargetScore":-100,"availablePurchaseTargetList":[],"optimalSaleTarget":-100,"optimalSaleTargetScore":-100,"latitute":"51.424209","longitute":"-1.052547","amountDemanded":"6","pricePrefered":"14","distancePrefered":"13","energyTypePrefered":"2"},{"index":3,"seed":"EH9GGVBEXIMGEWPMRHSHTAAKEF9LQPRCRVNMPRCBLUKDEFAWXXPYLQYMQGEENUET9SFTNRGNOKWNJJNGF","address":"UAHOIZNFKWNWJUCBHDMDBZEBBVUHKPZYXTVBZAJ9EKWUXVYDGIGCRXJTLXLPBNCMUCPZKAFDCFEHCQIBY","optimalPurchaseTarget":-100,"optimalPurchaseTargetScore":-100,"availablePurchaseTargetList":[],"optimalSaleTarget":-100,"optimalSaleTargetScore":-100,"latitute":"52.019005","longitute":"0.052351","amountDemanded":"4","pricePrefered":"15","distancePrefered":"13","energyTypePrefered":"1"},{"index":4,"seed":"RQNHIVMTKOQBCHBOQYPKVTVSJFPWJXBSRNTAUNVGOGE99KMXNKTJ9KFFCULSQCWOXXBMOFPNVUNDJXDVT","address":"SIFDONKNUCUTFCFVWAWORY9SQBHCQKCCNMNZWYITTOSVDVMGFCRSAW9ZDGVIMUD9QQNBCLADBPGLKWRQW","optimalPurchaseTarget":-100,"optimalPurchaseTargetScore":-100,"availablePurchaseTargetList":[],"optimalSaleTarget":-100,"optimalSaleTargetScore":-100,"latitute":"52.202291","longitute":"-0.077516","amountDemanded":"3","pricePrefered":"15","distancePrefered":"15","energyTypePrefered":"1"},{"index":5,"seed":"BFNOKJYRHUTXDWHJW9SBYQDCCJL9AXXHLPJYSTGPVLOARGFULBGOEDDUDSCJ9WWPDB9NKGWRNVBQHCKAL","address":"ETVGTHCYSXLOECEMLNTUMUQBEDETKESNWFQRVIAIFCAQXEQTFJCCLRIJQXSVTQPIWFJHDKQFVISWOFG9W","optimalPurchaseTarget":-100,"optimalPurchaseTargetScore":-100,"availablePurchaseTargetList":[],"optimalSaleTarget":-100,"optimalSaleTargetScore":-100,"latitute":"51.637975","longitute":"-1.797188","amountDemanded":"5","pricePrefered":"15","distancePrefered":"13","energyTypePrefered":"3"},{"index":6,"seed":"OLVMSSNDWXXQWVHTELXIAHLEXG9QHLDXHSFEWCVBHESDELJBVUXCNAJVEEQDNSELIW9SJHDROBCBMRFS9","address":"TJAPRQSBBGNB9PLDVNKKUFFNZCPQHDXY9MDZOMYILNEHVAHNKHOS9VAXHUCKHV9XWFUGFNQZXYMWBUVFA","optimalPurchaseTarget":-100,"optimalPurchaseTargetScore":-100,"availablePurchaseTargetList":[],"optimalSaleTarget":-100,"optimalSaleTargetScore":-100,"latitute":"51.602536","longitute":"-1.329813","amountDemanded":"6","pricePrefered":"16","distancePrefered":"11","energyTypePrefered":"3"},{"index":7,"seed":"HMLTQVP9AMKWEGSPYC9HNCRXKFALYJDLHRSWKSODAJPXESWVEKQSRUMLOCAUHMCXAYXGWXAXSHUNQOOBM","address":"RA9BIUYDTRHRUDT9BOXHSJHGFMEITKESZEGAWTMLU9XNMMQGPBZEFWQSSALLDQOXXTMW9WWF9UKXH9ALC","optimalPurchaseTarget":-100,"optimalPurchaseTargetScore":-100,"availablePurchaseTargetList":[],"optimalSaleTarget":-100,"optimalSaleTargetScore":-100,"latitute":"52.387822","longitute":"-1.973230","amountDemanded":"3","pricePrefered":"15","distancePrefered":"11","energyTypePrefered":"2"},{"index":8,"seed":"E9BOI9WTQXWPPVSXTCHPQLMAWTIOERXNHPPW9QHAFI9KVXCCYNJ9XOUXNCIPONHUBXPAKNBEACTINELCW","address":"YQTJJCAKDLDAWOSBJAWLH9UEL9ZNYRMUVNNXCWSWMTJPTMOITTSUVNNKNYLGUFLKZHENFDJVBJMRKKDIB","optimalPurchaseTarget":-100,"optimalPurchaseTargetScore":-100,"availablePurchaseTargetList":[],"optimalSaleTarget":-100,"optimalSaleTargetScore":-100,"latitute":"51.069374","longitute":"-0.863134","amountDemanded":"2","pricePrefered":"14","distancePrefered":"10","energyTypePrefered":"2"},{"index":9,"seed":"YJNXCCRXLLRBP9FOJURWVIOCHCQLEWXCIGQCR9JQYKOCWCYWQSASYOWXAGRJANFO9LPMMAHVKWBFGKBFU","address":"QQJOPMOIXLBGOBLDTZOSGBNZA9PSUVQXTAAYUYAMCTKR9HDUO9RRFGXNCWXEXGTEIZBUDH9SV9TOUQCZB","optimalPurchaseTarget":-100,"optimalPurchaseTargetScore":-100,"availablePurchaseTargetList":[],"optimalSaleTarget":-100,"optimalSaleTargetScore":-100,"latitute":"51.833210","longitute":"-0.798549","amountDemanded":"2","pricePrefered":"16","distancePrefered":"14","energyTypePrefered":"4"},{"index":10,"seed":"OCTLXYQHJQMDYITUKDYQAKFJIHTSUGUV9LVRCUYFJHSDAXFQSIRIWFATVYSSJIUESECSRPPEOKNFWAS9J","address":"RKGSCTQKJXAPJXSLBILEXSNIAOPBBYKVXUBXSWWGSHHVIBQBTOHVSJVBGZYULHDAYUGFEHMJZQEHJKXGA","optimalPurchaseTarget":-100,"optimalPurchaseTargetScore":-100,"availablePurchaseTargetList":[],"optimalSaleTarget":-100,"optimalSaleTargetScore":-100,"latitute":"52.381729","longitute":"-1.781055","amountDemanded":"2","pricePrefered":"14","distancePrefered":"12","energyTypePrefered":"1"},{"index":11,"seed":"CLK9WKGXILFFQVHBJSEVYMUGCXCRIVBXILPCQCQLPJEMMCETNBCKSGCGIDUGAA9LYX9PMFHQVXJJJGQXK","address":"QKR9CJECJKV9QUSSGTJBTGUIOIPTCELFFBWZWSHNAXWRBVLIDTAZZUDNECESXOVDXA9RNP9QGTPPQBVZ9","optimalPurchaseTarget":-100,"optimalPurchaseTargetScore":-100,"availablePurchaseTargetList":[],"optimalSaleTarget":-100,"optimalSaleTargetScore":-100,"latitute":"51.788961","longitute":"-0.312450","amountDemanded":"3","pricePrefered":"15","distancePrefered":"10","energyTypePrefered":"1"},{"index":12,"seed":"HBECQBKJQKJJFPXWQTDHVDGHJIONRREBVHQUYRKAHPVOTPDRFCJRFKPKRSKODHIPGQYWWXRFXOVGEXNHO","address":"CRJNSQID9JVQCDSQPQHV9ZKXCFAEAIJVCQ9Z9BHTIADGDZYCFCMVNMMFXBLPLDGK9UNOL9VBUTYMX9KDX","optimalPurchaseTarget":-100,"optimalPurchaseTargetScore":-100,"availablePurchaseTargetList":[],"optimalSaleTarget":-100,"optimalSaleTargetScore":-100,"latitute":"51.679019","longitute":"-1.640426","amountDemanded":"2","pricePrefered":"15","distancePrefered":"14","energyTypePrefered":"1"},{"index":13,"seed":"LXPRNKOWAWSAHLGHGRFKRSSCJKXTEMRHPVMIHHAORMNWX9IEDDKBFGETVLXSCINDBNAWYMKEIWBQDKCGD","address":"FFIYJQVCHKPPNXKUZSLUTEKLRTJDRSNFQELAMQOUCOTRWUHRSJUYFJKBCVAENKNHDQWKWSULNKYOXCUPY","optimalPurchaseTarget":-100,"optimalPurchaseTargetScore":-100,"availablePurchaseTargetList":[],"optimalSaleTarget":-100,"optimalSaleTargetScore":-100,"latitute":"52.433423","longitute":"-1.429889","amountDemanded":"6","pricePrefered":"14","distancePrefered":"11","energyTypePrefered":"3"},{"index":14,"seed":"PKEMDFAELXCWY9KKYRDBGFHVUVVKHKNSIMESUFW9RJSHSIACVLULYUSVXSFMLKIPRQJPBBSCBSHOEELEK","address":"LFMUAUWUHTAYGXZEQMULPNCJNLJSHUYAVREXHKZPLSOLHIYWIHTGT9AVD9FCO9ZHAJBSXNBV9HQZTYSZX","optimalPurchaseTarget":-100,"optimalPurchaseTargetScore":-100,"availablePurchaseTargetList":[],"optimalSaleTarget":-100,"optimalSaleTargetScore":-100,"latitute":"52.087526","longitute":"-2.015805","amountDemanded":"2","pricePrefered":"15","distancePrefered":"14","energyTypePrefered":"3"},{"index":15,"seed":"X9FNKUGHI9DTCJXL9CS9NIDEGGWBEADESKPMQ9BIRLXQNSAWRTALXWMVYCDELMCEOWYNKXD9IABKHR9LH","address":"DAGV9IVUUERGZPHABZZCYYIXLKMUWVSKKPTWSNXU9NCNDZYZAQMZIKXNWFMOTFWIJTMRPCKUAGPHPHDHC","optimalPurchaseTarget":-100,"optimalPurchaseTargetScore":-100,"availablePurchaseTargetList":[],"optimalSaleTarget":-100,"optimalSaleTargetScore":-100,"latitute":"51.476849","longitute":"-2.104122","amountDemanded":"4","pricePrefered":"15","distancePrefered":"14","energyTypePrefered":"2"},{"index":16,"seed":"QOTNBNCDNQBBFC9IHJCROVCFYROADCVLRFCLASEFXIPEJKJE9CG9FJIWXKKJ9FRMPBUINSOTIMUMKVVHJ","address":"VFXNSDPMGDZNXUMMPXPY9JSUA9LCIQMHQROWVFPKRLHEHP9QNOBPFMRZ9RENQDENZAWGHIBERGZPYOKJZ","optimalPurchaseTarget":-100,"optimalPurchaseTargetScore":-100,"availablePurchaseTargetList":[],"optimalSaleTarget":-100,"optimalSaleTargetScore":-100,"latitute":"52.299851","longitute":"-0.710135","amountDemanded":"6","pricePrefered":"16","distancePrefered":"11","energyTypePrefered":"2"},{"index":17,"seed":"XFDAIQPLNPOFUJTCYUXRHQBTIFULQRQYXTOIUSBJ9AMLH9KPLULOMKBCCBQTCWOVHGQWWMLLIXKFDSXBP","address":"BFOEUVHXQXNJHZYNFNGVBVXNLL9QUDLKCUVYBAVQXCVXADOFXZAICBCDCZQSAPJVOZMWSYXAAGRPZ9XJD","optimalPurchaseTarget":-100,"optimalPurchaseTargetScore":-100,"availablePurchaseTargetList":[],"optimalSaleTarget":-100,"optimalSaleTargetScore":-100,"latitute":"51.164219","longitute":"-1.805942","amountDemanded":"5","pricePrefered":"16","distancePrefered":"12","energyTypePrefered":"4"},{"index":18,"seed":"CA9YTYYRPLC99BJF9WOKVIGCN9RQ9XHURLYKLQVHRNSXQLVHSBHB9PWGOCALQNCSTNELJNDNMRJAGPDQE","address":"TDCBPQLSUIWKEWGFEGCCDCDK9EUFGLBMDHEBHFGAPCBYDRZPHTSJFRAGJCOVEYESKNVJAOYUQCMKAHEU9","optimalPurchaseTarget":-100,"optimalPurchaseTargetScore":-100,"availablePurchaseTargetList":[],"optimalSaleTarget":-100,"optimalSaleTargetScore":-100,"latitute":"51.401705","longitute":"-0.418529","amountDemanded":"5","pricePrefered":"14","distancePrefered":"10","energyTypePrefered":"1"},{"index":19,"seed":"ATSRNQJSSITTISMMCJPWHLSUAETIUT9XFYSSMSDXVFOHFCFNIMUUGKUUU9A9DJLACGFFAKLMD9VVBSQGS","address":"QTYWKIZPLEKHGUKIQ9DNWRDEVNEHFZZJAQROAASATKHEICKUAYVFZ9DLHULSSHGSDCDUDZEVIJIWCCKXW","optimalPurchaseTarget":-100,"optimalPurchaseTargetScore":-100,"availablePurchaseTargetList":[],"optimalSaleTarget":-100,"optimalSaleTargetScore":-100,"latitute":"52.074494","longitute":"-1.787582","amountDemanded":"4","pricePrefered":"14","distancePrefered":"10","energyTypePrefered":"3"},{"index":20,"seed":"X9LJYBQVOBVERFEMSUDTXISEEMH9OPNYFFOYXLGXFKWYEVAIFGXUSPQAWBQTDAMVOIWKPYHOMOSSYCSQM","address":"QSJBNKDOPPLGVTVFWSPSXXCGWGFOKZSWOPSAPOKRSELWEIXLZJLATHPUO9PSPNWMLXRKJGMRKP9LINWUD","optimalPurchaseTarget":-100,"optimalPurchaseTargetScore":-100,"availablePurchaseTargetList":[],"optimalSaleTarget":-100,"optimalSaleTargetScore":-100,"latitute":"51.952356","longitute":"-1.197366","amountDemanded":"1","pricePrefered":"14","distancePrefered":"11","energyTypePrefered":"4"},{"index":21,"seed":"ATTMIGEQRFJNRGUCLGUYH9CGXYESHGDWODMBAQGUEJETNIOBIYOVFQB9PJNU9GJJR9NKEYKVEMDHYOQUG","address":"HPIUI9EBPASCYQF9N9EXDI9DPMYODY9AQXRLTWQWKBEW9AMZDUSYTVOAI9EVEHWRJEDBHJMECQQIAUFVW","optimalPurchaseTarget":-100,"optimalPurchaseTargetScore":-100,"availablePurchaseTargetList":[],"optimalSaleTarget":-100,"optimalSaleTargetScore":-100,"latitute":"52.270213","longitute":"-1.313112","amountDemanded":"2","pricePrefered":"15","distancePrefered":"11","energyTypePrefered":"3"},{"index":22,"seed":"VUF9WUSKVRWSBHBOGBAAOHIBYALEMBWDJPPSPRTLWNQAHICRADWGKOV9NDHORBFUNMXLXSMKJYLOGYVJV","address":"GSQZCQTAGGZHRNKKFUMHONCUVEPU99FDCMLJSIFGK9KGNSAOZ9ZGFSIKLDFAOFPQV9XJYMUDVBFWXETMC","optimalPurchaseTarget":-100,"optimalPurchaseTargetScore":-100,"availablePurchaseTargetList":[],"optimalSaleTarget":-100,"optimalSaleTargetScore":-100,"latitute":"51.934769","longitute":"-2.022449","amountDemanded":"2","pricePrefered":"14","distancePrefered":"14","energyTypePrefered":"4"},{"index":23,"seed":"OJRGVWCYWXGM9LCXOCJBQAULBAJFNNYEMTEPFFDFSPJVTNYAMAOUFPVCWVJCX9TIRXFWGHEOBGV9EDCVQ","address":"FGBWUXTAUXXVCPKJOOLDITYSDZPILFWUI9DHDRJW9PMHAQELWSEAKWYA9YIIRHPOZLOHVUIJPOVBCGBD9","optimalPurchaseTarget":-100,"optimalPurchaseTargetScore":-100,"availablePurchaseTargetList":[],"optimalSaleTarget":-100,"optimalSaleTargetScore":-100,"latitute":"51.918637","longitute":"-1.348339","amountDemanded":"2","pricePrefered":"15","distancePrefered":"13","energyTypePrefered":"2"},{"index":24,"seed":"XWGRRSPUNGOHEDUMUYYJXGHWWWGNHVN9NBIEYRLISBOYNLMTPARCMHUNBMSUVNW9FOPULLRNBBVDNLJVV","address":"GILDDYNXO9LQEUPGVYMNYEEYQEEUVKBKMYABAOUFIDAFZTFQPGQSWLMQXSIPSS9RPCKWSKHIVGG9DIUVW","optimalPurchaseTarget":-100,"optimalPurchaseTargetScore":-100,"availablePurchaseTargetList":[],"optimalSaleTarget":-100,"optimalSaleTargetScore":-100,"latitute":"52.332529","longitute":"-0.940718","amountDemanded":"4","pricePrefered":"14","distancePrefered":"11","energyTypePrefered":"2"},{"index":25,"seed":"WMJCV9UTBDALCRMLEYIIDMDOGWU9DXSJMDRFKOVAEGVMQVFXSSNCXQFGDRKXNVFAXBRPSXNGLAYXTBGUE","address":"LDCOGCVEPAINJRERXESXBUOEHRNIIMSTXFRS99IIDKZUDMGOBUKHCFWHEZFWWYORDRQWHE9NJNTXWDQCY","optimalPurchaseTarget":-100,"optimalPurchaseTargetScore":-100,"availablePurchaseTargetList":[],"optimalSaleTarget":-100,"optimalSaleTargetScore":-100,"latitute":"51.166282","longitute":"0.080322","amountDemanded":"5","pricePrefered":"15","distancePrefered":"14","energyTypePrefered":"0"},{"index":26,"seed":"WRCULQGXKDQEREUWRXKCKRCGASKJEYEQ9QYPEYPVOJRXOXSQCUAWMIJMWBWBEGEEHTLEIYPKHDFGMOGTF","address":"VOOBDPFHYJJACSPQEI9ETYXMS9ZFKERLIAFTOGMQSZQMXMOLVXURKDRHD9NMHKVFVMWXMYERXCKLGEMQ9","optimalPurchaseTarget":-100,"optimalPurchaseTargetScore":-100,"availablePurchaseTargetList":[],"optimalSaleTarget":-100,"optimalSaleTargetScore":-100,"latitute":"51.481550","longitute":"-1.718354","amountDemanded":"2","pricePrefered":"16","distancePrefered":"11","energyTypePrefered":"1"},{"index":27,"seed":"OKEWMKAXXXTXQEHWHFTQ9CJCITKGGRACVATARUIMTNMOXFFGMJIWMYMGNSJFKGTBYXKRJJTWRIQYDJPLY","address":"JTLGLIQA9ZNKELCBQSOEUTSUOYPLLZNMQWYEVZSLOWG9WYJUWMNITSTJYKPUONYJGEXSWJGMG9WKLIYQZ","optimalPurchaseTarget":-100,"optimalPurchaseTargetScore":-100,"availablePurchaseTargetList":[],"optimalSaleTarget":-100,"optimalSaleTargetScore":-100,"latitute":"50.968423","longitute":"-1.742583","amountDemanded":"3","pricePrefered":"15","distancePrefered":"12","energyTypePrefered":"2"},{"index":28,"seed":"LFOLSYOMPESYYTFVFTTNOHBWISKER9JIYHOMDQHMYQQGCCMLUOBDJPFEFKUKKFUCPIMWBFHBBM9IWQFPR","address":"SO99PXGTDHEPGLH9WTPJVNCFZXNDRTMWLBTAZACUIWGAIQAAHWNJGMCXHNOZJVWTQYHKKEPFYFFBOATPB","optimalPurchaseTarget":-100,"optimalPurchaseTargetScore":-100,"availablePurchaseTargetList":[],"optimalSaleTarget":-100,"optimalSaleTargetScore":-100,"latitute":"52.082550","longitute":"-0.838130","amountDemanded":"6","pricePrefered":"15","distancePrefered":"14","energyTypePrefered":"1"},{"index":29,"seed":"XTSSESFWGIMYMJURPDAWPANHITQGGRHCHKWPMUHQUOUYWFIYUTWGCHVAVERCVKMWHRCMRVEKUKJYO9GXI","address":"QFDCK9TYIZYBSEAWUSGJNJVRNNIBTBFLEHXFYPUMTSYZZ9EG9DGIUNIYVEDRXUA9IOSFRPOLBFZRXNMKB","optimalPurchaseTarget":-100,"optimalPurchaseTargetScore":-100,"availablePurchaseTargetList":[],"optimalSaleTarget":-100,"optimalSaleTargetScore":-100,"latitute":"51.452236","longitute":"-1.282405","amountDemanded":"2","pricePrefered":"16","distancePrefered":"13","energyTypePrefered":"3"},{"index":30,"seed":"PQYIHYVKSQDPEJCJOMWYCPXXWEVFBALFJDH9PBLA9WSKOJBVETYBUEXEVANBBHNWLXQJPPOVRAAIFV9MP","address":"HWUGTKPGOBIPGXMYLVKLAGKXNYDZHVSKZCJAIPFYMDDYXOKZBAQA9PT9H9KFRENDNRZ9BZKQZSSLWXOZW","optimalPurchaseTarget":-100,"optimalPurchaseTargetScore":-100,"availablePurchaseTargetList":[],"optimalSaleTarget":-100,"optimalSaleTargetScore":-100,"latitute":"52.313123","longitute":"-1.855652","amountDemanded":"4","pricePrefered":"15","distancePrefered":"14","energyTypePrefered":"1"},{"index":31,"seed":"TFPVHR9EWCQWQCYXABQCYFJFLFFYGYYLBUKXXB9EUAOBILAQOFHFQVNYBISJNUJVOIIAQAOYDJBBSDDRV","address":"VXEYUQHUCRHWRVUALNQFYQFWHJVZB9AV9YEF9QCOJWBLLSSJIMHKRUGVIBWZWIFJZS9TZZZYDCMLLSYEY","optimalPurchaseTarget":-100,"optimalPurchaseTargetScore":-100,"availablePurchaseTargetList":[],"optimalSaleTarget":-100,"optimalSaleTargetScore":-100,"latitute":"51.000241","longitute":"-2.183099","amountDemanded":"6","pricePrefered":"16","distancePrefered":"13","energyTypePrefered":"1"},{"index":32,"seed":"EYGO9UXQVV9PBRULLNCRWECLTJBWBDG9UTTLQPYDDHTYOQCLXTEBYKHWCNTXCUGUAOTOYXMFNPPDSUBPN","address":"LF9PINYPJMDSMHRGRALJVOEFSSCEIKOKWVLZMEOZPBPEBDVSXQOSFSC9PZHFZGFKAPTD9LBKXLHEOPPBX","optimalPurchaseTarget":-100,"optimalPurchaseTargetScore":-100,"availablePurchaseTargetList":[],"optimalSaleTarget":-100,"optimalSaleTargetScore":-100,"latitute":"51.479402","longitute":"-1.127608","amountDemanded":"2","pricePrefered":"14","distancePrefered":"13","energyTypePrefered":"2"},{"index":33,"seed":"QGHUUNEFAOICKNSYWBFBWMGCDMAAGFFWPAYGRQBBYEREEIGNWMOMRWLVSANRRCP9OLBHXSAARIMRYOGUS","address":"YCKXJJPGPTAKCJXURKAOUPFIAHAYBEABOJTUXB9DPKPNFDWNNDHTZXXIEADEVXNDKLMDFMQYPPMTMNSJW","optimalPurchaseTarget":-100,"optimalPurchaseTargetScore":-100,"availablePurchaseTargetList":[],"optimalSaleTarget":-100,"optimalSaleTargetScore":-100,"latitute":"52.425289","longitute":"-0.981975","amountDemanded":"2","pricePrefered":"16","distancePrefered":"11","energyTypePrefered":"2"},{"index":34,"seed":"HIBTYBCRWSUEWUIWINEYEHMJPNNJUXOWAYOXUGKDRMRTLHUWJLXSWQCLVTYOPCYRVJCMRQRBMWT9ADVPD","address":"ODWIRSKQSPOXMULIZYTQSPVOSQGBYBGYLWSRJKZDNDBDXVJMKVVJOOUADEFPJCPXJCRHQAJSH9UOJIARX","optimalPurchaseTarget":-100,"optimalPurchaseTargetScore":-100,"availablePurchaseTargetList":[],"optimalSaleTarget":-100,"optimalSaleTargetScore":-100,"latitute":"51.175045","longitute":"-0.279646","amountDemanded":"2","pricePrefered":"16","distancePrefered":"14","energyTypePrefered":"3"},{"index":35,"seed":"9N9XUEQGSHIEF9PDJF9BHAPIRSWDPP9SNLASIYDGVCPIJPJKXYDCDAIELNDIWUTTLUCISXUOLLIYFOAID","address":"YZDCZAAQFLLEGBPAO9GIEPEFOELIUIWQFNFAYPNLYWUJJXUEHIUFWWWNP9EVBZSBLTXIUC9MM9AWHKUIW","optimalPurchaseTarget":-100,"optimalPurchaseTargetScore":-100,"availablePurchaseTargetList":[],"optimalSaleTarget":-100,"optimalSaleTargetScore":-100,"latitute":"52.360324","longitute":"-0.038858","amountDemanded":"1","pricePrefered":"14","distancePrefered":"12","energyTypePrefered":"3"},{"index":36,"seed":"YNQGGGGQSCAYOLKFL9AXIJAVFRRXEXVPAMNWKULBELXCUDLKFDOAIGHRMFUITWIWMUJJBL9CFLANCHWNI","address":"DARDCEH9UTYIDMUHQWCOQL9HEEQXQ9RNPOEUPOXKMHKIPDZHXHYIIOKO9LGUHAQDDPPOYSLJFGKDSRWQA","optimalPurchaseTarget":-100,"optimalPurchaseTargetScore":-100,"availablePurchaseTargetList":[],"optimalSaleTarget":-100,"optimalSaleTargetScore":-100,"latitute":"51.393042","longitute":"-1.048091","amountDemanded":"5","pricePrefered":"15","distancePrefered":"13","energyTypePrefered":"4"},{"index":37,"seed":"OIN9MEKOA9QTNRQWKVIFULDGSVNKYUQPTCLFSCKTIAKWNXDSDVORIXGREDPLDWOEJ9PI9GLWEDOJJRVPQ","address":"UTWHNSORHHKKFTSSAFGPDTDFAVNDKRAZXDJCDTNLTJ9AVRHBKPYDALOSCE9PMFMLQIRTMCRUOKBRFJQOD","optimalPurchaseTarget":-100,"optimalPurchaseTargetScore":-100,"availablePurchaseTargetList":[],"optimalSaleTarget":-100,"optimalSaleTargetScore":-100,"latitute":"51.305403","longitute":"-0.017169","amountDemanded":"3","pricePrefered":"15","distancePrefered":"14","energyTypePrefered":"0"},{"index":38,"seed":"LNGVTGVF9JEATCEYVJJUYSKYCJHGGMG9AKGOEWVAFTCRHNFCRGYVDIWAWWFRIMVOEBMHNMOGNVRESWJGV","address":"GOGMNAHBDPXRXQDFXHFRLBCNDQKDOVT9VQUWVMGPUDICTUQVKRPBNBHVLJRFALHGZBCOOQPWBXLODJGLY","optimalPurchaseTarget":-100,"optimalPurchaseTargetScore":-100,"availablePurchaseTargetList":[],"optimalSaleTarget":-100,"optimalSaleTargetScore":-100,"latitute":"51.058947","longitute":"-2.014162","amountDemanded":"3","pricePrefered":"15","distancePrefered":"13","energyTypePrefered":"2"},{"index":39,"seed":"HVOXIVBAKNDQUJPEWEOHGVJBKCAWBJLLWB9WSXLVTPNRTAVFFFGP9YVKYJYGEFUW9HNMHEBOQREHCGVGN","address":"BSCNJJBTIVMAZLV9NMEEAQFVWUCHRZWCKONCQGHJZGG9XIJMSZ9FHVJJQNTIUIIRSMNGB9WVODNEAWJAB","optimalPurchaseTarget":-100,"optimalPurchaseTargetScore":-100,"availablePurchaseTargetList":[],"optimalSaleTarget":-100,"optimalSaleTargetScore":-100,"latitute":"51.582203","longitute":"-0.046053","amountDemanded":"5","pricePrefered":"16","distancePrefered":"11","energyTypePrefered":"1"},{"index":40,"seed":"BTYSPETOFIWKRNESQFU9SPIHXDWAVMRWIKRYESMJV9FYRWGHTBOPPWNERUAEQNKKHXOVACRXNYJFGTXWV","address":"UDRVIGLRKJYYH9CZZBOZSGQWHEXTWLZMUEKXWTWRIIWVBQLGWNANSEEYEWHHQWPODA9RAOPDTS9QZEDE9","optimalPurchaseTarget":-100,"optimalPurchaseTargetScore":-100,"availablePurchaseTargetList":[],"optimalSaleTarget":-100,"optimalSaleTargetScore":-100,"latitute":"51.522669","longitute":"-0.333842","amountDemanded":"6","pricePrefered":"16","distancePrefered":"11","energyTypePrefered":"0"},{"index":41,"seed":"SBPRAKKMBCCWKCDQNMBBYONIHLSTAXOGPSVXGK9OWSTIOXSBASCRL99SVYUIQXOCNRROAELLSSJCWFNDN","address":"HKYWFYYPQBDWQL9QVLPDNYJYNSQADYING9LNJSJSGFGSAQVTHLPUHXR9IMHRIHHGAZHAOIQOIVWVVYYNX","optimalPurchaseTarget":-100,"optimalPurchaseTargetScore":-100,"availablePurchaseTargetList":[],"optimalSaleTarget":-100,"optimalSaleTargetScore":-100,"latitute":"51.885472","longitute":"-1.587536","amountDemanded":"2","pricePrefered":"16","distancePrefered":"10","energyTypePrefered":"1"},{"index":42,"seed":"DWRNLKWSEENHITIOXCNBTI9TCIXOMRNWPVOUHUVBXUVNEWUJQQIEG9YBFGJ9MQCXWGC9NWASWUGRVPSDK","address":"HQFNVAAXJJPYE9WBZRDLLTZQJRPQRPRUUAIZODIZEOPHQAFUDGUQKM9VXJEQQYOJPIEGTHAZCGSWPKRCZ","optimalPurchaseTarget":-100,"optimalPurchaseTargetScore":-100,"availablePurchaseTargetList":[],"optimalSaleTarget":-100,"optimalSaleTargetScore":-100,"latitute":"52.373350","longitute":"-1.636636","amountDemanded":"3","pricePrefered":"14","distancePrefered":"14","energyTypePrefered":"2"},{"index":43,"seed":"9NWLGVUANNCXMNOEYFFVU9GVI9KQOXIWNNEOTWEUGWBHDBVFDPLJRRY9FMUGNKWBDBDODPIRKGW99QGHK","address":"TDPAJHJNRIEUXVENIUZCWOYMSMCOWKFOLEIJZCIVLNHIKUGDASSJSHBCYQKHAXJTPQNFLLVOGHQDCTPV9","optimalPurchaseTarget":-100,"optimalPurchaseTargetScore":-100,"availablePurchaseTargetList":[],"optimalSaleTarget":-100,"optimalSaleTargetScore":-100,"latitute":"52.195097","longitute":"-0.636582","amountDemanded":"3","pricePrefered":"14","distancePrefered":"14","energyTypePrefered":"1"},{"index":44,"seed":"UHMGFFVSDVUV9SWT9IRQAALPSEQEJDYBKHNDPIDGWYYBSFGKXFTQWMJIYUSFQXQKUJT9TKXUQLFFRTJVK","address":"TEWVUVHNLL9Q9HEAWSRXJOWIKQSZDHHRBYCM9RRQOKRJYARVQCBRIZGWQIUNAPRRZFCUDOKDBDGIMKCHX","optimalPurchaseTarget":-100,"optimalPurchaseTargetScore":-100,"availablePurchaseTargetList":[],"optimalSaleTarget":-100,"optimalSaleTargetScore":-100,"latitute":"51.390388","longitute":"-1.929352","amountDemanded":"4","pricePrefered":"14","distancePrefered":"10","energyTypePrefered":"3"},{"index":45,"seed":"MBEPXGAMPXTMQQRWKDOVPT9J9QBWQJTMV9CILPNGAFBGX9JAKEEIFWXUHOWEMODWIIHIIRWGIPPDNRLTX","address":"TCWOVLTTEPEI9REIOXUHBBHAYAALOFKTGFKLXXFFYQSARPEOSIRPMCGZXAXEATLTTAWBDIHIOFXBD9RXY","optimalPurchaseTarget":-100,"optimalPurchaseTargetScore":-100,"availablePurchaseTargetList":[],"optimalSaleTarget":-100,"optimalSaleTargetScore":-100,"latitute":"51.637140","longitute":"-2.110821","amountDemanded":"2","pricePrefered":"14","distancePrefered":"13","energyTypePrefered":"4"},{"index":46,"seed":"JGQRKJTVNMXQSAKEE9EVKOPIHRAMNUXIIWUBAWDJKKMOOSRIUKVTYMEGWRRQMDKIOAMJSGKYQNUATYDQT","address":"LBUMDIIQFVUNUWEHPTBRAO9XUMAKR9MRQITRJPQRTB9SYCFZELSXVIEQXADQRTAKNTRKKLPVPOUWLFEU9","optimalPurchaseTarget":-100,"optimalPurchaseTargetScore":-100,"availablePurchaseTargetList":[],"optimalSaleTarget":-100,"optimalSaleTargetScore":-100,"latitute":"52.054112","longitute":"-2.179825","amountDemanded":"5","pricePrefered":"15","distancePrefered":"11","energyTypePrefered":"0"},{"index":47,"seed":"SHNBBBYRNLLIWADFPWTPXVGGRJMEHWSQALHNWKMRRKOEOSRFAODROVNSCLCIADFXS9U9VH9FGBQXRNYWF","address":"JVNVNKOPYAH9UNXE9HXAXRSJIWFFBPOBQIJZYJEAQTCSPYESQIMKXTSSQYXGVENRQBDTZFTGUMZNSIQND","optimalPurchaseTarget":-100,"optimalPurchaseTargetScore":-100,"availablePurchaseTargetList":[],"optimalSaleTarget":-100,"optimalSaleTargetScore":-100,"latitute":"51.327365","longitute":"0.017909","amountDemanded":"5","pricePrefered":"15","distancePrefered":"12","energyTypePrefered":"2"},{"index":48,"seed":"NWTHOSUHOMIYYCL9XJJUSRTKJBBYDMLAEEQEHGMFAWSVXPQEHULWEVVBFNNYJBPUQHDABFSQ9YD9YJCWP","address":"TWCAANIBLO9CZPZAQKNDJE9MCHUSFMXTWVYO9BYXAANYNXCEQPKNMHYKRPTCPRPHUCMEUG9TEZQSICKW9","optimalPurchaseTarget":-100,"optimalPurchaseTargetScore":-100,"availablePurchaseTargetList":[],"optimalSaleTarget":-100,"optimalSaleTargetScore":-100,"latitute":"51.861462","longitute":"0.256914","amountDemanded":"4","pricePrefered":"15","distancePrefered":"12","energyTypePrefered":"2"},{"index":49,"seed":"FUGQGJPOGAYYFNBQGF9VGWQAQKIYDEYSGMAICR9SPRSCKAKCIMFABKSWFTXG9COXNOQBYMYRGADIMTWLD","address":"ZRNWOEKWSFRHYAZYHOOTPVBZKINZHXUPQDZASZEG9UKWKUVWYGYLQWSLUTACSWQAO9XBDCMAEUMXBLTND","optimalPurchaseTarget":-100,"optimalPurchaseTargetScore":-100,"availablePurchaseTargetList":[],"optimalSaleTarget":-100,"optimalSaleTargetScore":-100,"latitute":"51.674242","longitute":"-0.838801","amountDemanded":"6","pricePrefered":"14","distancePrefered":"11","energyTypePrefered":"1"},{"index":50,"seed":"PFWLSKHGYQAEAHSXOQIVL9IUQMESSTDXCOJECMPRQMTHJGDKNGEPHKCDHKBCOTJFRPIUNBGLOKDSVSTKH","address":"KBZXEESUHEJNPSASTTEPE9VQITBIHN9GIKCRYSDURCCLWCRHBZAEIKZJDCKXTWQYJZXHYKYDIEIDADDWA","optimalPurchaseTarget":-100,"optimalPurchaseTargetScore":-100,"availablePurchaseTargetList":[],"optimalSaleTarget":-100,"optimalSaleTargetScore":-100,"latitute":"52.261405","longitute":"-1.622782","amountDemanded":"2","pricePrefered":"15","distancePrefered":"11","energyTypePrefered":"1"},{"index":51,"seed":"HYXQCLKJHH9QUYNOGHEQXEEVUONPTCILMIXLYFVEQSKBENYSHVIGGSQCCUFQBYFMNFEXBFFKPUOVJFGNX","address":"VWDHUQQREDJT9JJJBYXIQVFUMKYONYSDCZ9GMMCICPXDZLUMDUMMGIQAOBRIYDIMEGEWT9G9MYWTYVRQW","optimalPurchaseTarget":-100,"optimalPurchaseTargetScore":-100,"availablePurchaseTargetList":[],"optimalSaleTarget":-100,"optimalSaleTargetScore":-100,"latitute":"52.357419","longitute":"-0.303809","amountDemanded":"2","pricePrefered":"15","distancePrefered":"10","energyTypePrefered":"1"},{"index":52,"seed":"EXJXBSFAWKERDLPWMAFICDNPSNAE9AGCMTWFHSAOYOHFVSVAXHKNJUYPVKOXFXEHRHFSUAHACCMBHY9OF","address":"WAFRTEYOKDMERGIVBRRDAACIHZNEXSJWONCZMIXNB9CNFUNERDUKPPFYRPLXQCNATSMULUSSHYSJEJILC","optimalPurchaseTarget":-100,"optimalPurchaseTargetScore":-100,"availablePurchaseTargetList":[],"optimalSaleTarget":-100,"optimalSaleTargetScore":-100,"latitute":"51.763643","longitute":"0.047692","amountDemanded":"6","pricePrefered":"14","distancePrefered":"10","energyTypePrefered":"3"},{"index":53,"seed":"9EKHTFIWHAUJ9DIANEDKBGGEDIELXOXWCHNWGVYYLSIJLVCHODG9LGWNXVLKWWERGKQYIKWVFSGI9WEDL","address":"LSOIESTQMJXWVESOPGEGAZQBRGDYKAZCJYCCD9BJZETTWKXGH9IPIQYRLSHYSFRRDYWYFMWXMEHBPTNMD","optimalPurchaseTarget":-100,"optimalPurchaseTargetScore":-100,"availablePurchaseTargetList":[],"optimalSaleTarget":-100,"optimalSaleTargetScore":-100,"latitute":"52.256142","longitute":"-0.088579","amountDemanded":"1","pricePrefered":"14","distancePrefered":"13","energyTypePrefered":"2"},{"index":54,"seed":"JLDYRWAMACUCBAEYPAPPEH9CBOGPHBWMMV9XXRXJMJYPGYHWRXBO9LIIKKDF9NUAXCDHNLFKBQOJKAMGM","address":"XYQLMXVCDKTALMWWQZICJDTAKYVLDDYZBRUHZQHIUAEUJEJQPPWNXXKWQFXLIAEQPSUUPVDSH9NZQLMJB","optimalPurchaseTarget":-100,"optimalPurchaseTargetScore":-100,"availablePurchaseTargetList":[],"optimalSaleTarget":-100,"optimalSaleTargetScore":-100,"latitute":"51.891064","longitute":"-1.514942","amountDemanded":"6","pricePrefered":"15","distancePrefered":"12","energyTypePrefered":"3"},{"index":55,"seed":"UDAEDBEKXNSSSNTWXJHOYXOQFOR9KS9DFJCJOMORVXKEYN9HOEBKWBOFLOOCI9HEUMYWPFDQKPXEGQFOO","address":"REVLKGMFTGFVPBHD9OZMMILSBTAHBUYSIGQANTTCRJTBDRSIBZRNNTXCINXQRPFGQNIFZYPGWSG9AETOY","optimalPurchaseTarget":-100,"optimalPurchaseTargetScore":-100,"availablePurchaseTargetList":[],"optimalSaleTarget":-100,"optimalSaleTargetScore":-100,"latitute":"51.664252","longitute":"-0.204272","amountDemanded":"2","pricePrefered":"14","distancePrefered":"13","energyTypePrefered":"1"},{"index":56,"seed":"99JPLITXSQXQWAESSDTJKQYICUNTFEKOYTG9RDDJGIAADLCDEM9RTQOFCUFJJCELKRERCFGTWMEXTINSV","address":"ZADYKCOZWHLDFMMZ9CWBLEFRUOFQUUI9NUMFUYF9ZXRTUEPUMCZTRUDYMHJFHMFDAVLPAVDFJUVXAOPWX","optimalPurchaseTarget":-100,"optimalPurchaseTargetScore":-100,"availablePurchaseTargetList":[],"optimalSaleTarget":-100,"optimalSaleTargetScore":-100,"latitute":"51.313405","longitute":"-0.040717","amountDemanded":"5","pricePrefered":"14","distancePrefered":"13","energyTypePrefered":"1"},{"index":57,"seed":"NXQCWDKTMUYAPFXLQSLRSHFFYVKGLMKI9NPTOOINUDXEUDDIKYXRLOEJGIXEWLXIWMPXSRMCJKHIYMBXS","address":"9KKTEIOMWQKRZFNKMWFXADWLWFXMRGYLGMIMSPGQYBDLKREKJNQDARKOUATDVYFAIHPGZVFF9NBXDEGSX","optimalPurchaseTarget":-100,"optimalPurchaseTargetScore":-100,"availablePurchaseTargetList":[],"optimalSaleTarget":-100,"optimalSaleTargetScore":-100,"latitute":"51.704793","longitute":"-0.603454","amountDemanded":"2","pricePrefered":"14","distancePrefered":"14","energyTypePrefered":"2"},{"index":58,"seed":"KKOJVVXUJNAXWBHWTWOTTEYSBDIVOPYQSYYXYGCBBXUGIKTJEKG9XUGAHCPULSMUHHHV9QAHMGXLMKKKV","address":"KAAGOULFJSQRCVAYLGYHRXVHVAJF9URFUNOSFYZKQJUWACCOYVMLWIXNCQSVM9JQPTCDMPYIVPVF9HMRA","optimalPurchaseTarget":-100,"optimalPurchaseTargetScore":-100,"availablePurchaseTargetList":[],"optimalSaleTarget":-100,"optimalSaleTargetScore":-100,"latitute":"51.759365","longitute":"-2.169593","amountDemanded":"2","pricePrefered":"15","distancePrefered":"13","energyTypePrefered":"1"},{"index":59,"seed":"LILAKQV9GRQKDOVBTMWJMOABKLBQQNIHRYXKQBAKXGQTCYMYYACFCGXQDEWIKXHEFCRFWJUQGLLHY9MHN","address":"OLBAMEFZBEPIJKMN9ZANYAKKPYFYACFHFV9EVAJPIOLFA9JIYLGZYKPOQKNCXRCFPC9JIGCNA9NPR9ZID","optimalPurchaseTarget":-100,"optimalPurchaseTargetScore":-100,"availablePurchaseTargetList":[],"optimalSaleTarget":-100,"optimalSaleTargetScore":-100,"latitute":"52.226850","longitute":"-0.989602","amountDemanded":"3","pricePrefered":"15","distancePrefered":"14","energyTypePrefered":"4"},{"index":60,"seed":"BAKVEKTSWXGCPQEUJMU9RKFTRLXFLUVIJBMEGDXXJYNBHQ9RHTCJLLTXXOMMPWMFBUCSHRNIOMMUUVXDT","address":"QMMSJOYRJOYHDBSUIYUJBMNTYEHKZJDVJXMVQLOOVHFQGXXPWFACIVWWAWRQRSTJVSOQUEO9IMKMJIWVY","optimalPurchaseTarget":-100,"optimalPurchaseTargetScore":-100,"availablePurchaseTargetList":[],"optimalSaleTarget":-100,"optimalSaleTargetScore":-100,"latitute":"51.397133","longitute":"-1.585655","amountDemanded":"3","pricePrefered":"16","distancePrefered":"14","energyTypePrefered":"3"},{"index":61,"seed":"SWLS9QCHQHFJAPJJVYCPQNDRCIPJCFJXGACMTVWFSU99DNYOQIWVTOCTPMMUM9MBIWRAXMINBBXHF9IJ9","address":"LHLIHSEEVOUM9MGONDKEKQPXZQDVERMQHEPLWANZLFFELTKPYABQTRLRXDLUXD9MNKDG9TTETQTRNITZC","optimalPurchaseTarget":-100,"optimalPurchaseTargetScore":-100,"availablePurchaseTargetList":[],"optimalSaleTarget":-100,"optimalSaleTargetScore":-100,"latitute":"51.754868","longitute":"-1.445806","amountDemanded":"6","pricePrefered":"16","distancePrefered":"14","energyTypePrefered":"1"},{"index":62,"seed":"BQGKWVXITQWSESLJ9HVMMLTTOMBJOLRUHHVDGIIGDENMA9TOIGFTGEHEGUCAGGCPJPCTGPLYJDBEKYAEY","address":"YTMRTWQJF9OWEYVFALMEJJYCIMUZKQ9FSXVR9YWSMJ99KYWLBCKHCONJM9XEJVDXABEDCVTVOOAUR9SXD","optimalPurchaseTarget":-100,"optimalPurchaseTargetScore":-100,"availablePurchaseTargetList":[],"optimalSaleTarget":-100,"optimalSaleTargetScore":-100,"latitute":"52.300851","longitute":"-1.480488","amountDemanded":"1","pricePrefered":"15","distancePrefered":"13","energyTypePrefered":"1"},{"index":63,"seed":"EDEGEEQATWQTLRFLHMESQYX9BRJGMSVDCMO9OGKGCF99ARLKOCSJBJHHHXNUKENETKAUQOVQ9WGBTYEQM","address":"MJKJSOBIRODJINRETLNIINUVOWHQJBBQUSKROIUXZHINYEMNQIPGPSJHLFIYTUBQPEJHEIWXZBGHUIZPD","optimalPurchaseTarget":-100,"optimalPurchaseTargetScore":-100,"availablePurchaseTargetList":[],"optimalSaleTarget":-100,"optimalSaleTargetScore":-100,"latitute":"52.081302","longitute":"-2.182121","amountDemanded":"2","pricePrefered":"14","distancePrefered":"11","energyTypePrefered":"3"},{"index":64,"seed":"VWHPSTBCGNGEPYXGYUXMAFVLGYQBNXODCIPUGLQBHDGDPWGGH9HRWJMYEMQEWWPKVHRXK9DUAYLRNRGNT","address":"DAEQNRUVPWQOKGAKYIBPKGOMLCDUD9XLQJFAJIFKINIOMDUJUHDPQCKPHQBEFEOLSRGHB9LEUILVYSZXB","optimalPurchaseTarget":-100,"optimalPurchaseTargetScore":-100,"availablePurchaseTargetList":[],"optimalSaleTarget":-100,"optimalSaleTargetScore":-100,"latitute":"52.210023","longitute":"-1.095074","amountDemanded":"5","pricePrefered":"15","distancePrefered":"11","energyTypePrefered":"1"},{"index":65,"seed":"PPIYSKSFMCJMMCXDBSWIPYBYBWYRXCHLRCOFGFORTKQWSYTWVCCTXTLBJIYAYAOJIKDUK9JNUQUQNSCSI","address":"XXQDOMBYXCJBJVQSEHNODNOATJXIERYSVBQXOLEFFABVENNERBLKWUMDBQQFMRTQY9ELL9VRXFJRZKEPA","optimalPurchaseTarget":-100,"optimalPurchaseTargetScore":-100,"availablePurchaseTargetList":[],"optimalSaleTarget":-100,"optimalSaleTargetScore":-100,"latitute":"51.943560","longitute":"0.188221","amountDemanded":"5","pricePrefered":"15","distancePrefered":"13","energyTypePrefered":"2"},{"index":66,"seed":"DYBSE9ASDEAXWFFUYWDQKRGQLGPFSWIRRNJTTTQTOSELJRINKAWKUCRVGYGRPUUDFQMWRYCSHCYJAHQVP","address":"YHAJLDPJQT9CTWSB9EONADPVMOCXVC9KCMOPKPGRNLXURPWPYBEJWBYYWJKVZMTFBWCURASGJH9CY9HAC","optimalPurchaseTarget":-100,"optimalPurchaseTargetScore":-100,"availablePurchaseTargetList":[],"optimalSaleTarget":-100,"optimalSaleTargetScore":-100,"latitute":"51.184886","longitute":"-2.228075","amountDemanded":"3","pricePrefered":"15","distancePrefered":"14","energyTypePrefered":"1"},{"index":67,"seed":"CAULXGPBQVODLMPSOAELKOQKJ9IAUBIEHXGGLNQEIBJVKFJIKSYDCQDWYGCPVCVKB9QMFRQAKYBOBATRA","address":"G9IUEFEWGINORQMZX9QJZAIFBSZTABCNMYPBHZTXIZYJQGSSYJXUW9HVCFIVASYFMYVVOMPJJWTXPWNAZ","optimalPurchaseTarget":-100,"optimalPurchaseTargetScore":-100,"availablePurchaseTargetList":[],"optimalSaleTarget":-100,"optimalSaleTargetScore":-100,"latitute":"52.251779","longitute":"-0.298515","amountDemanded":"2","pricePrefered":"16","distancePrefered":"13","energyTypePrefered":"1"},{"index":68,"seed":"HNFHBW9YMYPOUUVBXKQBEYPAJQQMRXUIUESCXBPJKNECHOXIXKIOUUVFXAQILUVAQWY9PIMMCHOINYNLK","address":"9BISIEUAIZURVHPXLDSDNLULCSJ9KSVQDXFUEMRZRNNWYVVKHJHTXDIFLFPDOGIEWUTFTDWZWPNRUQUVB","optimalPurchaseTarget":-100,"optimalPurchaseTargetScore":-100,"availablePurchaseTargetList":[],"optimalSaleTarget":-100,"optimalSaleTargetScore":-100,"latitute":"51.916148","longitute":"0.218599","amountDemanded":"5","pricePrefered":"16","distancePrefered":"14","energyTypePrefered":"1"},{"index":69,"seed":"XXINUWPWKARMCUUPIGLOYTTDAVQTJGUAVRRCMJXVUALS9VSPXWXIJTRDIS99AWQTJECRMMAXTKMBX9MUV","address":"TLGJKVIVOPHPLOMMGKGWLYLD9MFNKWGO9BPJZXLTJCOLYBGPUXBWBJLJJIPMBFAGQDODAWACSNCAZGVNZ","optimalPurchaseTarget":-100,"optimalPurchaseTargetScore":-100,"availablePurchaseTargetList":[],"optimalSaleTarget":-100,"optimalSaleTargetScore":-100,"latitute":"51.917894","longitute":"-1.470207","amountDemanded":"6","pricePrefered":"14","distancePrefered":"15","energyTypePrefered":"1"},{"index":70,"seed":"LKDIEUX9XVBFAOIUKNQMHEMBXQDXIPFDAQABWSMNVPLHNCXSCQSAPBLRJGSANHWBYJAFSOCCINFJTXKAQ","address":"CWNGXOFX9RQQZPWRKGR9FCKHFJRVE9RRL9QVJY9PHBCSJGURQSNXHCKUCUUFOXQZOB9SNFFXVWXYIWKUD","optimalPurchaseTarget":-100,"optimalPurchaseTargetScore":-100,"availablePurchaseTargetList":[],"optimalSaleTarget":-100,"optimalSaleTargetScore":-100,"latitute":"51.586445","longitute":"-1.881153","amountDemanded":"6","pricePrefered":"15","distancePrefered":"14","energyTypePrefered":"2"},{"index":71,"seed":"JVVCCWHGKBAIWMO9O9LU9DTSLBDAHWU9QPB9IMOACTLNFPRNOUGCWIKCROSJIYJTRPCQIXTCYSRPKJCSH","address":"UKYSYDRAXJQNTTTDTUVNFQALHYRRVLEZAGHHFDNOEUWJMKITIOXQRIQUFKJY9QAROOSDTX9VSUBLNJYCX","optimalPurchaseTarget":-100,"optimalPurchaseTargetScore":-100,"availablePurchaseTargetList":[],"optimalSaleTarget":-100,"optimalSaleTargetScore":-100,"latitute":"51.613319","longitute":"-1.252088","amountDemanded":"3","pricePrefered":"15","distancePrefered":"12","energyTypePrefered":"0"},{"index":72,"seed":"CBO9YAYMINNRICRXAKDWNHCJEVUBHVAYKXLQNXNLGXWAG9MWQQAESUPJVBOGKMNGCYIW9YJPQGUKVXJCM","address":"HMCXTTKLUFGVJFNJSTKMH9SOHIVIUVSYPRZXNROOITTRAFCMMTZAJDLUDBSTJMZGSFAUNTPPXGYKQQPGA","optimalPurchaseTarget":-100,"optimalPurchaseTargetScore":-100,"availablePurchaseTargetList":[],"optimalSaleTarget":-100,"optimalSaleTargetScore":-100,"latitute":"51.138564","longitute":"-1.211126","amountDemanded":"6","pricePrefered":"16","distancePrefered":"11","energyTypePrefered":"1"},{"index":73,"seed":"9JJUJEPRBKUIPDMFIFRR9QENYATLHDFEYLMVWBFPC9YXMUITMOWQSGLDXUKRFDRFOEA9DVBHSURBXNIXF","address":"OGQUUTANZCWUWVKJM9WSIXTETDXPHXFCHUGKQZSKFWLQEPAJLZEDYTXBOCWLKVEAJSQPKLUAY9BKPGYIZ","optimalPurchaseTarget":-100,"optimalPurchaseTargetScore":-100,"availablePurchaseTargetList":[],"optimalSaleTarget":-100,"optimalSaleTargetScore":-100,"latitute":"50.999621","longitute":"-0.764066","amountDemanded":"2","pricePrefered":"15","distancePrefered":"11","energyTypePrefered":"1"},{"index":74,"seed":"9JLNDNKORCUDMMQPEDKLSAGBGUKXBYDNFNHTRCAMBDDXSFIMSENISCYLVKFGFGJHCKRAO9ORRRF9MBANM","address":"SFHTKEAPADNPDQCACG9IGCYVLDBMDMG9MYOQIUYCKULA9LCKTNVZIHRUZBI9ZZHMDHDQILJRHJVAGTOXD","optimalPurchaseTarget":-100,"optimalPurchaseTargetScore":-100,"availablePurchaseTargetList":[],"optimalSaleTarget":-100,"optimalSaleTargetScore":-100,"latitute":"52.350902","longitute":"0.263765","amountDemanded":"2","pricePrefered":"16","distancePrefered":"11","energyTypePrefered":"1"},{"index":75,"seed":"KBWORHADVNJRCE9MJXRAFLTCLFY9LSPHKTFKOXANQFOBOLDGBPK9JYHXIRTPIYLVWKSHMITEEQPITYL9L","address":"WWYIKUSZDR9FDPSVKIANHJYEXCIUGDBMK9MXCLTHLPPIAWWJHEYESWJWABWGRIISIH9UMUPYIXCSHYBPB","optimalPurchaseTarget":-100,"optimalPurchaseTargetScore":-100,"availablePurchaseTargetList":[],"optimalSaleTarget":-100,"optimalSaleTargetScore":-100,"latitute":"51.568662","longitute":"-1.180085","amountDemanded":"4","pricePrefered":"14","distancePrefered":"11","energyTypePrefered":"3"},{"index":76,"seed":"PQDJJYLFJKODFYLFBUSHCCTTVHSFXPGCESVTWJXKX9TMAPAOQVVCHFRIFITIAJWPRMYLFBPJHJALWPJFP","address":"VGTBDPLXCZGAFMBB9WEOBTIECDKJGBXWVZ9HCJQJSPTGUQSUQSHPDQTWVQQFTZNLCRWYGHUVSS9XUCEOC","optimalPurchaseTarget":-100,"optimalPurchaseTargetScore":-100,"availablePurchaseTargetList":[],"optimalSaleTarget":-100,"optimalSaleTargetScore":-100,"latitute":"51.160671","longitute":"-1.623320","amountDemanded":"1","pricePrefered":"14","distancePrefered":"14","energyTypePrefered":"1"},{"index":77,"seed":"IHGQMIQGKIIAOGPLHNKQDKL9CTKQUMFWMNX9WFDQLEQSGXLGGUKJYGRWU9HRTCEKEDGHFXOKUTHXVTTPJ","address":"UQZSIEDJQWXUSDYMKPTCSVZRPGTRWBXROGRIJZVWIXXOVVYQUIOKUTTNCVHFCJAIHREKLPPLDCOLCO9QD","optimalPurchaseTarget":-100,"optimalPurchaseTargetScore":-100,"availablePurchaseTargetList":[],"optimalSaleTarget":-100,"optimalSaleTargetScore":-100,"latitute":"51.690111","longitute":"-0.975390","amountDemanded":"2","pricePrefered":"14","distancePrefered":"14","energyTypePrefered":"3"},{"index":78,"seed":"ORMLAELEJ9NUNKMHKWNDGXRNUD9USAJIBIHEKIXF9QKDRBFIICFHYLWPPQBCB9WSVOT9DYLEOPEKJCBOV","address":"FJBAJSV9DRKGPS9GILTYMXQKXRDAFAUUMCCQVT9CMABWLENQGLUMQFNKVOJBLIR9AZFLJXJJAQPFUHFMX","optimalPurchaseTarget":-100,"optimalPurchaseTargetScore":-100,"availablePurchaseTargetList":[],"optimalSaleTarget":-100,"optimalSaleTargetScore":-100,"latitute":"52.090464","longitute":"0.199430","amountDemanded":"1","pricePrefered":"14","distancePrefered":"14","energyTypePrefered":"1"},{"index":79,"seed":"XKBKJIRPFL9FNEIQ9VKVOEH9HNWJDGVDVIJBCAQGC9EIRRWJDEPJDCOCTLDSBRSMWOOSYV9HCOBU9POQF","address":"Q9JXTNHDTWJLFQQDPDJBHTSPWAQOREHP9ERPWSGXPRVYGTZ9HUWRHYYIRZNOPFPETLQOQHARCRQZNBAGD","optimalPurchaseTarget":-100,"optimalPurchaseTargetScore":-100,"availablePurchaseTargetList":[],"optimalSaleTarget":-100,"optimalSaleTargetScore":-100,"latitute":"51.372297","longitute":"-1.287430","amountDemanded":"2","pricePrefered":"15","distancePrefered":"14","energyTypePrefered":"3"},{"index":80,"seed":"DVQPIKSPXKM99DTLHLAJJGFUESBCPN9ECVTLX9FGPHJPLQDYIOTMHBN9P9GGXRFEBTISNIXYYRDFHV9LT","address":"QHWCZPOXEF9RVC9MNNLVOKVFRNDZJAUEQT9CFYKTSLUUSIFWYYLZLDPWXINXXDYFUBYBVAFT9RIYUORYX","optimalPurchaseTarget":-100,"optimalPurchaseTargetScore":-100,"availablePurchaseTargetList":[],"optimalSaleTarget":-100,"optimalSaleTargetScore":-100,"latitute":"51.657028","longitute":"-1.511955","amountDemanded":"2","pricePrefered":"15","distancePrefered":"13","energyTypePrefered":"4"},{"index":81,"seed":"JLC9YIAMPWEQWLPFJBSNNAQFCWOCJNVXESWGOEWQIPIULFSQAPOKFKVDJWQQGAXQEMCQKSCDUIUNBQGKI","address":"MB9BGWFGXVWZWDHJRCLDZ9BZYWRKXGCIJPJNUHRSZ9AJCEZIHUIHAXPZOTUAAPPDIHXEZYNTWXPACKXSD","optimalPurchaseTarget":-100,"optimalPurchaseTargetScore":-100,"availablePurchaseTargetList":[],"optimalSaleTarget":-100,"optimalSaleTargetScore":-100,"latitute":"51.962587","longitute":"-0.752511","amountDemanded":"4","pricePrefered":"15","distancePrefered":"13","energyTypePrefered":"4"},{"index":82,"seed":"GUYUFMRNMYBLDUGCGXBHBBQEWRY9TYHQPYRFBSYMCCLMHNXJ9KMYTRLODPFS9TBRESAOCBGOGYMJJDMGE","address":"QHHLUTSVQDVZQJGUDX9NBXXBSVFHILE9EKKMDWKGMIIYNXPBZNRFIGZWTYWYGIBQULERSUAFTTXWAMLUX","optimalPurchaseTarget":-100,"optimalPurchaseTargetScore":-100,"availablePurchaseTargetList":[],"optimalSaleTarget":-100,"optimalSaleTargetScore":-100,"latitute":"51.439187","longitute":"-1.672043","amountDemanded":"4","pricePrefered":"15","distancePrefered":"14","energyTypePrefered":"0"},{"index":83,"seed":"YUQPJVJPINUQBTFUACQEHAHMJFGURGW9WUBLOVQSJGCUUDHLYXMTJPU9XXQKSTJQPMBJVUEHKUQDOUOGN","address":"NRCBKDONCAWTDDYEYRVETR9NBZCXACD9RMXJWUBVYNOFD9O9QJKIFMIACTZBPYWPPTVXAXUFUWNUSHKQA","optimalPurchaseTarget":-100,"optimalPurchaseTargetScore":-100,"availablePurchaseTargetList":[],"optimalSaleTarget":-100,"optimalSaleTargetScore":-100,"latitute":"51.526374","longitute":"-1.084321","amountDemanded":"1","pricePrefered":"14","distancePrefered":"14","energyTypePrefered":"3"},{"index":84,"seed":"NUWSIEJRXQGHOOPVEIRNENRPHAWIKPYVIFKCAUALKGYTLXUVEHFTGSKMXBYTD9FRQBHQQIUXCDIEUHMDW","address":"ZSWYUWJR9ELSTQKAYPXANDANYUJBCDBWFWTPRXUDQDGCDNUUEXZINWSCFZNICZDXKNAXDW9JZRNMVJBFB","optimalPurchaseTarget":-100,"optimalPurchaseTargetScore":-100,"availablePurchaseTargetList":[],"optimalSaleTarget":-100,"optimalSaleTargetScore":-100,"latitute":"51.913114","longitute":"-0.133278","amountDemanded":"3","pricePrefered":"15","distancePrefered":"13","energyTypePrefered":"2"},{"index":85,"seed":"RIFCXWMVIPLSVGKHGAMNSJHSXFLEJCRWKJKXRWVBYUTYFFVXHRRVLMJEJLJUMCKBXWBEQXALSOFAXYMCJ","address":"HDAHRTSWZFX9ZUUUWUBXEGYKADFEVPHFMQRXENWQ9YPIXEUKXHNBIWSATAVDJVVSVAHZFMCVDFFSASTRX","optimalPurchaseTarget":-100,"optimalPurchaseTargetScore":-100,"availablePurchaseTargetList":[],"optimalSaleTarget":-100,"optimalSaleTargetScore":-100,"latitute":"51.782051","longitute":"-2.305682","amountDemanded":"2","pricePrefered":"15","distancePrefered":"11","energyTypePrefered":"3"},{"index":86,"seed":"HEALQVCVRIY9BKWTCTWJMUSPFJF9YSHHBVSGALDEJENHLLFT9WSKACWPWWVTLRHEMYIGXAORE9MKBRSWO","address":"PVOZFIUDJNBLEKRMABXXYMAJNFHMYRRQTJKFEIQQJZZSMWQJOPUWPEBPJZVRMPFFIWHIDFNG9WLCCUEKW","optimalPurchaseTarget":-100,"optimalPurchaseTargetScore":-100,"availablePurchaseTargetList":[],"optimalSaleTarget":-100,"optimalSaleTargetScore":-100,"latitute":"52.068012","longitute":"-0.690551","amountDemanded":"5","pricePrefered":"16","distancePrefered":"10","energyTypePrefered":"3"},{"index":87,"seed":"WUKYUQALKFRUOQNXGEOMOAPIWFIWKJUHXAGWCBE9YYUCWKGG9GJ9LOSXWGULEQAKVYFA9RNTFFNBMTIKS","address":"VNCGWJNZOUQMEOZJBNXNXFXAZMEYZHAORLMTKGWQILSJDOHMRFTOUIGEEQ9JSISHTHYTBKKIKWUHNXVHC","optimalPurchaseTarget":-100,"optimalPurchaseTargetScore":-100,"availablePurchaseTargetList":[],"optimalSaleTarget":-100,"optimalSaleTargetScore":-100,"latitute":"51.524771","longitute":"-0.168530","amountDemanded":"3","pricePrefered":"16","distancePrefered":"12","energyTypePrefered":"0"},{"index":88,"seed":"NTUCUWJXER9TDTKCR9PNVA9DPDRAODMTQYCDSSIWOAWXRIVNALFPSIHVANJMGJGCLQVACHWVCPRRUHMPE","address":"XEGREXLBAMYLKYKVSSJFTEFASMDNTFQD9KFGAPKRNEHUUUAYVSCZLLQWYDQINJAUYTEWPQKEKYLXXAQNW","optimalPurchaseTarget":-100,"optimalPurchaseTargetScore":-100,"availablePurchaseTargetList":[],"optimalSaleTarget":-100,"optimalSaleTargetScore":-100,"latitute":"52.064732","longitute":"-1.495031","amountDemanded":"3","pricePrefered":"15","distancePrefered":"14","energyTypePrefered":"3"},{"index":89,"seed":"LIPBOPUNB9SBPGVTSJQJOHAXBF9PJESVUICIBFFXENICIWMTOJTF9UXEUJTFLLLE9KLJMEMNUFSPAWJTE","address":"FLEEMOJPFWBYYVAOHTWOGTVFDISBN9U9XEJDNLENXMALNZMEDOVYYFOEOLZFDMXGEVCSABNCIOIQDEAFX","optimalPurchaseTarget":-100,"optimalPurchaseTargetScore":-100,"availablePurchaseTargetList":[],"optimalSaleTarget":-100,"optimalSaleTargetScore":-100,"latitute":"51.547578","longitute":"-1.744750","amountDemanded":"1","pricePrefered":"15","distancePrefered":"11","energyTypePrefered":"1"},{"index":90,"seed":"HPOVXFEFSWUSBORBVJCWGBOYBUXFBAPEQDSMBMTPJTBWXVBBWMJXLRAFKVUXDQFIMHBFFI9LITIDTARBN","address":"GJGNML9BFJMAVJGHJNEUFZUVUHCXUXHPXHXRSEJDMWUGYNDQJZEHETVOPTMYWJQICZXKRIYIZURJEACOW","optimalPurchaseTarget":-100,"optimalPurchaseTargetScore":-100,"availablePurchaseTargetList":[],"optimalSaleTarget":-100,"optimalSaleTargetScore":-100,"latitute":"52.116801","longitute":"-1.223697","amountDemanded":"2","pricePrefered":"15","distancePrefered":"12","energyTypePrefered":"1"},{"index":91,"seed":"RJHTDCAWJXGUAFYKMNWYMFIPHXKXDGR9UBGIGNAQMUWJVAUKQKSHSTKMVPDPKNHGKQNRAIWV9XYIKJAJO","address":"LZMQEZCJYBKPRFRFOCQLXGMLOWHU9QPOBOHJZRBFITGTX9CKZCSF99ATDYYE9QGGFYYP9XGZ9KKVZ9DDX","optimalPurchaseTarget":-100,"optimalPurchaseTargetScore":-100,"availablePurchaseTargetList":[],"optimalSaleTarget":-100,"optimalSaleTargetScore":-100,"latitute":"51.385413","longitute":"-2.051932","amountDemanded":"4","pricePrefered":"16","distancePrefered":"14","energyTypePrefered":"1"},{"index":92,"seed":"NIIC9VMKUOVUYCJYLGMKKGWILKJACTLR9KMINNKKHP9XJLGISQO9RJPHYPGKWJYMFHIWNLC9SYELNY9AY","address":"A9NZNDDHFMM9QDZVVVPYAKMYTOAI9LHXDPMCZIKKXAYUMJOBQEDHVMSGRQNKLZOAVAPAQGITLSLMGIEW9","optimalPurchaseTarget":-100,"optimalPurchaseTargetScore":-100,"availablePurchaseTargetList":[],"optimalSaleTarget":-100,"optimalSaleTargetScore":-100,"latitute":"51.973549","longitute":"-1.642585","amountDemanded":"2","pricePrefered":"16","distancePrefered":"14","energyTypePrefered":"0"},{"index":93,"seed":"ONEVVMQYFNOAPQ9OXRKJETNPGQNGDLGJLKVHGKGRYDXVKSISPAP9OBMXCMEURCRTJNVBMIOUOBEUNVVFF","address":"HVE9L9RRCKGQJZVMFGSONNCPOTZHYROGIW9KUPHTXGPHCLPXD9IJVNQCIMCTFJ9SJKPLMGSFRIEMOYGX9","optimalPurchaseTarget":-100,"optimalPurchaseTargetScore":-100,"availablePurchaseTargetList":[],"optimalSaleTarget":-100,"optimalSaleTargetScore":-100,"latitute":"51.756109","longitute":"-2.264955","amountDemanded":"1","pricePrefered":"15","distancePrefered":"12","energyTypePrefered":"3"},{"index":94,"seed":"FVBA9JY9JEGDPLIFNSIPVPGDVYMDUTBXBUMTXMGRQSDFXPSFXYDDCDPGFP9DKUQSQYXJNCIW9EGVKAGKS","address":"DZABDFSRNQQWLUGPUFYILDK9SLX9HEPFCWSLDIDLHWVUDOMGHO9PXLCPMBUDCGTJIPZGONGQUFHKBLLFZ","optimalPurchaseTarget":-100,"optimalPurchaseTargetScore":-100,"availablePurchaseTargetList":[],"optimalSaleTarget":-100,"optimalSaleTargetScore":-100,"latitute":"52.415201","longitute":"-0.494020","amountDemanded":"2","pricePrefered":"16","distancePrefered":"12","energyTypePrefered":"3"},{"index":95,"seed":"TCKTTQMYLARWDCBBCUFPXOY9TQFXJQGVTVTKGEWPUEHITJBPEFOTX9VMSOKAJAQKBHVWCKPS9WDJCVJAT","address":"9LJFNYZOTGL9YC9ZRJFNACHNYMA9EKSIQ9EORNUR9Q9LF9QYDLXZRAZVPGJPOQDNMKMPKJLFNHTJUYHVX","optimalPurchaseTarget":-100,"optimalPurchaseTargetScore":-100,"availablePurchaseTargetList":[],"optimalSaleTarget":-100,"optimalSaleTargetScore":-100,"latitute":"51.830777","longitute":"-1.631068","amountDemanded":"4","pricePrefered":"14","distancePrefered":"11","energyTypePrefered":"1"},{"index":96,"seed":"MJCVDLXQEVYTSUACFTLBOYAHDYKDGJRQXIPITQXUQ99TWMWIAFUTEQCSNPGTEEKNLTY9LNKHSURTCOJUG","address":"WKZAX9JPFXZGSLYARGLJRZIGKTSQA9JGETATHEQQYFEUEXAIMZNJYUDNNEHWSRJAWSUJX9TMYPUZMNJAX","optimalPurchaseTarget":-100,"optimalPurchaseTargetScore":-100,"availablePurchaseTargetList":[],"optimalSaleTarget":-100,"optimalSaleTargetScore":-100,"latitute":"51.755813","longitute":"-0.932181","amountDemanded":"1","pricePrefered":"15","distancePrefered":"12","energyTypePrefered":"3"},{"index":97,"seed":"QNHGEJFRQBGU9VIUMBPMLYG9OONNVSMVQJ9E9YDQGUCCKAYWAFLRBWFAIM9PWIBYQUBBORBNCSSABBBUB","address":"RUNNSJTVTYNUPRBWCVYYOYLPFM9WREQAYPADSIXIFZJGF9MKNRAMHB9BAASMKJCTWDVANNBGGQDKB9YJD","optimalPurchaseTarget":-100,"optimalPurchaseTargetScore":-100,"availablePurchaseTargetList":[],"optimalSaleTarget":-100,"optimalSaleTargetScore":-100,"latitute":"52.189504","longitute":"-1.030826","amountDemanded":"3","pricePrefered":"15","distancePrefered":"10","energyTypePrefered":"3"},{"index":98,"seed":"HFOVKKCSWLQMMBEEP9BLPKDFTTFKRMOYFCGCHDBRFAMFRMGTEGKHKBWBKSBIGWTUQDQEPIJSAJOQMJIHR","address":"CTCXDZSQJMFBXDUZF9FATKFRYV9UDKBCUECGXTMZ9IYJTLGJLVBGWJFHFEHBWWCLXPPZSQKWRDKGJXOJ9","optimalPurchaseTarget":-100,"optimalPurchaseTargetScore":-100,"availablePurchaseTargetList":[],"optimalSaleTarget":-100,"optimalSaleTargetScore":-100,"latitute":"51.838274","longitute":"-0.296395","amountDemanded":"2","pricePrefered":"16","distancePrefered":"12","energyTypePrefered":"0"},{"index":99,"seed":"K9LQFSFYURFKQHCWALJHVBSORGXKUSNFRABLWSWSRVXNAHMBUWSCQGVOYTRSBLIOWHA9GSMYFYRPMOIEA","address":"CZBJLJKO9TCUNPIOUQ9ZVCTLZOIZ9JBCTQZXOCQDOWRPEQ9XBSP9OPLLJCOCGMAILLQIXJBKUMBZPIFZ9","optimalPurchaseTarget":-100,"optimalPurchaseTargetScore":-100,"availablePurchaseTargetList":[],"optimalSaleTarget":-100,"optimalSaleTargetScore":-100,"latitute":"51.673634","longitute":"-1.647923","amountDemanded":"2","pricePrefered":"16","distancePrefered":"14","energyTypePrefered":"3"},{"index":100,"seed":"WDLJJIAV9DGPOUGMVHXRV9VNYLLPPIBBTJHRQMRIOWGUYWHYWBUJEBNRVPOFHCQJYLHDVSUOPMXYRQ9CV","address":"9USMXSMTMQJBXEVCEQMMK9FWOLXFBHQJT9VCYILEBSJZSVQOLNTKXAKINPECKDTWEMQIAPRLUNHTXCJBW","optimalPurchaseTarget":-100,"optimalPurchaseTargetScore":-100,"availablePurchaseTargetList":[],"optimalSaleTarget":-100,"optimalSaleTargetScore":-100,"latitute":"50.998814","longitute":"0.030104","amountDemanded":"1","pricePrefered":"15","distancePrefered":"14","energyTypePrefered":"1"},{"index":101,"seed":"ODQUIQBHAJ9OOAVLJDXFJYDNKWMSETWOMJFEUWDPUXFVDFUVDMMOVBIROIJWPWSBMTCTEDOYJDEQ99GNP","address":"LVLRUZIKFPOBGKRF9P9KLERKYGAMKJROSCRRWFNTJFTSTNSPXXRFGQKNJLJAMDEUURZBHZKZYKVFPFWRB","optimalPurchaseTarget":-100,"optimalPurchaseTargetScore":-100,"availablePurchaseTargetList":[],"optimalSaleTarget":-100,"optimalSaleTargetScore":-100,"latitute":"51.503816","longitute":"-2.082081","amountDemanded":"2","pricePrefered":"15","distancePrefered":"13","energyTypePrefered":"2"},{"index":102,"seed":"TESCMDNRSAWKQEJTJJTHDXDQAEBPTDSAAGPAOJEBOK9NUTEALFXEXDS9GAGRTHYRUDIGARBAFDSUNLOKX","address":"XRBKAAQA9CMUPOHKOBKYKEZILIYYKDG9NYK9IJBLPPCYPXIVKG9ALIYMFANORKEUZG9TDBIRVLD9VRQLC","optimalPurchaseTarget":-100,"optimalPurchaseTargetScore":-100,"availablePurchaseTargetList":[],"optimalSaleTarget":-100,"optimalSaleTargetScore":-100,"latitute":"51.186606","longitute":"-1.514723","amountDemanded":"5","pricePrefered":"15","distancePrefered":"13","energyTypePrefered":"1"},{"index":103,"seed":"GIAPVEEOCP9WGBAQB9LDS9HRNXLGW9WIPSHXUIJLDTRRAFSUTMIUELVLXPITOMHORTNLOBJQNV9IBQQPY","address":"AHHTABQOYPJGDEWVZPWNHEXPOKCYKFWZUUYHVSNBUNPNPPWFKSDQBZ9GBXZPVAO9VFTXNCYMYSURKYSYC","optimalPurchaseTarget":-100,"optimalPurchaseTargetScore":-100,"availablePurchaseTargetList":[],"optimalSaleTarget":-100,"optimalSaleTargetScore":-100,"latitute":"51.138828","longitute":"-1.818736","amountDemanded":"6","pricePrefered":"16","distancePrefered":"11","energyTypePrefered":"1"},{"index":104,"seed":"GMDUBYMHWTPBAHEWGEYJHWUXBAGJMU9NGPVHLOCCPGTKLYPRBPODPTETVTKEAOSBCXJVRUDNDLQWTUBDT","address":"UQZAVSLZMWKEUQDBRRHHBUYCPEGXFKO9ZVWTCD9QFOQIJZKKLSNPOFZYQPFWSFIMZMZXJA9LIQCVLBICA","optimalPurchaseTarget":-100,"optimalPurchaseTargetScore":-100,"availablePurchaseTargetList":[],"optimalSaleTarget":-100,"optimalSaleTargetScore":-100,"latitute":"51.934812","longitute":"0.161831","amountDemanded":"2","pricePrefered":"15","distancePrefered":"14","energyTypePrefered":"1"},{"index":105,"seed":"ET9AKU9QOIXQYBYWSKNMF9QMFVRLXXRBSXWMYBCQDIUQSUSKEFOYSUAWEIOYW9ARVKHGUPASHRFYQMYAV","address":"ICNFILJNDPDBTXYKTNFYUNUPFVQXOYVXVENAYALFWFVADXPXMLHGQH9EXIUX9QYWJGZVTNEBUHENIOMSY","optimalPurchaseTarget":-100,"optimalPurchaseTargetScore":-100,"availablePurchaseTargetList":[],"optimalSaleTarget":-100,"optimalSaleTargetScore":-100,"latitute":"52.061505","longitute":"-1.729578","amountDemanded":"3","pricePrefered":"16","distancePrefered":"15","energyTypePrefered":"2"},{"index":106,"seed":"DEHJUUEYTEAYSDRMPGNHGPFLAKXAGRQFTKISMOTLYVHMOYTDKPYTUXLTLW9DHPGAMJJ9IQUJQSXXQHLWK","address":"EVTDHXPLMFXDXUMWYRBRCHBMHCUIY9LNNTWXXGJRFPGEGIZBTSDMVXHBPLLMJMQCAHIEJBBMXZOXCN9KX","optimalPurchaseTarget":-100,"optimalPurchaseTargetScore":-100,"availablePurchaseTargetList":[],"optimalSaleTarget":-100,"optimalSaleTargetScore":-100,"latitute":"51.482187","longitute":"-2.370401","amountDemanded":"4","pricePrefered":"14","distancePrefered":"13","energyTypePrefered":"0"},{"index":107,"seed":"TJF9KJUPJWQ9IHK9EROQQDGKANKWTNAIMIYTQMBPIMSWYRSTUI9SUCLGBNTCEHOAUHDXAKDHIGIAXLCDJ","address":"KULTYLTVWLEKAPGTKLQOVCHLBEUWJCLAPYTZRRQQAMUJSKTMRNEFCMUUMRXIJXOKMFTL9ZXP9YNARKXBW","optimalPurchaseTarget":-100,"optimalPurchaseTargetScore":-100,"availablePurchaseTargetList":[],"optimalSaleTarget":-100,"optimalSaleTargetScore":-100,"latitute":"52.146581","longitute":"-0.467759","amountDemanded":"6","pricePrefered":"14","distancePrefered":"11","energyTypePrefered":"0"},{"index":108,"seed":"HHKXWV9KOHKLC9COXWGOBVPYPT9DQGHFBTNYHFWVLT9BGFKRCGWNILDXENMJNX9HRCXMWWUVIMYJILFVN","address":"TJROLHJJKNEDPXFFOTFTYLMLIUBNTPH9JBZZZMIKTNUJZDEURPXBEHVAEXZWENJHXODSALIEMGFVFEVUD","optimalPurchaseTarget":-100,"optimalPurchaseTargetScore":-100,"availablePurchaseTargetList":[],"optimalSaleTarget":-100,"optimalSaleTargetScore":-100,"latitute":"51.450634","longitute":"-2.209300","amountDemanded":"5","pricePrefered":"15","distancePrefered":"14","energyTypePrefered":"4"},{"index":109,"seed":"BJMSDNGTVOOPWTEFGPXVIMUPCJFQCWGUTLUAKXYUIETTOTICIEFXKNNDTUMVUCFLFLUPXCHIJLVNNRRPH","address":"99QTEPVDXRVKONRWT9KDDIB9APDOYCERJFCYJNQSUXBFIHCMYFXALFPFLHLPOAYXNGSYLB9JGDOCBAHND","optimalPurchaseTarget":-100,"optimalPurchaseTargetScore":-100,"availablePurchaseTargetList":[],"optimalSaleTarget":-100,"optimalSaleTargetScore":-100,"latitute":"51.304248","longitute":"-1.081583","amountDemanded":"5","pricePrefered":"16","distancePrefered":"12","energyTypePrefered":"1"},{"index":110,"seed":"HXRACMTLPECOYNCLPHVLDSFMJJTWK9PBLIJYUDRJAWTSCFBBXXNUIDOUDPX9VIWFYPUGSULIDWRKAPWMD","address":"GMGSESCISBRXDMUSSWJYRAKSTSVTXQYUM9URHOISBM9UABDWZCOORUDDLNF9KGFGOSPCVJDSMQCSSGT9C","optimalPurchaseTarget":-100,"optimalPurchaseTargetScore":-100,"availablePurchaseTargetList":[],"optimalSaleTarget":-100,"optimalSaleTargetScore":-100,"latitute":"52.108938","longitute":"0.186544","amountDemanded":"3","pricePrefered":"15","distancePrefered":"15","energyTypePrefered":"3"},{"index":111,"seed":"DPJSCEI9H9XUDQYMPHGDMKEWMOWFIRIFYOULYVEFEPLGDGWWMVUTKATURAXAUVMJWLRRHI9EDCHCEPXH9","address":"VNKVHKFCIOLXWOHPGHZNSQIRRSTNRWXRUUVCMCTLTYDQNSOEBEFLQFTKVIRAIPJJDREGUAYIPVWNPACBW","optimalPurchaseTarget":-100,"optimalPurchaseTargetScore":-100,"availablePurchaseTargetList":[],"optimalSaleTarget":-100,"optimalSaleTargetScore":-100,"latitute":"51.475518","longitute":"-0.748156","amountDemanded":"3","pricePrefered":"15","distancePrefered":"14","energyTypePrefered":"4"},{"index":112,"seed":"YEGKILJNSJYJO9MDTQX9UVDHWEHWUOIICNUHKUPXTDI9GGGPQYOVTJAUCWP9I9TTHKXLPBYLWFY9FYEGL","address":"OLGSNYKVFUJDMSZILWACS9LUPNTIBTJ9YCMKDAVJDUDGDONGQDISILFZPVCXKYKSRBZVUAV9JKIOFPCOA","optimalPurchaseTarget":-100,"optimalPurchaseTargetScore":-100,"availablePurchaseTargetList":[],"optimalSaleTarget":-100,"optimalSaleTargetScore":-100,"latitute":"52.270942","longitute":"-0.124854","amountDemanded":"2","pricePrefered":"14","distancePrefered":"10","energyTypePrefered":"2"},{"index":113,"seed":"TJUKATSWJGFKWHEQLHQLEUSBCHOQANKBWCEGT9UFJPQLRCFQQFGVIEMILY9FEBCOYTOCJJPXN9LCFTURU","address":"KG9CAGHNJJVJBKPMK9ZFVJHAIQTNYBQCAHKEMRRVFNCPEACAUOZRBLSZNYUTDTNYHOROUFSH9OIXAPTYX","optimalPurchaseTarget":-100,"optimalPurchaseTargetScore":-100,"availablePurchaseTargetList":[],"optimalSaleTarget":-100,"optimalSaleTargetScore":-100,"latitute":"51.581154","longitute":"-2.256750","amountDemanded":"2","pricePrefered":"14","distancePrefered":"14","energyTypePrefered":"2"},{"index":114,"seed":"DSHWDGYPSQWHCXLCYUMTPXSWJYFDKDMEJOWLCVJPORCSSXEOULXKJ9EOTMGDEUKIU9BPUGA9EV9CNNYFL","address":"LRUMKHMPCYSNMKKPAVXHIMBNMHJXEWQIOEJOFIMDCVXHKCHSW9MVJOSDWTFONDG9PIZDTKKSURGJJXCSB","optimalPurchaseTarget":-100,"optimalPurchaseTargetScore":-100,"availablePurchaseTargetList":[],"optimalSaleTarget":-100,"optimalSaleTargetScore":-100,"latitute":"51.559248","longitute":"-0.178242","amountDemanded":"2","pricePrefered":"16","distancePrefered":"15","energyTypePrefered":"2"},{"index":115,"seed":"OYSSTT9MRA9PEKULXXQXTGHYWBRYHCRILAMBOYIOC9EDROVUHXSQVUDJVRW9WA9JQBYTGKRNOXH9CUSI9","address":"OJJQXSZCOWGAWQRJXNORRPRQLRMIWLRAXCMDNWMLDGLT9LWUDDUAWHLYDLYHDXAIKWRBXJBVKRSEPPYMZ","optimalPurchaseTarget":-100,"optimalPurchaseTargetScore":-100,"availablePurchaseTargetList":[],"optimalSaleTarget":-100,"optimalSaleTargetScore":-100,"latitute":"52.101143","longitute":"0.126337","amountDemanded":"1","pricePrefered":"15","distancePrefered":"12","energyTypePrefered":"1"},{"index":116,"seed":"CNYSGOGKNIBBAVXVUJVJATOHBXXHFYFOYTMJMBWXOLJHXVQ9OPFWRFNWSKHEQXTFTAFOGAHWNWJKEIMPP","address":"DZUDHBEAAZQFHLCTPKVYOGEBTZJBR99NUKBSO9HVQZB9PUTBPSSZHZQIKMHPUMH99WFGNNXWDWYIARCSW","optimalPurchaseTarget":-100,"optimalPurchaseTargetScore":-100,"availablePurchaseTargetList":[],"optimalSaleTarget":-100,"optimalSaleTargetScore":-100,"latitute":"51.169208","longitute":"-1.837817","amountDemanded":"4","pricePrefered":"14","distancePrefered":"13","energyTypePrefered":"3"},{"index":117,"seed":"NGJ9OVYQJUSDW9EUDCKQGXVVCPOPLARHSBISDXHD9IKMKA9VLJWNBLGQVNI9UPGBDIMPHGHNIQSGSPPLE","address":"ORPDSATZZQPPCDNUAGTQFK9GQGGDYQWFIEAYGMKUKCPUVWPOUW9HCDOMKSSADNTGAJHYYUKUFYPLRCJXY","optimalPurchaseTarget":-100,"optimalPurchaseTargetScore":-100,"availablePurchaseTargetList":[],"optimalSaleTarget":-100,"optimalSaleTargetScore":-100,"latitute":"51.177219","longitute":"-0.636429","amountDemanded":"2","pricePrefered":"16","distancePrefered":"15","energyTypePrefered":"1"},{"index":118,"seed":"SPBLVGU9FAVY99KQSQCXNNOXJLAOPSUVPEE9RYCXCUBEBQHEJHHSYNK9F9OAEI9RKVBHBNDMO9SOFRLCV","address":"XV9DUUUQDAILJBRBYHHUWIKPPIYPCCUSUMISNM9BBAPVTYHXDCUSVZ9LFCMHRPXVWTKMNMCUDHSGLWWWD","optimalPurchaseTarget":-100,"optimalPurchaseTargetScore":-100,"availablePurchaseTargetList":[],"optimalSaleTarget":-100,"optimalSaleTargetScore":-100,"latitute":"52.264921","longitute":"-2.165286","amountDemanded":"6","pricePrefered":"15","distancePrefered":"11","energyTypePrefered":"1"},{"index":119,"seed":"FYIUYKEASGLLAKFWHSIJKRHCPMGPXHMSNL9NNXMWCOAMMGORY9HYWVYYKSWKBLYVTLABYNVHTFMSDMTNQ","address":"SBMDQHFRVQIWTPJDUQISGIMAHCEXYSTWUIEJZEFYT9WIDGVXUYXOYFDNOIHMARQKXHZWVFLTNJBRXYRMX","optimalPurchaseTarget":-100,"optimalPurchaseTargetScore":-100,"availablePurchaseTargetList":[],"optimalSaleTarget":-100,"optimalSaleTargetScore":-100,"latitute":"52.109550","longitute":"-0.240029","amountDemanded":"4","pricePrefered":"15","distancePrefered":"13","energyTypePrefered":"2"},{"index":120,"seed":"OBNLPQDOWMEFVS9YJMPTFCGXXPXTCYYXPIRDYLRVSLLNBLSHK9OP9NMEXCGTKTWJQLGHSHFEKOOQIXCYF","address":"HZCHXFORTNGHZWOP9HSOGRBQVLQQESMAJHTNRO9BGGDF9OMGGINVUSXQGPAEJLEOJEROFKD9BDX9FHPRZ","optimalPurchaseTarget":-100,"optimalPurchaseTargetScore":-100,"availablePurchaseTargetList":[],"optimalSaleTarget":-100,"optimalSaleTargetScore":-100,"latitute":"51.537030","longitute":"0.230912","amountDemanded":"2","pricePrefered":"15","distancePrefered":"14","energyTypePrefered":"1"},{"index":121,"seed":"YWNQWYYGMGHUWEKGJV9CIOXDQTFVDDAAGJ9HBJYDDOIODLPKMIHUBGIKOUABH9HYPL9WQQ9MEV9KFKXMC","address":"HIYK9VZYYIETVDGRGIGMDMFKESRFRDPCKECUOXJHPVJOHNLIOUZWLHIQTZFTMUQPVDFZAHCWBS9MQKRPA","optimalPurchaseTarget":-100,"optimalPurchaseTargetScore":-100,"availablePurchaseTargetList":[],"optimalSaleTarget":-100,"optimalSaleTargetScore":-100,"latitute":"51.970088","longitute":"-2.051940","amountDemanded":"4","pricePrefered":"15","distancePrefered":"11","energyTypePrefered":"3"},{"index":122,"seed":"BKKKWXY9KGGOPLGNREKXS9CBOUHUUTDIWPENBXRPBVIHWLBLRTB99RWMFFWEULFQAMWVWSBRTHO9KYRBG","address":"MVWGKLQI9KKKXVUFZEDIRKQPLTSKDCSRETVTXOBQFXQUWJPADPVLHCRIVCKQZQOJACHLDOPDMOYPTB9AX","optimalPurchaseTarget":-100,"optimalPurchaseTargetScore":-100,"availablePurchaseTargetList":[],"optimalSaleTarget":-100,"optimalSaleTargetScore":-100,"latitute":"52.262210","longitute":"-2.087406","amountDemanded":"1","pricePrefered":"16","distancePrefered":"14","energyTypePrefered":"2"},{"index":123,"seed":"MBMJEWTNMNWIAWDHCKCA9HATWPUOKRKWSJQNRBEBGLJLU9PCPGAWPYOURRRNLHNKPCAYORMNSDUOIWTHK","address":"HRDDXSMJBDIHZ9V9WODVXLUOIQSPIYAYHMEQDMIYL9DMWLPQGUYXGLREGDXLEBZPGXOCKS9BQOCFMQHAB","optimalPurchaseTarget":-100,"optimalPurchaseTargetScore":-100,"availablePurchaseTargetList":[],"optimalSaleTarget":-100,"optimalSaleTargetScore":-100,"latitute":"51.082237","longitute":"-2.263145","amountDemanded":"5","pricePrefered":"14","distancePrefered":"13","energyTypePrefered":"4"},{"index":124,"seed":"LWASYYTYQFQJYWCKEWNFNICFTCLAA9NMGNCAXIWPNIWAPQSCBWJFMROQXMTPHGTQHORLGOM9VX9VRUIDW","address":"MQILVGXZZQFYOCDONVZYPUCPVUHFXATBQCUPZKVOQWKPPWUTAACUHALHJO9PNMXJUSS9FOPKZBLXQNLCW","optimalPurchaseTarget":-100,"optimalPurchaseTargetScore":-100,"availablePurchaseTargetList":[],"optimalSaleTarget":-100,"optimalSaleTargetScore":-100,"latitute":"51.513646","longitute":"-1.870774","amountDemanded":"3","pricePrefered":"14","distancePrefered":"14","energyTypePrefered":"1"},{"index":125,"seed":"AFSRLKLRIBKCLJTFWKXDNOQHE9NXPAYWNFMQHLLSDUPYXCCL9YRRHYKXIFILLIWTJYNIOKQDWOLWOSFBH","address":"HIE9KIEZSVDJDWUANAOLPEMRHKIBZOETXPHLMLXNPXMIDDWSDB9TIONOGTRBNKCSVFMWCPPOEBPBIAHOB","optimalPurchaseTarget":-100,"optimalPurchaseTargetScore":-100,"availablePurchaseTargetList":[],"optimalSaleTarget":-100,"optimalSaleTargetScore":-100,"latitute":"51.452927","longitute":"0.134378","amountDemanded":"5","pricePrefered":"15","distancePrefered":"14","energyTypePrefered":"1"},{"index":126,"seed":"YSMBCJGCTS9KVRV9KLOFVFDIXTCMPERIWQURSNTDANIWAGJEMLTYYGEDWGTBAEPAFMOKATYYLFIWGBABW","address":"SAUAVXRWTYLIQWRRHCZPRXAZNJDAHQGPHVYLKCBFYKMXKNIJPVVBGPDNJAPLVKQZDGIWKQAPOQQAUIOD9","optimalPurchaseTarget":-100,"optimalPurchaseTargetScore":-100,"availablePurchaseTargetList":[],"optimalSaleTarget":-100,"optimalSaleTargetScore":-100,"latitute":"52.172834","longitute":"-0.091106","amountDemanded":"4","pricePrefered":"16","distancePrefered":"14","energyTypePrefered":"2"},{"index":127,"seed":"WOGKYVOPVXTLHULHLCQEBEVMUK9TEWTRWJDUALHGHNJVWWMHX9YROBSJOSX9KYSRQPXYDILJQHFHTSYJR","address":"PHUBCLNVJWTJSNFCKHDRNBOLBRBJFEHUKKGPRHPCKUNVBMLGQTHIBEAPPMXIZ9CQCIVNMYNPVZYEACTMC","optimalPurchaseTarget":-100,"optimalPurchaseTargetScore":-100,"availablePurchaseTargetList":[],"optimalSaleTarget":-100,"optimalSaleTargetScore":-100,"latitute":"52.236005","longitute":"-0.329749","amountDemanded":"3","pricePrefered":"14","distancePrefered":"15","energyTypePrefered":"2"},{"index":128,"seed":"RRG9XUHN9KJOUQOMXYGDCYOMNPDUTBTUIBXIJKHXMXCAHAIV9NLBVOWEQEBAKNSDFHGSTFQTYIKDSCKPH","address":"9J99TUDGPTH9QXCEFRAZUDYBREPZUMX9YGRDMTJETMHHQVKZIFZGGQ9SLYCDM9GSUTTARNRAVUTGR9VAW","optimalPurchaseTarget":-100,"optimalPurchaseTargetScore":-100,"availablePurchaseTargetList":[],"optimalSaleTarget":-100,"optimalSaleTargetScore":-100,"latitute":"52.233228","longitute":"-2.045851","amountDemanded":"4","pricePrefered":"16","distancePrefered":"12","energyTypePrefered":"3"},{"index":129,"seed":"YOREDPIS9BPGMPDWLXJGJSAGCLNJYHYDWFQCEWLRBTOGDOPVTYGHAINKIEWNPEVYGDFSBCWXSKDNKJXCC","address":"HOIZOJOAJQDTXEDNTCLJFYOQLKQPGCJ9T9PSLXRNZUIGZAUAKXBROHJB9BETGEKREQBCXPSCIXMYPDQVW","optimalPurchaseTarget":-100,"optimalPurchaseTargetScore":-100,"availablePurchaseTargetList":[],"optimalSaleTarget":-100,"optimalSaleTargetScore":-100,"latitute":"51.694825","longitute":"-1.714406","amountDemanded":"6","pricePrefered":"16","distancePrefered":"13","energyTypePrefered":"2"},{"index":130,"seed":"PXDMJPFLTCQDBDMNTRRRU9JHNJHSHHTARIIQ9AFTEVHLISTVV9YMIDOOCVFVGFDOEPBB9V9KBUCTIRXCO","address":"BL9DKSFEQTUXLKMQHOONCPSFZEOEUZYNWE9VFUKGHZITVIPRJPPQQFJDOWLZJLXKBVLSKPUDJHNXEUXDD","optimalPurchaseTarget":-100,"optimalPurchaseTargetScore":-100,"availablePurchaseTargetList":[],"optimalSaleTarget":-100,"optimalSaleTargetScore":-100,"latitute":"51.579029","longitute":"-0.098114","amountDemanded":"4","pricePrefered":"15","distancePrefered":"15","energyTypePrefered":"3"},{"index":131,"seed":"WFOMTUTKBEIJWQMOKFUSNRUYCIPUKDIRYQERRXDNNHPHTYXRHUJTFTXMRK9TWFNRI9XLLBWAFYIKQMAVW","address":"MPHKPYGW9BHIVWWCDAXAOPSRMMRKFACGBMEMGRSVSHEGEGBFWDHVCYDOGMZUVKTSOEVEDDBYGRH9KLUTB","optimalPurchaseTarget":-100,"optimalPurchaseTargetScore":-100,"availablePurchaseTargetList":[],"optimalSaleTarget":-100,"optimalSaleTargetScore":-100,"latitute":"51.469265","longitute":"-1.228710","amountDemanded":"5","pricePrefered":"15","distancePrefered":"11","energyTypePrefered":"4"},{"index":132,"seed":"HPTGDUOUNMDPMCMHLBGRAOUEMJOPDNVUKBJHOQTVLGHD9RCDJCFOSDXROJBMSIPKGWCRH9MAOAFDERSOM","address":"QHNNR9CRKVOOHONXETMAYPJVYJGDGAYVHUK9MSSXSQIJFTAFFPENLSWLGJKQZEYOCGNFTABSRDGADYAGC","optimalPurchaseTarget":-100,"optimalPurchaseTargetScore":-100,"availablePurchaseTargetList":[],"optimalSaleTarget":-100,"optimalSaleTargetScore":-100,"latitute":"52.202354","longitute":"-1.168842","amountDemanded":"3","pricePrefered":"15","distancePrefered":"10","energyTypePrefered":"2"},{"index":133,"seed":"WADUTBKGIJWYWOVIIPBAV9POJPOJILV9LSQWVOLJWT9L9TKCUXGYEMFECMHTGCNXRD9WYEG9VCVFBRTJS","address":"ZXRYWYGGMUSIIWOIVERQSMXGCVKKTMTPMHHMZYLAPBYUWDKEYWYKIRFCTABLTKTREHJOMVLPBUUJODCRX","optimalPurchaseTarget":-100,"optimalPurchaseTargetScore":-100,"availablePurchaseTargetList":[],"optimalSaleTarget":-100,"optimalSaleTargetScore":-100,"latitute":"51.620339","longitute":"-1.671064","amountDemanded":"5","pricePrefered":"15","distancePrefered":"12","energyTypePrefered":"4"},{"index":134,"seed":"SNSDLDIPYMWAJBPGRIU99VREHGKBWNYPHIQHRXFITBRJGSFFAYVATCICFBSDYNT9YMUCCSTNKNMCL9CQY","address":"VKI9DDHKNCRQQ9V9I99LULIUVXTQCVZZHIXDUUDCRXLKEXCXZYMRTYZGPHJLGGRZCJYAOODLNQMOAACAX","optimalPurchaseTarget":-100,"optimalPurchaseTargetScore":-100,"availablePurchaseTargetList":[],"optimalSaleTarget":-100,"optimalSaleTargetScore":-100,"latitute":"51.295588","longitute":"-0.636414","amountDemanded":"2","pricePrefered":"15","distancePrefered":"12","energyTypePrefered":"0"},{"index":135,"seed":"VMPPVTCCKYUHNFTMCY9DUOTKPH9QLOOFCKPVQBHOQMSMVKQHORBHSOWUXJSYHHAAD9R9KTITTHRMIJAMC","address":"HPNXGSTTRBLOBDHPQRT9TCPCQAN9YL9EYZPKXYVKXYRQSBKEYHAGHSBXMPISAMVKCQC9B9ZVJXVMYILVD","optimalPurchaseTarget":-100,"optimalPurchaseTargetScore":-100,"availablePurchaseTargetList":[],"optimalSaleTarget":-100,"optimalSaleTargetScore":-100,"latitute":"52.178451","longitute":"-1.270279","amountDemanded":"3","pricePrefered":"16","distancePrefered":"12","energyTypePrefered":"4"},{"index":136,"seed":"JKSDB9QGTMTCIIQA9JJOVCTGVYNTQRMRQOOBNPMKGNCHJLLUSQYIHLAWYNGLUWGLGHVOKPLXAWAWPIHMP","address":"ODUS9KBIEIBEJATFYCUPUQEXNNMOEGFLIYENJMWSASQJDDRTOGDXBZETQBSFXRWLZMFMUCNMCDQIURPWZ","optimalPurchaseTarget":-100,"optimalPurchaseTargetScore":-100,"availablePurchaseTargetList":[],"optimalSaleTarget":-100,"optimalSaleTargetScore":-100,"latitute":"51.378339","longitute":"-1.550664","amountDemanded":"1","pricePrefered":"15","distancePrefered":"11","energyTypePrefered":"3"},{"index":137,"seed":"RAKUVJCMTCYAGYESMMRGDHIFOHMFMXVYOAFIFALQYNIXBTOBVQYETGVQLOURWDITHWIODVXGISLDVYQ9I","address":"WJ9FZOYMJGUXFLGAWVQUBQHTFX9ILIVJIQFSYUA9GPNKOLOASAYXKHKGVOINJSTJRPGLMVESC9VMDCXYX","optimalPurchaseTarget":-100,"optimalPurchaseTargetScore":-100,"availablePurchaseTargetList":[],"optimalSaleTarget":-100,"optimalSaleTargetScore":-100,"latitute":"51.672725","longitute":"0.046922","amountDemanded":"5","pricePrefered":"15","distancePrefered":"11","energyTypePrefered":"1"},{"index":138,"seed":"NWXGRHRRPNSBMGMNLPRO9EBEUPBQKGJCGNCCRDHKREKRXIOQVWKMLTAKAYPQ9UYRFOOGKPSRJ9AMHSQAF","address":"RSRJZRFOCWGXGZMMADRJIVAMHFWJSBKICWL9OXUIFCZOBROLOYPHDEGHNQPINSLFNWVCQWROBQKLG9VFY","optimalPurchaseTarget":-100,"optimalPurchaseTargetScore":-100,"availablePurchaseTargetList":[],"optimalSaleTarget":-100,"optimalSaleTargetScore":-100,"latitute":"51.727797","longitute":"-1.091101","amountDemanded":"2","pricePrefered":"15","distancePrefered":"12","energyTypePrefered":"0"},{"index":139,"seed":"JKGXXVFGDEVLY9L9UUCPTGTQPQIPPXGYFKHPIORPSMGBAIMRWX9FWWDYPSUBGPQRKIDHYJFPLUJUWPKAF","address":"EBYBZLOMEMIBWXZPTRBLNUSZNAGBNOXWLYFQFMIFHEXNVNRX9F9NKGZEGWRPKTEGDPRWAHLSLXCKTPXKD","optimalPurchaseTarget":-100,"optimalPurchaseTargetScore":-100,"availablePurchaseTargetList":[],"optimalSaleTarget":-100,"optimalSaleTargetScore":-100,"latitute":"52.124909","longitute":"-1.535900","amountDemanded":"4","pricePrefered":"16","distancePrefered":"10","energyTypePrefered":"0"},{"index":140,"seed":"POTJYPBRLDD9ABDCNBMVRYUCGLSRJO9JMUNMRBWCNRKFMYDBKGQCYFVOVEUXENJJ9KQXF9AACLUDVAFNT","address":"UEDZXMSHBTBOOEJSLGMAAWNYJT9MRVGXYVIGRVSRSRMYRPYUVZAIRIZV9XMABJCLOLPN9PSHUVQISPYJW","optimalPurchaseTarget":-100,"optimalPurchaseTargetScore":-100,"availablePurchaseTargetList":[],"optimalSaleTarget":-100,"optimalSaleTargetScore":-100,"latitute":"51.838002","longitute":"-0.104182","amountDemanded":"5","pricePrefered":"15","distancePrefered":"11","energyTypePrefered":"1"},{"index":141,"seed":"G9DVGIGJXDMFDSARCACTELGDC9APSETKWJNXRDVFQKGLCEJNHMFUXUYUQPKMXJPGUNJSPFPYQPBJXXBSB","address":"DDDZVWIQGQF9USLXALHKADUXVY9MFWBYZGPAFRYN9UGLAFFFUAQSSLHHAITYSUZCDXQJWTLPTQXLDSNLA","optimalPurchaseTarget":-100,"optimalPurchaseTargetScore":-100,"availablePurchaseTargetList":[],"optimalSaleTarget":-100,"optimalSaleTargetScore":-100,"latitute":"52.350861","longitute":"-0.908282","amountDemanded":"6","pricePrefered":"16","distancePrefered":"14","energyTypePrefered":"4"},{"index":142,"seed":"BDBMIJHIKVWQUXUJIUQLR9PVCATNAKBFUYYPJARKYUJNHCAQFGU9VCYVXMFCEYCNVJIUPRHHXGUIQKUHB","address":"SSIVGGHNENODJPN9TZLDWWXUQMRZJSBTHOJWWFTZUSRIXFIVCPYANEQTUVDK9ZRMNBWYFVRIUMZUJAOXC","optimalPurchaseTarget":-100,"optimalPurchaseTargetScore":-100,"availablePurchaseTargetList":[],"optimalSaleTarget":-100,"optimalSaleTargetScore":-100,"latitute":"52.037175","longitute":"-2.153348","amountDemanded":"5","pricePrefered":"15","distancePrefered":"14","energyTypePrefered":"1"},{"index":143,"seed":"VIMXOXUDP9GWWIA9AJCQUSBCQVXAMDFYTEOPLNDNBPLBIRVISXXNYPDCSUTLC9TVHGYLMJEXFVXN9VBIW","address":"9M9VFABF9HJIMODWMQVKBUOOALLOUAAQPODKJEQVTMDPTXCTPGNFJSNWXBHXKMCCXSQHJWSWARFSDKOD9","optimalPurchaseTarget":-100,"optimalPurchaseTargetScore":-100,"availablePurchaseTargetList":[],"optimalSaleTarget":-100,"optimalSaleTargetScore":-100,"latitute":"51.286122","longitute":"-1.629347","amountDemanded":"2","pricePrefered":"15","distancePrefered":"10","energyTypePrefered":"0"},{"index":144,"seed":"OYPGKDBRAGKRUG9TFRQYRXCJGUXIMCCEXGHMEXEYRTNRAGHPPS9VKORMYSWDMKCHLLMXTJBONHXORF9YI","address":"NALMDFODTAGFMEARJZHKGKREQLJDAMSVEMCRMIFZRYPLWWYEBSTPN9JXONQUQVWQWZYWKRPMGDAYBKVDW","optimalPurchaseTarget":-100,"optimalPurchaseTargetScore":-100,"availablePurchaseTargetList":[],"optimalSaleTarget":-100,"optimalSaleTargetScore":-100,"latitute":"50.995033","longitute":"-0.055245","amountDemanded":"6","pricePrefered":"16","distancePrefered":"15","energyTypePrefered":"2"},{"index":145,"seed":"ITSYARVUUVUPSPUCFETUM99VFNKHXTURQDIQVXHYFTNBFK9GBWTQSEGQRKVTASFATSOMVFHBWOWIMJEAA","address":"HBLOXIBMTJBOLPXNNIAUDYTRJZBVBODMO9OLXRT9PNBWCJTRCXRIAJFJGMC9ZVZOZVAOGWMESMMPHPNTA","optimalPurchaseTarget":-100,"optimalPurchaseTargetScore":-100,"availablePurchaseTargetList":[],"optimalSaleTarget":-100,"optimalSaleTargetScore":-100,"latitute":"51.398171","longitute":"-0.774094","amountDemanded":"5","pricePrefered":"14","distancePrefered":"11","energyTypePrefered":"3"},{"index":146,"seed":"XOSDKWBRFKXEBUUJSTXAHXDPXSGREOQDSCYBAKWNWJTORLTIHKILTQTEMALWDMSBAHXLLWLEXTEKADU9S","address":"WAUKHVIPFLZU9VEYIJXUKKWRISTD9RZRJCAXKNDTXHWEHLCDVSOLBYGZBVMXKEORMUQKBDDTIGRZG9U9D","optimalPurchaseTarget":-100,"optimalPurchaseTargetScore":-100,"availablePurchaseTargetList":[],"optimalSaleTarget":-100,"optimalSaleTargetScore":-100,"latitute":"51.082963","longitute":"-2.290888","amountDemanded":"5","pricePrefered":"15","distancePrefered":"13","energyTypePrefered":"2"},{"index":147,"seed":"FQQMJVGIPJCIOPKHVULYXEQTIEISPAUHJMPXER9TOJXLDFEVAYNQH9QIXFQUNBRKWPXP9RCULX9IVYVMU","address":"FSLEWKHKGVMRIV9VWARHNPEKYLJFDAKFGBQWHAQOKKQWQNKHPTIXMMKEIWOMLYCSBKHWKWOTQGXEUJ9KA","optimalPurchaseTarget":-100,"optimalPurchaseTargetScore":-100,"availablePurchaseTargetList":[],"optimalSaleTarget":-100,"optimalSaleTargetScore":-100,"latitute":"52.360927","longitute":"-1.572371","amountDemanded":"2","pricePrefered":"16","distancePrefered":"13","energyTypePrefered":"3"},{"index":148,"seed":"G9XGECWOQDDECYSHEDKTYAVO9ETDSVUGWKNSXJQXAKXEAIHFLUTWNODXDJWQV9ANACTPRKODRVTGOQYXL","address":"QFACJP9ODKJ9MNMMLBBDRKPXVDZUNPXESDIDNFRMEGPKIKMPZZTOZCQKNYRDOKHFEQIRWVSWMGTKBFIUY","optimalPurchaseTarget":-100,"optimalPurchaseTargetScore":-100,"availablePurchaseTargetList":[],"optimalSaleTarget":-100,"optimalSaleTargetScore":-100,"latitute":"52.245575","longitute":"-0.754520","amountDemanded":"4","pricePrefered":"15","distancePrefered":"14","energyTypePrefered":"1"},{"index":149,"seed":"IAMBXPMH9INSSUQACRQQRUPWKPHCTXHMGNU9A9IRWIYWHL9RIEUGCTQJOVVANEVPEPVINLUWESD9HDGHD","address":"JVBSHHZJITBJYLKNUSNYSMVXG9VQUMJXNSJIUTDKRRQPYMTAJCBXBYXJTSGQTHZNZJZDIAWLNZRJRWNLX","optimalPurchaseTarget":-100,"optimalPurchaseTargetScore":-100,"availablePurchaseTargetList":[],"optimalSaleTarget":-100,"optimalSaleTargetScore":-100,"latitute":"51.226967","longitute":"-1.647537","amountDemanded":"4","pricePrefered":"16","distancePrefered":"14","energyTypePrefered":"4"},{"index":150,"seed":"C9RGGDPMSXDMYDU9TKGTQFSXDWLXNOFVTSAGRBHSGGWTLSVSGOTPAQFCLEOKOFE9NVYLTGOSTQBLJDTAI","address":"EVYJPVWVVDYYIKWQQACFEGOPQLAAVNBT9FMPSTYDKHSIIVDRDBDGGWDZTBNIDJYPURYUOGWDQSHK9EPUC","optimalPurchaseTarget":-100,"optimalPurchaseTargetScore":-100,"availablePurchaseTargetList":[],"optimalSaleTarget":-100,"optimalSaleTargetScore":-100,"latitute":"51.139068","longitute":"-1.018196","amountDemanded":"4","pricePrefered":"16","distancePrefered":"14","energyTypePrefered":"2"},{"index":151,"seed":"VNMKUWVJGTIPMFAMPPVQMGVVOQLVUIBDQGKYVAU9KXXWUXKHKFVCJ9KFCSWWFNPAHLNFS9WQNPJMQPBKB","address":"VEMICZTCH9KYEJGWRMK9TSOGLVFOUATAEPXIFXDXDDXJWFGFTF9ILOFMHYAYDISSQCMLCVUJAAFBJWOWW","optimalPurchaseTarget":-100,"optimalPurchaseTargetScore":-100,"availablePurchaseTargetList":[],"optimalSaleTarget":-100,"optimalSaleTargetScore":-100,"latitute":"52.253491","longitute":"-0.512312","amountDemanded":"4","pricePrefered":"15","distancePrefered":"14","energyTypePrefered":"2"},{"index":152,"seed":"BKPBRRODKAJ9TPHDFT9XQUUXMGURHBDERBUIWBNVFDOFWRHLN99XCOK9QRCGJMN9MURFSVAJYIJSSWWMT","address":"GEKMMZW9URMLZQEOIBG9YDUB9ZOWOQKBQAPIOATYFQTWIV9TECWIBVCCPIURAGGZSSVRJRTPX9HCMAEFD","optimalPurchaseTarget":-100,"optimalPurchaseTargetScore":-100,"availablePurchaseTargetList":[],"optimalSaleTarget":-100,"optimalSaleTargetScore":-100,"latitute":"50.989624","longitute":"-0.247426","amountDemanded":"2","pricePrefered":"16","distancePrefered":"15","energyTypePrefered":"4"},{"index":153,"seed":"FNSHHXGWRTBRJINDMKLFVSTRBSQLMQKCXRJUKATLSM9AABUFJB9IAYSGATGNRUIRONJVOIMYEBCBURTPY","address":"TEOWZBVPVCWQYHKMKTFPCWKJVDIRAYEAYUYVXVVUZVUMBCJRIXOZQFJHKMLRBQI9QRNRMYHHSCDQE9FHZ","optimalPurchaseTarget":-100,"optimalPurchaseTargetScore":-100,"availablePurchaseTargetList":[],"optimalSaleTarget":-100,"optimalSaleTargetScore":-100,"latitute":"51.650261","longitute":"-0.477544","amountDemanded":"2","pricePrefered":"15","distancePrefered":"13","energyTypePrefered":"1"},{"index":154,"seed":"FRVJIOGNVVX9KWAXQCRDTGMCQEMDQQVSJGGSHADW9MEVDJTOVWSQNDXAUTGHOVVMMIBHFAFEEUHCLNBVN","address":"VXB9LEAVOBFPUICKSPIPYIGOLW9UHQUIEINBAAUAPDCLQHSTSY9KXMVPHLCQOLELTRWPUUJYKZXHDBJVD","optimalPurchaseTarget":-100,"optimalPurchaseTargetScore":-100,"availablePurchaseTargetList":[],"optimalSaleTarget":-100,"optimalSaleTargetScore":-100,"latitute":"51.076125","longitute":"-0.152708","amountDemanded":"5","pricePrefered":"15","distancePrefered":"15","energyTypePrefered":"2"},{"index":155,"seed":"SCG9OWSPGTCYNBMCJXAWCHHDBNCUYHRYSROERKWYMDBUHGTKJQREF9QXVGHWVIBRFHXUAIQEVQPXWMEPB","address":"CMULBTI9SMDLAMEXOBY9QWKZFAAIVLLYLZKLQYWLDXHHLSUOSZZCRMQMNRLLQ9PRJLWRCYXLOZETXABOX","optimalPurchaseTarget":-100,"optimalPurchaseTargetScore":-100,"availablePurchaseTargetList":[],"optimalSaleTarget":-100,"optimalSaleTargetScore":-100,"latitute":"51.443781","longitute":"-1.759873","amountDemanded":"5","pricePrefered":"14","distancePrefered":"13","energyTypePrefered":"1"},{"index":156,"seed":"MQWHVVLPVJVXPMJQIBKJXLMWIJMOKYTXWSPYYFXEED9N9RJYM9DGOTATHXYSDVPEHJVJJRTCRIMJAVOXG","address":"WAZVAVNZOJOKUODUJOXUOEEAKW9XRFVSLKLXRQXWDSKASKOABBONCSJISWWKYY9AAHLANOLL9GHJGOUSW","optimalPurchaseTarget":-100,"optimalPurchaseTargetScore":-100,"availablePurchaseTargetList":[],"optimalSaleTarget":-100,"optimalSaleTargetScore":-100,"latitute":"51.144039","longitute":"-2.242402","amountDemanded":"6","pricePrefered":"16","distancePrefered":"12","energyTypePrefered":"2"},{"index":157,"seed":"D9TWWJYUAUBQHL9WAOB9XBWWFEHRKQSYJBAFTECYGTCMHGLKVHBRAHC9IGIOSHMVXFSRQX9KTNWHELUWI","address":"YQXJUPBBABLJARZWKLEVMZFTRKOFKIIXSJBXGZZLQNKJQEWLLRBLVMCKTJMWOZLVA9XPWJFQKCEKHEOH9","optimalPurchaseTarget":-100,"optimalPurchaseTargetScore":-100,"availablePurchaseTargetList":[],"optimalSaleTarget":-100,"optimalSaleTargetScore":-100,"latitute":"51.559255","longitute":"-0.333274","amountDemanded":"2","pricePrefered":"16","distancePrefered":"12","energyTypePrefered":"2"},{"index":158,"seed":"WDXMPSNQRFO9NTOVYQICMEKNBULKDMAUUUGNPJWEWJPKVLRGAAKFHYTNSLNXBEJUDUBB9RBUKYJGIQNDV","address":"JSUDRWSPKLKGRRUXTIUANI9SWTCXKLJCGVPHLKTNZ9NEGAMDKIYNAWXZZCXENWBHBDKKVXJGPFCCNJUWD","optimalPurchaseTarget":-100,"optimalPurchaseTargetScore":-100,"availablePurchaseTargetList":[],"optimalSaleTarget":-100,"optimalSaleTargetScore":-100,"latitute":"51.995346","longitute":"-0.553837","amountDemanded":"6","pricePrefered":"16","distancePrefered":"12","energyTypePrefered":"2"},{"index":159,"seed":"YYQLQUPHCINCNVAMMYPFNRCNPOSLBMFMNAWRAYAKKPIGNLWGYCKWSGMCLQKRENGVYCFTLHURDYDEUER9K","address":"LNKMGJCXUFXAYNRNJJOSFAPLIJOUPQQFBVZZYLDHDGAXANLLXSE9QBQGTWISZJKQIKHXOTKOO9PCUQYVX","optimalPurchaseTarget":-100,"optimalPurchaseTargetScore":-100,"availablePurchaseTargetList":[],"optimalSaleTarget":-100,"optimalSaleTargetScore":-100,"latitute":"52.342743","longitute":"-1.328824","amountDemanded":"5","pricePrefered":"16","distancePrefered":"11","energyTypePrefered":"1"},{"index":160,"seed":"WTNUBWRLLMTLIGBNWFGXMSFXHEOVJTPGSYDMASBGYMGWGHLXEDASB9WQFFCKAHAQCESANOMPVGKAESSTE","address":"TLQSSKGVARJSNCXNRJOJDQPDTRLCYZRXGNXTLPNJIBUXQHCCKJZ9PLOX99YMW9WEYH9HBXWMJ9NGFLQSD","optimalPurchaseTarget":-100,"optimalPurchaseTargetScore":-100,"availablePurchaseTargetList":[],"optimalSaleTarget":-100,"optimalSaleTargetScore":-100,"latitute":"51.335011","longitute":"-0.384589","amountDemanded":"4","pricePrefered":"15","distancePrefered":"14","energyTypePrefered":"1"},{"index":161,"seed":"IXTNSTUQQBELAXWMLRRDWXNDVPESXMUHJRJXXAXGAOLVJXTWTVKETN99SWODSLS9UXWXJEOONBWXDLKPQ","address":"QJHZYOYOUKWSBQJWWXDQATXAPHOKUGMRXNYLKHTSPCBWEWYTUDHRKBZTHJLRHDDJCNOZUBBTBPVNAEPBD","optimalPurchaseTarget":-100,"optimalPurchaseTargetScore":-100,"availablePurchaseTargetList":[],"optimalSaleTarget":-100,"optimalSaleTargetScore":-100,"latitute":"51.759461","longitute":"-0.544958","amountDemanded":"3","pricePrefered":"15","distancePrefered":"11","energyTypePrefered":"4"},{"index":162,"seed":"HMYJICOECQJGNSBVRPHVFRYTOCIYNHIXEIDVYUEEMHJQOCNOHIWUAWMWQIMLEEAKRHWXSDBBBRLGGXI9B","address":"JGUNEWHOWLHKRTKXIBTGQYRJTHLYMM9VBUGDQBFRKDCWDSZ9MYSQVOZSZBBZ9WBOVPPZWDJUXMQUKNEAX","optimalPurchaseTarget":-100,"optimalPurchaseTargetScore":-100,"availablePurchaseTargetList":[],"optimalSaleTarget":-100,"optimalSaleTargetScore":-100,"latitute":"50.999213","longitute":"0.104150","amountDemanded":"6","pricePrefered":"15","distancePrefered":"14","energyTypePrefered":"2"},{"index":163,"seed":"JTWEYFJJYNIEISALTDLLWFNSQIVOGQBBEFSISQCY9IFTBTXADSCTHPCGCIEBNFITJFT9OXQQPUFMOHVEJ","address":"SMWTDBJWHCSIFP9LSAHDJERK9YU9CVLIKDPWVLAJWUKMQSZXLLLEREEUNHQRNNKQPAF9LQKVLLGWJCNWY","optimalPurchaseTarget":-100,"optimalPurchaseTargetScore":-100,"availablePurchaseTargetList":[],"optimalSaleTarget":-100,"optimalSaleTargetScore":-100,"latitute":"52.025606","longitute":"-0.008244","amountDemanded":"3","pricePrefered":"15","distancePrefered":"11","energyTypePrefered":"2"},{"index":164,"seed":"DAS9XTKQPXVENQVRUVDSTTKNDVXCJIVIAEFKHSSOBQFOGVFPIY9AQWAYLLLTICGWHNDYMTNHSBETEEKBK","address":"PQBJAPXRP9ZYPPCIAHGDBEBJQR9SAPLG9KRYJ9DBYANAVLBPENTAHDC99EJABWVDYUWDAQDCVUTZAMGUD","optimalPurchaseTarget":-100,"optimalPurchaseTargetScore":-100,"availablePurchaseTargetList":[],"optimalSaleTarget":-100,"optimalSaleTargetScore":-100,"latitute":"51.492880","longitute":"-1.783795","amountDemanded":"3","pricePrefered":"16","distancePrefered":"15","energyTypePrefered":"3"},{"index":165,"seed":"9PENARKJSMLAJNGXDKDSUKDULJRYAISYHCDIFYCPGOKGJLGEQJEVYETGWODQWFOLUSGYYOCBAITIUP9DJ","address":"CVBVNPVBEPJQQVHG9TG99UQAOUDRHQBHILUXKS9OJTDCO9JAYOY99YILLKCLRVZKDQTJZEDYRKJWH9KAD","optimalPurchaseTarget":-100,"optimalPurchaseTargetScore":-100,"availablePurchaseTargetList":[],"optimalSaleTarget":-100,"optimalSaleTargetScore":-100,"latitute":"52.031327","longitute":"-2.098527","amountDemanded":"3","pricePrefered":"15","distancePrefered":"11","energyTypePrefered":"1"},{"index":166,"seed":"KYEBKRMOYEOKEORIVPLVYREVINHPUWUUCMHWOSTBKG9NPILPROQSHVAJBJFRLFKXTNCDDYDWOFBIOKHOM","address":"WGCRKRHCOPAULZOAUJGGPRW9KWWZ9DTDFKEVBWYVFXESATYHKVJI9QNJAMSATVFMINXHNFGWSEVKRXVKW","optimalPurchaseTarget":-100,"optimalPurchaseTargetScore":-100,"availablePurchaseTargetList":[],"optimalSaleTarget":-100,"optimalSaleTargetScore":-100,"latitute":"52.430255","longitute":"-0.507643","amountDemanded":"2","pricePrefered":"14","distancePrefered":"10","energyTypePrefered":"3"},{"index":167,"seed":"GNOQUSW9E9RALXBAVPPHGFFEPILSUOOIKLGXCQY9XTVMFAAFKHRQJAQLSOTNONNTITFPGDKYFIFKON9QJ","address":"QIXJSOVJTIKBZUTQGDRSMXSVNIVH9QSSGFHLAKCSRVVZQCNSBAVAYXPR9RSVTNLKSBGXNVZKVFRRWFDV9","optimalPurchaseTarget":-100,"optimalPurchaseTargetScore":-100,"availablePurchaseTargetList":[],"optimalSaleTarget":-100,"optimalSaleTargetScore":-100,"latitute":"51.062833","longitute":"-1.142783","amountDemanded":"2","pricePrefered":"15","distancePrefered":"13","energyTypePrefered":"0"},{"index":168,"seed":"RYIKANOXJKBAFGKSNCEOHMBAGUQXGTXDRIGGYDWQKHFKTNYUJHMHTNKRDQAIWKEKICIYQXIQRLSWDGXPD","address":"THAQREUWLEOXXIPJZBMKPPBAYOXQTLDUKJSQDZCSEZFSUCIHQYR9ZNBKNOBYEFIRIKZ9DZ9PEZE9TUOYY","optimalPurchaseTarget":-100,"optimalPurchaseTargetScore":-100,"availablePurchaseTargetList":[],"optimalSaleTarget":-100,"optimalSaleTargetScore":-100,"latitute":"52.118415","longitute":"0.149990","amountDemanded":"4","pricePrefered":"16","distancePrefered":"11","energyTypePrefered":"2"},{"index":169,"seed":"AISFHMEULCH9RNYNEVIJRRAPEVWVTWGCSW9XXNVNVFAVPDHOELRJUSIQKYIBHSTDLRHRAGLEMFGEBWBNH","address":"ZNQAJYGGBQFMAFQQZKYJEUGQNQXIDLMMGSVLBZYZTSDAG99FRMKZQGIJUSNJFUDAICRJLVFJJEQVTRYPX","optimalPurchaseTarget":-100,"optimalPurchaseTargetScore":-100,"availablePurchaseTargetList":[],"optimalSaleTarget":-100,"optimalSaleTargetScore":-100,"latitute":"52.211849","longitute":"-0.414901","amountDemanded":"3","pricePrefered":"14","distancePrefered":"12","energyTypePrefered":"3"},{"index":170,"seed":"EASWTHIICFHVPC99EWHEVKDKAXDXODEKGQGFHHFOWVVMGQUNKQNEDPPEACUMPVCNMKTJQGQORDVXK9JHD","address":"GLHDQTPSBGDHWIXMUIEYRPFWEBIGFTPESZYRRHMQSRRKWXFRSCYRPGMASQFNASKFJFUAQGRCQSTCMACGC","optimalPurchaseTarget":-100,"optimalPurchaseTargetScore":-100,"availablePurchaseTargetList":[],"optimalSaleTarget":-100,"optimalSaleTargetScore":-100,"latitute":"51.331150","longitute":"-2.159788","amountDemanded":"5","pricePrefered":"14","distancePrefered":"15","energyTypePrefered":"0"},{"index":171,"seed":"PUEFYLSXEE9AAUIKN9CTRHQJCPFLYQMRGYBYUQIUMSHBBQRNNNPHMKIKIJLBCEUFNNFVWEXEDHNDHJKMM","address":"FOVCBQVXTPKEV9TJWKLXKIYOEHDGWTQRBKEOLNFGV9SKGZISXICXOPPGNCAZAISBTM9RPLGNS99ADAEZC","optimalPurchaseTarget":-100,"optimalPurchaseTargetScore":-100,"availablePurchaseTargetList":[],"optimalSaleTarget":-100,"optimalSaleTargetScore":-100,"latitute":"52.156377","longitute":"0.292719","amountDemanded":"5","pricePrefered":"15","distancePrefered":"14","energyTypePrefered":"4"},{"index":172,"seed":"QHCUNWSEE9DSOYGLM9DNA9EPECSD9KUAFFOIVELYWKCSKTEKVJBMEKXRFP9FGSQFQKABVNDUSOEQMYDNC","address":"OIRZUEBAUNP9SYWKYGNXVJMWEDAFFYDVCYGENMB9ZNSWLSKABGGIIEV9NRMNLFAHQILYWLCFDUSOYXWRW","optimalPurchaseTarget":-100,"optimalPurchaseTargetScore":-100,"availablePurchaseTargetList":[],"optimalSaleTarget":-100,"optimalSaleTargetScore":-100,"latitute":"51.554793","longitute":"0.209085","amountDemanded":"4","pricePrefered":"16","distancePrefered":"13","energyTypePrefered":"3"},{"index":173,"seed":"MBURQRGBUHWDQGGHFVEDAJQPUPVKLVNQYUBSLACQCLU9TCRMYOWBQVFMBFYVDVSREBACVXWDWWSJEYDEN","address":"KTCFZTFTQRLPBNHACJQIUZJJVRQKYMJONLBLYQTKHCEYFXAHOZCTPKFOYNFMOPQEOZ9XNNWIKBYQSCAGW","optimalPurchaseTarget":-100,"optimalPurchaseTargetScore":-100,"availablePurchaseTargetList":[],"optimalSaleTarget":-100,"optimalSaleTargetScore":-100,"latitute":"51.995116","longitute":"-1.017525","amountDemanded":"2","pricePrefered":"15","distancePrefered":"14","energyTypePrefered":"0"},{"index":174,"seed":"YBBAHQMPUVHCGPSCQXDBCQWAXUVITEDVMMUWTIRCTOTYVMMMKMMGQUKCBDF9GVUWRYBYVBN9WLTKSEPXY","address":"BMSGYY9KKOQYNUHAYEYDVSHOUBKIQKAHJPUYJWSLCOPDXD9ZGBHELOJDQBCVKNDDEZHVJCMAAEYZALXFB","optimalPurchaseTarget":-100,"optimalPurchaseTargetScore":-100,"availablePurchaseTargetList":[],"optimalSaleTarget":-100,"optimalSaleTargetScore":-100,"latitute":"51.455474","longitute":"-1.980220","amountDemanded":"1","pricePrefered":"16","distancePrefered":"14","energyTypePrefered":"3"},{"index":175,"seed":"RGPTYESTLGUODMEI9VRSUEJISQOEUMXTMSRLKPEHPDOWEKUNLESJROTHHIDCDVEBEYFVODQESGXEOEYBN","address":"U9WYOLSVKIITYEHDLFZSRDOMOSZTMMYCZUUANWJYQFKYWG9EGGLJHVZBZJJUJ9QUBHGSOCBCQPXDULSUD","optimalPurchaseTarget":-100,"optimalPurchaseTargetScore":-100,"availablePurchaseTargetList":[],"optimalSaleTarget":-100,"optimalSaleTargetScore":-100,"latitute":"50.968662","longitute":"-1.811501","amountDemanded":"3","pricePrefered":"15","distancePrefered":"12","energyTypePrefered":"1"},{"index":176,"seed":"KRNNNIPNKGUWQVSCJQSIEE9DY9VPBKVMG9HHITLBMKGPFAPAWIDONSHILGKQNBUBVACRKQEFBRBDAOHYA","address":"JGBYWPANVEOMUYADHEVJZKJGDUGBWGJZAQRNQQAUMIUMSCNFFSIBMSTOLECMGURDNLWCBPO9GJGWMJLTY","optimalPurchaseTarget":-100,"optimalPurchaseTargetScore":-100,"availablePurchaseTargetList":[],"optimalSaleTarget":-100,"optimalSaleTargetScore":-100,"latitute":"51.547717","longitute":"0.236576","amountDemanded":"5","pricePrefered":"14","distancePrefered":"14","energyTypePrefered":"2"},{"index":177,"seed":"SVMDKUFPLVJQHLSEOQLNVOVTELXKXOTXLSKAYQDWQIIBUGGPBASNNHRGYOGMCJDIKAXC99WRGXJFRRHSJ","address":"GFDFJEWYXYKCRMXPNRN9DZYMWTQXYPKAKFLHVKXJAWWYNNXVGNMGHLSDFIK9VSZ9XPFWOKA9SNZGUILAX","optimalPurchaseTarget":-100,"optimalPurchaseTargetScore":-100,"availablePurchaseTargetList":[],"optimalSaleTarget":-100,"optimalSaleTargetScore":-100,"latitute":"51.519801","longitute":"-0.182380","amountDemanded":"4","pricePrefered":"15","distancePrefered":"10","energyTypePrefered":"4"},{"index":178,"seed":"GACANRQNJNNW9VUUGXUBJWCUNAALK9YHQRGK9MCTXENGINJKOL9RDHVWNNIWFKVXJXPDLBYJ9WUCNVQ9Y","address":"LPDTQEPPDD99MVBANXHLNEQNJAWBNH9QSOCFCOXEJJWSFWUACWIUOXKMINUAYGIPVBIPAXBXKZJQJQGHY","optimalPurchaseTarget":-100,"optimalPurchaseTargetScore":-100,"availablePurchaseTargetList":[],"optimalSaleTarget":-100,"optimalSaleTargetScore":-100,"latitute":"51.994449","longitute":"-1.827900","amountDemanded":"5","pricePrefered":"15","distancePrefered":"13","energyTypePrefered":"0"},{"index":179,"seed":"YVIKSMX9CQITBKXUKUNCSAQTACIBI9PEECMXCDAPQYVEPRLHECFQIGFDEAFNABBGBHWBW9YYKVTNIIFGP","address":"ZDFTNWUCWWUREAFNWTZF9OGSQFPIFKQILDP9BEQIOILHRNMBGZIIHZZXJKXYEPHDLYZLNDFHTTSSJZZYC","optimalPurchaseTarget":-100,"optimalPurchaseTargetScore":-100,"availablePurchaseTargetList":[],"optimalSaleTarget":-100,"optimalSaleTargetScore":-100,"latitute":"51.828023","longitute":"-0.726482","amountDemanded":"5","pricePrefered":"16","distancePrefered":"12","energyTypePrefered":"3"},{"index":180,"seed":"VGIOMXBGCLATPCHDIAICUHJMQFQPEIUOKLSK9LJQKKVSJXIQJ9ICBYLLYJGMDUILIWCEONSVRFWYCAWCH","address":"DA9ISHWPYYPFTFJ9WLFXRLQELSIOXWFT9WHIAPHVQHWRBQCTCOIVUKAZKKXFBMCGSUXOJCPILOTQKZZCA","optimalPurchaseTarget":-100,"optimalPurchaseTargetScore":-100,"availablePurchaseTargetList":[],"optimalSaleTarget":-100,"optimalSaleTargetScore":-100,"latitute":"52.358667","longitute":"-1.129995","amountDemanded":"2","pricePrefered":"15","distancePrefered":"14","energyTypePrefered":"3"},{"index":181,"seed":"SHSGVFUYJSWRPSTUALTWTTGXUACOP9CSXGHCLBL9VBHJKKXRQMUPIJJGFQWPQSRYXEETMOGKLWXBGH9IE","address":"MMOHZXQTMLRLJQNAVOGYPRFQHJEXY9TXNAZCZMPQINNEVVIJFCJFSYTRV9TSUHJRBTNXUOXWA9ZORQKTY","optimalPurchaseTarget":-100,"optimalPurchaseTargetScore":-100,"availablePurchaseTargetList":[],"optimalSaleTarget":-100,"optimalSaleTargetScore":-100,"latitute":"51.134947","longitute":"-1.072347","amountDemanded":"2","pricePrefered":"14","distancePrefered":"10","energyTypePrefered":"2"},{"index":182,"seed":"EARVOCBIFXISXHKDYTWSUQXVGOM9SNTIGLXREYELLJHULGKMQVJHDAIVJIALAVN9VTTUOMCHFXFBAHXEH","address":"JJ9JUFLPBTCECMTCGQNZUZYNQNTVWKFPOXBXKUZBDYIFRCGIYPLRYSCQDVWMXHPLFTAKEHVCNIJAYTPGD","optimalPurchaseTarget":-100,"optimalPurchaseTargetScore":-100,"availablePurchaseTargetList":[],"optimalSaleTarget":-100,"optimalSaleTargetScore":-100,"latitute":"51.525713","longitute":"-1.026983","amountDemanded":"6","pricePrefered":"16","distancePrefered":"11","energyTypePrefered":"3"},{"index":183,"seed":"SPXUX9SNPDNFENEENJICPO9UJGOMISIIEVBS9SHVPYMPNWDBDTUDFSVGEJQTYRSMBUKDXR9UP9CPOROOE","address":"PCAXJDCYBXJGLIKILWMPMUFVYQFXWIOTJBBAQJUZWKHHQQJMRKCKCDJCXGSMQZW9WOKIZXMFBBEVQNUQZ","optimalPurchaseTarget":-100,"optimalPurchaseTargetScore":-100,"availablePurchaseTargetList":[],"optimalSaleTarget":-100,"optimalSaleTargetScore":-100,"latitute":"51.284050","longitute":"0.273899","amountDemanded":"4","pricePrefered":"15","distancePrefered":"10","energyTypePrefered":"3"},{"index":184,"seed":"F9RJXGWBRYTHYLPXUFSCFFBEIPVL9MKTRJRP9PBXTKTMBSOJVUJDJECQMOVXIVFIYFJKBKGEPIGVQBQQS","address":"XNOQDZZHUTKIMNYSLNLHA9DLUE9IUFL9TQHYEKMZDCXKVAFNW9PGXWIKJOOQIOJHWEEGGGZQVPLJKNFSX","optimalPurchaseTarget":-100,"optimalPurchaseTargetScore":-100,"availablePurchaseTargetList":[],"optimalSaleTarget":-100,"optimalSaleTargetScore":-100,"latitute":"52.054309","longitute":"-1.915439","amountDemanded":"2","pricePrefered":"15","distancePrefered":"14","energyTypePrefered":"0"},{"index":185,"seed":"IGQSFCLMPEKQXRJWJRGYH9OAUWHFDNPNREUAYNSYFHMUXQAHI9DNSPUYDYAPDPNFVNICLKVOAU9PCDYOH","address":"BXVTFSJDLGGCWVL9GIQO9YLIXIBHWQHPBAAGZHABVSEBOWQFSTAVQYCGYHUGVFO99ENCFF9YPXFUQHLVX","optimalPurchaseTarget":-100,"optimalPurchaseTargetScore":-100,"availablePurchaseTargetList":[],"optimalSaleTarget":-100,"optimalSaleTargetScore":-100,"latitute":"51.233135","longitute":"-0.322961","amountDemanded":"1","pricePrefered":"15","distancePrefered":"11","energyTypePrefered":"0"},{"index":186,"seed":"LDRETMFMOUTPNOFWAMB9VKFRT9TNLBOLAEVTIPNBEOHAMOBDBTLDBXXKPEJKKEDNOGLGBHNNUR9XADLVW","address":"QPYIJKVAAHJIKHWIIWVFHNCNOLZFGRZDZLSBQCDSHEEFETR9MYLG9SKQVX9QCCZLP9MDE9FZLEZZFYSCC","optimalPurchaseTarget":-100,"optimalPurchaseTargetScore":-100,"availablePurchaseTargetList":[],"optimalSaleTarget":-100,"optimalSaleTargetScore":-100,"latitute":"52.021346","longitute":"-0.479866","amountDemanded":"1","pricePrefered":"15","distancePrefered":"11","energyTypePrefered":"0"},{"index":187,"seed":"JXECEGMGCVPWOBYSSTRTCHNUBAL9FMJFJWJXNVKCCMUSTTKDR9MBAJBSYBPIOCVILQEXTSBXAVMBSMDLM","address":"WDNJ9NACVTA9ZVNPBXAMSYLVRJOHTNPTZMTZJWPDHSJQCUNROH9GDWNGXBDMYPIC9ZAZIZMKECCEIHPG9","optimalPurchaseTarget":-100,"optimalPurchaseTargetScore":-100,"availablePurchaseTargetList":[],"optimalSaleTarget":-100,"optimalSaleTargetScore":-100,"latitute":"51.773404","longitute":"-2.227194","amountDemanded":"4","pricePrefered":"15","distancePrefered":"14","energyTypePrefered":"1"},{"index":188,"seed":"9PODOFBYHYTBWNVGPHFUJGQSGQGFVCLIMQFBALOGVC9UNWYTJQTNFGPH9JTSKHADQXWUXBIQMLEKNSYDK","address":"BBSDFGONJTQRJ9IHZ9BBL9IQOBBA9TGINJMLXADYCMFOJCOHKPZTTZREZSRPVXJVAJJOPTCBDE9KUCOHY","optimalPurchaseTarget":-100,"optimalPurchaseTargetScore":-100,"availablePurchaseTargetList":[],"optimalSaleTarget":-100,"optimalSaleTargetScore":-100,"latitute":"51.761929","longitute":"-0.882650","amountDemanded":"1","pricePrefered":"16","distancePrefered":"14","energyTypePrefered":"1"},{"index":189,"seed":"QHM9SJMFYJYJDDYRTBLCWNOCWWRPRAEBJXDDIAEYSCY9LVDG9EFVYVIMEJGRLWHNSAFCNGCNPKT9WOVVR","address":"9ZVPIMEKPJKQAFWZAKEBXOS9UJLUCFHTDOTYM9SNVGRKBHVVDOFSLXGESUTQFSQONQMR9ASCJNRINZRBW","optimalPurchaseTarget":-100,"optimalPurchaseTargetScore":-100,"availablePurchaseTargetList":[],"optimalSaleTarget":-100,"optimalSaleTargetScore":-100,"latitute":"52.333923","longitute":"-1.485219","amountDemanded":"2","pricePrefered":"16","distancePrefered":"14","energyTypePrefered":"1"},{"index":190,"seed":"BBAAMHVETDCEVLJNNGBULHSXMDEYIM9NVDXMUWCHMKSOICFWDXQ99IDIIJKGMVTIUPYVLKJOJOIL9OCRH","address":"NDCO9QRAKRRBOVVTYFBTTWIHWKBMYUYJCCJCRPXGVVEXBNZJWDTRJFEFBGXIDWDV9YBNNEQEBGCVR9IHW","optimalPurchaseTarget":-100,"optimalPurchaseTargetScore":-100,"availablePurchaseTargetList":[],"optimalSaleTarget":-100,"optimalSaleTargetScore":-100,"latitute":"51.062291","longitute":"-1.868698","amountDemanded":"4","pricePrefered":"14","distancePrefered":"13","energyTypePrefered":"2"},{"index":191,"seed":"NGWROKXSHJQCWLTVKRFDQYNEVTM9YCWKRGAVOJODSMJFGQWKNGMGCQQOLD9AGTNNKSQRI9AIORUFCRBIK","address":"JJYCCLPOWTUBGXZHVWTFWUBFCIJZFUPUYEUZJFYXTWYZHBKXRSMRTQDCNACJOUSCSXMUCMSDDNIT9HL9D","optimalPurchaseTarget":-100,"optimalPurchaseTargetScore":-100,"availablePurchaseTargetList":[],"optimalSaleTarget":-100,"optimalSaleTargetScore":-100,"latitute":"52.413342","longitute":"-0.303324","amountDemanded":"4","pricePrefered":"15","distancePrefered":"15","energyTypePrefered":"3"},{"index":192,"seed":"BGBCCHXCLBNSGYBSGDMWXTOELGNQELX9S9AYVTPTUBJHNTRXLUKMOCFLGECGXVMNYUBKBNAKNRACAAIFB","address":"CMMXKDVBPFVTFDKQJSM9YPDPYT99MLGGRCOIWACIOIKYXIRYTRWIAANMVNKLJVJQWEZH9TMI9MOIQUXQW","optimalPurchaseTarget":-100,"optimalPurchaseTargetScore":-100,"availablePurchaseTargetList":[],"optimalSaleTarget":-100,"optimalSaleTargetScore":-100,"latitute":"52.263645","longitute":"-1.533944","amountDemanded":"2","pricePrefered":"14","distancePrefered":"11","energyTypePrefered":"1"},{"index":193,"seed":"PGYCUSOODADASASAFBEMUNYPKLYJWWDFCPLXBCQUFNFLLYEJVDAAYLAQSRDGKCEHXLIDODHRKUJKRMSBU","address":"MCFICNANDEGJG9TRDQDUMRWHCPLJDIUEPXERXYFZAVQ9LEKRRFTEJXUSLNPZTYMA9THVTHIVMM9GMWIC9","optimalPurchaseTarget":-100,"optimalPurchaseTargetScore":-100,"availablePurchaseTargetList":[],"optimalSaleTarget":-100,"optimalSaleTargetScore":-100,"latitute":"51.787075","longitute":"-1.007905","amountDemanded":"4","pricePrefered":"15","distancePrefered":"11","energyTypePrefered":"2"},{"index":194,"seed":"AILCTNVWQVSRDTDAOFDSJRSUDXKTJR9OLREBYMQOUGTWEETFVNU9KCYFPBGQTMPOLMMSQUORDAIDWMYEM","address":"MHAXCTVFURNDCWDWFATNPACGJZMNJOPSJUJNHFLWUFQBCZ9JBJDFHUUMVWPJVKDF9AAKUFWTJTZOANSBD","optimalPurchaseTarget":-100,"optimalPurchaseTargetScore":-100,"availablePurchaseTargetList":[],"optimalSaleTarget":-100,"optimalSaleTargetScore":-100,"latitute":"51.861308","longitute":"-2.287478","amountDemanded":"4","pricePrefered":"15","distancePrefered":"10","energyTypePrefered":"4"},{"index":195,"seed":"UKSNEBDIVWYHQAAHUPOOCNAKWT9SKBCEWPXJIHAR9BYJAIEGCBUKPBXLNFVCOTUYINJBTGEOCAGPPLJBM","address":"JKBWZDPVTIGKCKXCIRXCPLDVZEANCD9LTETPBYOZP9WIPAFQTKAS9HRH9RAYMRPQARPGLIHBFMF9JMKVC","optimalPurchaseTarget":-100,"optimalPurchaseTargetScore":-100,"availablePurchaseTargetList":[],"optimalSaleTarget":-100,"optimalSaleTargetScore":-100,"latitute":"51.293487","longitute":"-0.907478","amountDemanded":"3","pricePrefered":"15","distancePrefered":"11","energyTypePrefered":"4"},{"index":196,"seed":"BIBYLPNEFF9UQPSDAKO9XKRCRRJGRKUXVDOJBBXJQWIFPFXOLWQRUHFBOCAH9BDHODRFBNJBGEBMOGGSK","address":"DKMOFITTTZALFJOVRAQNNXZ9OBCMOOWBLYUWPRNG9IWMAWZJLWNSAVGWXOQ9FSXBGWOGTGXFDGBOYDXLZ","optimalPurchaseTarget":-100,"optimalPurchaseTargetScore":-100,"availablePurchaseTargetList":[],"optimalSaleTarget":-100,"optimalSaleTargetScore":-100,"latitute":"51.529429","longitute":"-0.975526","amountDemanded":"6","pricePrefered":"15","distancePrefered":"12","energyTypePrefered":"0"},{"index":197,"seed":"9YBLBLHUUGYL9YPVSGSSBMOX9C9EBHLVKBJYYQSQQSOTCQOJHJOCANSLCDEUIBSHGEKKBQO9AJG9DQCSC","address":"AVIZFEGSL9LFIISEFXPHJMFXPWEADBSMSWUXOSDNJXVJODRTPYDWUTHXWSUHWS9YRYJJIVYZVBTCRBMCB","optimalPurchaseTarget":-100,"optimalPurchaseTargetScore":-100,"availablePurchaseTargetList":[],"optimalSaleTarget":-100,"optimalSaleTargetScore":-100,"latitute":"51.212187","longitute":"-1.157955","amountDemanded":"5","pricePrefered":"16","distancePrefered":"14","energyTypePrefered":"1"},{"index":198,"seed":"GVFQJJCNCLAATSLSJCOEKBDXFRYARCWWNFWRIFBCNHGKNKNWYLFWIYNTBIUAF9NND9CIPSXXVXHDIGAIR","address":"SJWLVHVKIXRHCDLZGIQWHLGUEUELNLITKZCFP9CDBFGATBYGMBYFPZDNTBLFWPCKDFNKBGI9GJTVWD9CA","optimalPurchaseTarget":-100,"optimalPurchaseTargetScore":-100,"availablePurchaseTargetList":[],"optimalSaleTarget":-100,"optimalSaleTargetScore":-100,"latitute":"51.909549","longitute":"-1.722854","amountDemanded":"4","pricePrefered":"14","distancePrefered":"11","energyTypePrefered":"0"},{"index":199,"seed":"H9RDGBOKRUKXGWQDCKECIB9NCNGC9KQAIXVEGCVPWXWEUDXNV9LA9EOIHYTPTREBDANWPRCJWNGYHLOSV","address":"DVWNAWYMQGUDRITBZHLNIMNTPDYUFJBJUUTUQ9POBEFRJVRKZWDFUNNDQRLQGNSGXAPKOZITCFP9FNPKD","optimalPurchaseTarget":-100,"optimalPurchaseTargetScore":-100,"availablePurchaseTargetList":[],"optimalSaleTarget":-100,"optimalSaleTargetScore":-100,"latitute":"52.050166","longitute":"-0.605914","amountDemanded":"5","pricePrefered":"16","distancePrefered":"14","energyTypePrefered":"1"},{"index":200,"seed":"AEUVYA9TKCIU9AXQRLJKMFSVWRCL9XQYA9CFUKH9OFRBBMHNMLFGHGFOF9ODXGNUBYLSWUWQJBBDEHMGJ","address":"OQEFWBNMUC9HSQPTLKHOSQYLDHS9HIALCQAQMKBYDRDEVQRCBZWKTYTOGAYDMBJQNODYGGRPPXBBQJABD","optimalPurchaseTarget":-100,"optimalPurchaseTargetScore":-100,"availablePurchaseTargetList":[],"optimalSaleTarget":-100,"optimalSaleTargetScore":-100,"latitute":"51.899062","longitute":"-0.212092","amountDemanded":"6","pricePrefered":"15","distancePrefered":"14","energyTypePrefered":"2"},{"index":201,"seed":"CMMIYLLOUMIVMFUDJDROUEIJITLLXNNBGW9EXFRSPYRHGAGGAKXQ9MCPNSDTDIDJJHHOEJEVTUE9UPNCH","address":"IDWPNSKKCSAKIWRQ9OYOWHYUFYTMETAGFJS9LDIQJBUPMABOZJPFGVHTIEOFTGTPLFRDRPXQQHRMHSVKX","optimalPurchaseTarget":-100,"optimalPurchaseTargetScore":-100,"availablePurchaseTargetList":[],"optimalSaleTarget":-100,"optimalSaleTargetScore":-100,"latitute":"51.719374","longitute":"-0.027514","amountDemanded":"3","pricePrefered":"15","distancePrefered":"15","energyTypePrefered":"1"},{"index":202,"seed":"RVWRUSLWOTFCBSNSRROPTYKHF9YVRBUJJERYOPTKXWCBHIPABEDIRLVMXWBUAOINLVPVX9WDBPIAUGIXT","address":"HCUWIOKAXMHVLWOGZKZFMHPDBSCH9HIYPHIBXWRYZPKBDSLSOUUBROPATJQADVOLHXBLCNQOCTCENLLHZ","optimalPurchaseTarget":-100,"optimalPurchaseTargetScore":-100,"availablePurchaseTargetList":[],"optimalSaleTarget":-100,"optimalSaleTargetScore":-100,"latitute":"50.993437","longitute":"-1.364054","amountDemanded":"3","pricePrefered":"15","distancePrefered":"13","energyTypePrefered":"3"},{"index":203,"seed":"CRIYXGJYFNQLREOYBDWDK9CXSNXEETEJRUGLPEDG9HPXMRTNJJKIKPMBQ9FXP9GWLOACOIBWQDI9Q9WHB","address":"FB9KY9LDIPLYHKBSIMFGGHHRGCUOKUHB9LPPMQQVZNKOOCQFLULBGSKFDAJBLFHJJPRZMDB9IDFEZSBBY","optimalPurchaseTarget":-100,"optimalPurchaseTargetScore":-100,"availablePurchaseTargetList":[],"optimalSaleTarget":-100,"optimalSaleTargetScore":-100,"latitute":"51.567471","longitute":"-2.278438","amountDemanded":"3","pricePrefered":"16","distancePrefered":"14","energyTypePrefered":"2"},{"index":204,"seed":"VJSBINJBHLTOJIWB9YFRFNGGRVQMHFKSDJMSAJNKIJLWGRPVLPCDSYSMCMELIERQLYVEKLOMEQ9UOQGKH","address":"D9VUCTHLIINDWBCKCIZ9BPCYNZSDXMFHJBHJUIEAOCOQESH9ZPUXRLIQGIOXTMGYOYXBCWSHLGFWKHTSX","optimalPurchaseTarget":-100,"optimalPurchaseTargetScore":-100,"availablePurchaseTargetList":[],"optimalSaleTarget":-100,"optimalSaleTargetScore":-100,"latitute":"51.747673","longitute":"-1.222087","amountDemanded":"5","pricePrefered":"14","distancePrefered":"11","energyTypePrefered":"2"},