[{"index":0,"seed":"UQTAVOHBGWMNLCYMWCJCNGEUBQCHSONNBWOXVHGMXPRFSSPUSTSHJIIHJLXUOPUPGADSUVSMCA9AJFJVG","address":"TBJ9XXRNROSNPGCRPDZWWMSOPIYEKXBRQAZMFZDSFFXJOCIVBNWUFBHOIPCOPUSUQPBWIPMDODWWSWR9W","optimalPurchaseTarget":-100,"optimalPurchaseTargetScore":-100,"availablePurchaseTargetList":[],"optimalSaleTarget":-100,"optimalSaleTargetScore":-100,"latitute":"51.623209","longitute":"0.032727","amountDemanded":"5","pricePrefered":"15","distancePrefered":"15","energyTypePrefered":"0"},{"index":1,"seed":"HTOSTEGFPFMLKTLMUSPEJLKUDJS9YFJDDKAJSP9GEJCCRYLIIADOHWVRQIRWTVU9FNAP9TRQSXSCPQOEL","address":"SLZNOA9IHCDIEGBXEOCETKIMMPERFTXQSGHVDYZKHCNCNZGJBFBRILNIVNHZNIDHOTNNERMHDPTJDRLHW","optimalPurchaseTarget":-100,"optimalPurchaseTargetScore":-100,"availablePurchaseTargetList":[],"optimalSaleTarget":-100,"optimalSaleTargetScore":-100,"latitute":"52.194139","longitute":"-2.343467","amountDemanded":"1","pricePrefered":"14","distancePrefered":"12","energyTypePrefered":"3"},{"index":2,"seed":"R9QLRAYGFXLLHPIEHRPAHEBRICTUFSAYHJYBCJIKRPHRGWMSD9SJHJMNI9T9HXDRB9MLEVVRPFSCTRPJP","address":"CSEKPVJAVOIBYJATOZQG9FVHPAXSGNJMKHGWZUJTSSOMXKT9LBU9K9ZPMGQDB9WOGRGHPVPE9DNCOBYZX","optimalPurchaseTarget":-100,"optimalPurchaseTargetScore":-100,"availablePurchaseTargetList":[],"optimalSaleTarget":-100,"optimalSaleTargetScore":-100,"latitute":"52.424273","longitute":"-0.860819","amountDemanded":"3","pricePrefered":"16","distancePrefered":"11","energyTypePrefered":"3"},{"index":3,"seed":"M9PHADQJCBLVKJFOGYWAXQQLPWAHY9ASIU9XCBS9VXEBACYXUVCJGITAU9OOGQUURSUQPCLELYFMYHG9L","address":"F9LBBYVOTKMWUHJFAMCTQVVC99NY9XUQRGHZLNGJBLXUJZNEBHFDRYIBXOSKBADIJVVKFNCXGUEMRKYK9","optimalPurchaseTarget":-100,"optimalPurchaseTargetScore":-100,"availablePurchaseTargetList":[],"optimalSaleTarget":-100,"optimalSaleTargetScore":-100,"latitute":"52.261739","longitute":"-0.240626","amountDemanded":"6","pricePrefered":"15","distancePrefered":"14","energyTypePrefered":"1"},{"index":4,"seed":"9OMQCPAW9HXPDTJXXLDQXTSWTKTNHR9JSUWKKUJGFYKGWBKNE9JROGXJAJSTODYAHCXT9WYTRXKPNIDEV","address":"9ANJBXK9NNKCGQ9INBXSSOUHBVIGHQMQZRZXPZTPYOILNPUXCPGE9KSRAWKMKHJACMWHLPFPSOGCYZYW9","optimalPurchaseTarget":-100,"optimalPurchaseTargetScore":-100,"availablePurchaseTargetList":[],"optimalSaleTarget":-100,"optimalSaleTargetScore":-100,"latitute":"51.233513","longitute":"-1.558635","amountDemanded":"2","pricePrefered":"15","distancePrefered":"11","energyTypePrefered":"3"},{"index":5,"seed":"WLGKFVHMAW9QUOWHLDAUCUXQJU9BQMMDQJCVOVIOSETS9LQ9MKUADVTNMYPUXPPDKUEIBAURLYSRKAFOV","address":"VPT9BL9JHLQHJLVQGHSOFAJFIXCAMXPCRLSLGKATKDSPRYFVCLVUIQBYPD9INCNIQVINNMM9NHNDIUFKX","optimalPurchaseTarget":-100,"optimalPurchaseTargetScore":-100,"availablePurchaseTargetList":[],"optimalSaleTarget":-100,"optimalSaleTargetScore":-100,"latitute":"52.152410","longitute":"-1.443007","amountDemanded":"2","pricePrefered":"14","distancePrefered":"14","energyTypePrefered":"3"},{"index":6,"seed":"KDXGNEQJTJR9PAMJMDHPVVVKWHOLFSYLRXEOIGGCSAJMT9FURMSGARIV9HICPKUQCMWTEEXYKQQRGILWR","address":"YZTEWUSIUEBZGHH9NOQRDXIRWE9MOM9NWWYJLJMKCIVQFWMOQPJSBOREYJQNUEWYMHABMYJKHAEPUSDMW","optimalPurchaseTarget":-100,"optimalPurchaseTargetScore":-100,"availablePurchaseTargetList":[],"optimalSaleTarget":-100,"optimalSaleTargetScore":-100,"latitute":"51.766997","longitute":"-2.205979","amountDemanded":"1","pricePrefered":"14","distancePrefered":"13","energyTypePrefered":"2"},{"index":7,"seed":"FAXQEWQMX9DFKCXHXHNSWAQCHDBPINCKPIJPAYBFEEWHVAUVELRKWMGXXAPPNKGYALKECTFIEAVFENPCM","address":"JWFSOJ99KEFNWNJWKB9GZPSDPXIETHZOJINSJLYSEEPYXUYZDMOGPGYODHMZB9YPPSBPAWLZMVJJRVAJZ","optimalPurchaseTarget":-100,"optimalPurchaseTargetScore":-100,"availablePurchaseTargetList":[],"optimalSaleTarget":-100,"optimalSaleTargetScore":-100,"latitute":"52.244065","longitute":"-1.030635","amountDemanded":"2","pricePrefered":"15","distancePrefered":"12","energyTypePrefered":"3"},{"index":8,"seed":"YC9TVHTPSJJUPLNDAFRTUUKKJANDXIUYXPBTHMCKEPKOYNKMQDTVHBXBYOAQVJPIAUVALDFSQBHRHYWGY","address":"KONEUQSCGLVGJRYGCYDQL9FAHQMHO9QTNESXFTAOGB9TJYSCJQIDXCU9KOWVIKISRTLQHDPMTRQQJDNLC","optimalPurchaseTarget":-100,"optimalPurchaseTargetScore":-100,"availablePurchaseTargetList":[],"optimalSaleTarget":-100,"optimalSaleTargetScore":-100,"latitute":"52.370425","longitute":"-0.594036","amountDemanded":"4","pricePrefered":"16","distancePrefered":"14","energyTypePrefered":"4"},{"index":9,"seed":"XFHYTCOVPKXLXJFDBTHLWAGSBFSBXNBEFQJCYNFFOEOBNEVTOQHPHWMVLOGCL9PNJAFXTFBQLWS9YMXJM","address":"MMVPJ9MSURJOXJIXENTGZUJYKTFUBQKCKRGAOVLYJWALLDETUEBDGYXOHFRRFFQWGPXINVTJYWKKRODQ9","optimalPurchaseTarget":-100,"optimalPurchaseTargetScore":-100,"availablePurchaseTargetList":[],"optimalSaleTarget":-100,"optimalSaleTargetScore":-100,"latitute":"51.900237","longitute":"-1.004569","amountDemanded":"5","pricePrefered":"16","distancePrefered":"14","energyTypePrefered":"1"},{"index":10,"seed":"ORPMKLHUHRFWGHNXIELFRWXILGN9JNKNDSSGBYLMRCCPUEDWPGKFGIEJUPWN9SGPDTJUIBVWUU9GY9J9W","address":"TTGTKOF9ZXQXWJRDEQU9UEHRCUZLUK9DOGWLENJVKWMHFGVN9CHZX9ZSFZFJKDWBI9WYJLOQN9CMINXTX","optimalPurchaseTarget":-100,"optimalPurchaseTargetScore":-100,"availablePurchaseTargetList":[],"optimalSaleTarget":-100,"optimalSaleTargetScore":-100,"latitute":"51.460946","longitute":"-0.570558","amountDemanded":"2","pricePrefered":"16","distancePrefered":"11","energyTypePrefered":"3"},{"index":11,"seed":"VYQFXGABEDBPFYDAVVGXAHWUOOTYUBDSSILI9DPNPRAEEHHOQNFC9OGMAPXCFRAEKTQWRDAQGNLCETETG","address":"CE9SYPSHPVQAS9MNCEAFIEBKCJRVYSRXFWCHOOPACQQWFTVSFSJXQJFLNASDYVRCKMXAVFBLWSCSK9SVW","optimalPurchaseTarget":-100,"optimalPurchaseTargetScore":-100,"availablePurchaseTargetList":[],"optimalSaleTarget":-100,"optimalSaleTargetScore":-100,"latitute":"51.489682","longitute":"-1.878606","amountDemanded":"2","pricePrefered":"16","distancePrefered":"10","energyTypePrefered":"3"},{"index":12,"seed":"KBEQSXLYPFKF9UECKJFGLHBFIDMKAUWATWHTVHUQHY9WR9MBYHFSWSYDDFCYWLDUMWTAREBCEPSYDFYSX","address":"XXWLYYWZISBQQGEERXOPSDTYJIPNZEFN9EJG9OPSZUATAGJRGYDAOLOAMRDCFNUSLQAPXQUMSZUP9CVMZ","optimalPurchaseTarget":-100,"optimalPurchaseTargetScore":-100,"availablePurchaseTargetList":[],"optimalSaleTarget":-100,"optimalSaleTargetScore":-100,"latitute":"51.147182","longitute":"-1.859453","amountDemanded":"4","pricePrefered":"14","distancePrefered":"12","energyTypePrefered":"0"},{"index":13,"seed":"XMDR9PQWPYWLIBNKODQWAV9DQNADMX9PGHFHRRTNXFSSVOFOTEIPX9PXYTKXNXGRHIFFTTNTUXHQHKNOM","address":"SBNHKKWONTUBTQWRYNLAB9LZKYDLMCDJTVZJRWAIXWRCKL9ATSIPRPSXCPPLVLKEAVNPQJTBUSQJTQKFC","optimalPurchaseTarget":-100,"optimalPurchaseTargetScore":-100,"availablePurchaseTargetList":[],"optimalSaleTarget":-100,"optimalSaleTargetScore":-100,"latitute":"52.375271","longitute":"-0.531491","amountDemanded":"2","pricePrefered":"15","distancePrefered":"10","energyTypePrefered":"4"},{"index":14,"seed":"QYL9KVS9JTVTYEVMUT9HOGLAMPDEJO9CCPKATCQKJTCJXAQRTIFOKRQVQUIDNXCLJCKPJEBEDS9YNHEJR","address":"QLHZBICOVGVOIASAKUHGKAXAVWAZKIW9SNBIHUPJRLVR9WWXOKQLDXNCSDLOZMMHJIUTCRPWSLBHHTTQW","optimalPurchaseTarget":-100,"optimalPurchaseTargetScore":-100,"availablePurchaseTargetList":[],"optimalSaleTarget":-100,"optimalSaleTargetScore":-100,"latitute":"52.204694","longitute":"-1.574764","amountDemanded":"5","pricePrefered":"16","distancePrefered":"12","energyTypePrefered":"4"},{"index":15,"seed":"MLOXLYHWEKCDRFEDOUGOSDEUUFUFXJOWADXGRQJXNVO9E9EFWHNYUBFPWYGC9EKRQVKSRMHRSGUXODPUG","address":"9CMKYYAMQTTALYSNRTHRLHLXHMFXCWCUFMPWVRSLTJZEKTFHLZAEAEQRYDJZMKZYEVPRNHHQWHMB9KMYX","optimalPurchaseTarget":-100,"optimalPurchaseTargetScore":-100,"availablePurchaseTargetList":[],"optimalSaleTarget":-100,"optimalSaleTargetScore":-100,"latitute":"51.229438","longitute":"-0.500186","amountDemanded":"2","pricePrefered":"16","distancePrefered":"12","energyTypePrefered":"0"},{"index":16,"seed":"KMHEKLIBJBLJ9CMPWTPKLHOEDCRPQGWQVJKJDIKGUWXOXBLALOANOQTGTGATHMCFHQKKETFJXGTREIII9","address":"NMKSXYLR9JABGGNYGVXYHFBLJUOEBEPFHSHFCNMQQTRIAJCCQAYGIDWZUHBNFQVFITULOABVIFTZRAQN9","optimalPurchaseTarget":-100,"optimalPurchaseTargetScore":-100,"availablePurchaseTargetList":[],"optimalSaleTarget":-100,"optimalSaleTargetScore":-100,"latitute":"51.529586","longitute":"-0.850106","amountDemanded":"2","pricePrefered":"15","distancePrefered":"12","energyTypePrefered":"2"},{"index":17,"seed":"WTQSICJSQP9AGRQFWAHOBGWINXHESPVEPQCWJA9TPOXLJDJJVCJPKXVBAURJAQTUYNV9IEFNHISRHJKIV","address":"BOLOGLXDZLEP9UIZDKZP9SDJLDWMQRARSORGNFUPOCFDRGLWFQNVAEEBSNORLFIYBMP9JWLXSNNKHYEH9","optimalPurchaseTarget":-100,"optimalPurchaseTargetScore":-100,"availablePurchaseTargetList":[],"optimalSaleTarget":-100,"optimalSaleTargetScore":-100,"latitute":"51.001744","longitute":"-1.377768","amountDemanded":"2","pricePrefered":"15","distancePrefered":"10","energyTypePrefered":"0"},{"index":18,"seed":"BAUABAJXBXNXRLWGVHOXXECVRATTSP9ESFCHKWQSLHWYJUPOVSTKLYEFHGWWFNES9CCSUEQOXT9LENTFE","address":"YRITUNDYJ9ZRTJTUNKFYDBQRMHIKAGU99MFP9GMHEDWUJAPCWHBDPKPUFIOKMPKZVPWAYKVYLY9GIVDJC","optimalPurchaseTarget":-100,"optimalPurchaseTargetScore":-100,"availablePurchaseTargetList":[],"optimalSaleTarget":-100,"optimalSaleTargetScore":-100,"latitute":"50.957960","longitute":"-1.993650","amountDemanded":"5","pricePrefered":"16","distancePrefered":"14","energyTypePrefered":"3"},{"index":19,"seed":"VKBNWBVPYEWKMBMQHHOBGWW99AGCUDIVKBUXDIVQEQAGHHMUTNJDWARHVXURANCQWCEMKJDPLTMKF9WMW","address":"BGTGOHBTBDO9ZBMYCTNSXTOZXMREUI9HLUSUBILQIUNIOJUCOXUHVFVVPFXZQUGORYZQJUZJUCCNBJR9A","optimalPurchaseTarget":-100,"optimalPurchaseTargetScore":-100,"availablePurchaseTargetList":[],"optimalSaleTarget":-100,"optimalSaleTargetScore":-100,"latitute":"51.973854","longitute":"-1.489073","amountDemanded":"5","pricePrefered":"15","distancePrefered":"11","energyTypePrefered":"2"},{"index":20,"seed":"QKLHCUGWOQXRXPWMRFANNDEYKKPMTDJXDCCJGWMWJHHPRDGV9MPADOSMSIBKU9OICSPHYFSEGHHGO9WAR","address":"GVTEULCZLLSVYUJORFPUASQWCJYLEWYN9FGAFAIYTNLMUZFUJRKXDTTDGVMEDUHITGZCSPOXNCHIQIEHA","optimalPurchaseTarget":-100,"optimalPurchaseTargetScore":-100,"availablePurchaseTargetList":[],"optimalSaleTarget":-100,"optimalSaleTargetScore":-100,"latitute":"51.899124","longitute":"-0.029513","amountDemanded":"3","pricePrefered":"16","distancePrefered":"10","energyTypePrefered":"3"},{"index":21,"seed":"PIQCKQWRXRGDLMOMUVUUVUJGUVJUAPYUKEQFBIEBADNRRFMDWOJFPSVVOBMGIUGCJGUAFCHPH9RVVQUNP","address":"MSRWMJAWZWUVIWIWQDAUEMLPGJAFLMHPKKYSDBVGFJPLDLLVEOOWEOSCUBASPCIPVSNEGQOGPYRHRA9KW","optimalPurchaseTarget":-100,"optimalPurchaseTargetScore":-100,"availablePurchaseTargetList":[],"optimalSaleTarget":-100,"optimalSaleTargetScore":-100,"latitute":"51.565548","longitute":"-1.334624","amountDemanded":"5","pricePrefered":"16","distancePrefered":"10","energyTypePrefered":"4"},{"index":22,"seed":"MPBSWEFQ9PIROVVM9QTRVKROMIGUBFUGEUXCPNQPGVXVPJUDTJVORXJDOKRS9VHJCFFWUV9CLVSRMSJAD","address":"XIAMMSQFVGYRVAL9MIUGJIHBVZNPGRMDJQSIKTEJXQORUKDJXLIJBWVOIXSFKYNNQQ9WST9WUEXOZOEWY","optimalPurchaseTarget":-100,"optimalPurchaseTargetScore":-100,"availablePurchaseTargetList":[],"optimalSaleTarget":-100,"optimalSaleTargetScore":-100,"latitute":"51.777322","longitute":"-0.447447","amountDemanded":"4","pricePrefered":"14","distancePrefered":"12","energyTypePrefered":"4"},{"index":23,"seed":"UXHJVECMGTUQDLODLPRSAVXPDQYSGAKBKTTQY9HXK9VRPYBBUDSQUG9NRMFGVYCUSCLBWGKUFFGTAAQXG","address":"SGPGHBHPBOMJNBDMZ9BHKBZDFKJVCGTM9JIHQHNIYDMCAVXETUAEDLQQASBYINHX9NPAACELXXL9JZGBD","optimalPurchaseTarget":-100,"optimalPurchaseTargetScore":-100,"availablePurchaseTargetList":[],"optimalSaleTarget":-100,"optimalSaleTargetScore":-100,"latitute":"51.790403","longitute":"-2.090201","amountDemanded":"2","pricePrefered":"15","distancePrefered":"14","energyTypePrefered":"1"},{"index":24,"seed":"SOAJCXSE9SOYDERNOWME9ERUKMLKBPHWJQQ9TNPCJAEJUQM9YOAPDCAKX9LEWQNQXFGLRCLFFMOYLQIBT","address":"X9SJFD9MQYBYMHCIMCZHQAQDDYAFHQHAR9YFEHLJOJWKKKJ999YGS9PYEEENQDKQOIYZKIMKEQBPCNKQ9","optimalPurchaseTarget":-100,"optimalPurchaseTargetScore":-100,"availablePurchaseTargetList":[],"optimalSaleTarget":-100,"optimalSaleTargetScore":-100,"latitute":"52.095885","longitute":"-1.535366","amountDemanded":"6","pricePrefered":"14","distancePrefered":"14","energyTypePrefered":"0"},{"index":25,"seed":"MPQOUAVBTAOEOVJBQBRPPN9KGVPFILUOXRNBKXAMDJPMBMMLOMFGGDKRLY9CFXB9FTUUVNWCRYAILBTQ9","address":"BEVDOX9TJBSMAWXCRWLCPZDGQRVMSDWBLJ9ZEDIMFFZZSCCQXRLIMTBKPIYUOJQLZKOCU9WPTXUQGKJU9","optimalPurchaseTarget":-100,"optimalPurchaseTargetScore":-100,"availablePurchaseTargetList":[],"optimalSaleTarget":-100,"optimalSaleTargetScore":-100,"latitute":"51.019321","longitute":"-1.096446","amountDemanded":"1","pricePrefered":"14","distancePrefered":"11","energyTypePrefered":"2"},{"index":26,"seed":"BBXLCCBCFGHHVWRVPXGNUMWFTNHXCVMYDUBSUNIXHRJMPKGEMIVFFEYXYCQREA9H9GLLMETNIQIYOKHIC","address":"EXZKMVMNPUJCHRNDSTBXZEOZRAZY9TMZGPGHYLFDUB9UANBEVVP9VOJBKOMMB9YSEARTCQMLSZBOTWMYD","optimalPurchaseTarget":-100,"optimalPurchaseTargetScore":-100,"availablePurchaseTargetList":[],"optimalSaleTarget":-100,"optimalSaleTargetScore":-100,"latitute":"52.397032","longitute":"-1.895492","amountDemanded":"3","pricePrefered":"16","distancePrefered":"13","energyTypePrefered":"3"},{"index":27,"seed":"ERXNMRJSROTBPO9IUO9GSFCXFYJOTSGEVJAXV9XCQSEIBGSGVIOKNG9FTVLBKSYAFJIUQSSIWIKOHQGAF","address":"MSMQLJHIYR9WFUTLPBQKQNYTWMXKPLMMHNZEJEOFHOPKDJNCROHCOKNACAOVCWDRFFLUZIDWOUJEQOOSD","optimalPurchaseTarget":-100,"optimalPurchaseTargetScore":-100,"availablePurchaseTargetList":[],"optimalSaleTarget":-100,"optimalSaleTargetScore":-100,"latitute":"51.692984","longitute":"-2.019232","amountDemanded":"1","pricePrefered":"14","distancePrefered":"15","energyTypePrefered":"2"},{"index":28,"seed":"JKSWEKRCBVARGCSCWJQTSFPOSEUHCCFTNIQINCDAFUWDLARUKVVGRRTAMFDTLNYELENBKSCQVHTUFNKWB","address":"NOGQQA9YSCZGXEAZLNITYJTRIDXSAZMMAIAUUWTGDAWG9BVMIIVZGFEAIMVM9BNIMZIVVLJPOSYNZMTOX","optimalPurchaseTarget":-100,"optimalPurchaseTargetScore":-100,"availablePurchaseTargetList":[],"optimalSaleTarget":-100,"optimalSaleTargetScore":-100,"latitute":"51.011426","longitute":"-1.892157","amountDemanded":"4","pricePrefered":"16","distancePrefered":"14","energyTypePrefered":"1"},{"index":29,"seed":"9CDXAUNLGOOUDEWNRMIO9KCBMMMYWOXQNHBCQBIRQUVVTJKKGMMBGOMIXFUXBXWMOTPVNUTUDDTEYXL9L","address":"NCMOQWRSRJKPNFYFWYNYEIKUHEWTLHYINAVXYGKYNIPGGUZRYTGZ9AVKVBESHWJQGDKVDAPIOMJRWYUFW","optimalPurchaseTarget":-100,"optimalPurchaseTargetScore":-100,"availablePurchaseTargetList":[],"optimalSaleTarget":-100,"optimalSaleTargetScore":-100,"latitute":"50.995020","longitute":"0.093420","amountDemanded":"6","pricePrefered":"14","distancePrefered":"15","energyTypePrefered":"3"},{"index":30,"seed":"OFKKDLXRCVCHLTKNPXCBIBKHUSINHPTWDIHMYYXJTKHPRVWDXJUAVHTBELNOKQDBBOVXVGAYHWFUPUCKJ","address":"EIXKZTPNJUZEUVHMFHMPJ9FZFTKLOJFPCXNBMJRWDNCMCSIOLNHPWLVHOR9IZYQOSKZQBB9MH9ZHGPNRX","optimalPurchaseTarget":-100,"optimalPurchaseTargetScore":-100,"availablePurchaseTargetList":[],"optimalSaleTarget":-100,"optimalSaleTargetScore":-100,"latitute":"51.608240","longitute":"-1.522326","amountDemanded":"4","pricePrefered":"14","distancePrefered":"10","energyTypePrefered":"2"},{"index":31,"seed":"HGOWSPR9UFWYY9YIECXRXLRESTVNMAOQYCNWBOFVDNTOBHVK9IDVNTXJUTJXLYAQOMSVNWXPWTUHTNKPY","address":"FFLMIP9YJKCIQXVAGILHDQZUJJPLNBLAMADWHYXVFVLHZKVKYFLGQEJMLPJOYSEYUDZGLJQHVR9LWBUSC","optimalPurchaseTarget":-100,"optimalPurchaseTargetScore":-100,"availablePurchaseTargetList":[],"optimalSaleTarget":-100,"optimalSaleTargetScore":-100,"latitute":"51.733954","longitute":"-0.893976","amountDemanded":"4","pricePrefered":"15","distancePrefered":"15","energyTypePrefered":"1"},{"index":32,"seed":"LXHMYAPHFCAEFJKPBTNHJJFWWXJLAODEIUQNXAYPDOAPP9DPBTF9GXXKLK9DERVJHMTCSOUSTWSKNDDOK","address":"9LOZMVFBLCHJNSWDA9XUUTEFVWELMUUPCJAOREJQWUCNGGKPK9OOSWNQFANA9ZSRJZRTR9LRAYIZXYJQX","optimalPurchaseTarget":-100,"optimalPurchaseTargetScore":-100,"availablePurchaseTargetList":[],"optimalSaleTarget":-100,"optimalSaleTargetScore":-100,"latitute":"52.036653","longitute":"0.264253","amountDemanded":"3","pricePrefered":"15","distancePrefered":"13","energyTypePrefered":"1"},{"index":33,"seed":"XUUNSCVWDPBATEPNSQW99JCWAQOFXEJLTBFQM9FSPKBLYGSTWQKPP9XTVRBKN9CYEYYSEQMNSEDSRTRFX","address":"BCVFDQEAITEXADB9MVOISAEA9YDSVEGSXWIVWATHOFHVVJAFX99GZTMAWZVHRDOXBBNKIPFGWXUZOUVO9","optimalPurchaseTarget":-100,"optimalPurchaseTargetScore":-100,"availablePurchaseTargetList":[],"optimalSaleTarget":-100,"optimalSaleTargetScore":-100,"latitute":"51.637748","longitute":"-1.972617","amountDemanded":"5","pricePrefered":"16","distancePrefered":"12","energyTypePrefered":"4"},{"index":34,"seed":"CPCWWYWM9HYWF9SXQRYJL9WCHVFVAUIHOSBNQM9CGARJVYDNEHQDLTLOQLJNAGRRXSTJSXPKQHDOMKJKF","address":"FHRHUHLVISRY9QRMCUBBMCJXZUZ9HFOJYLOQAKFKRJEIAVYEXOJRPQHUUSYPSCZBKCQHIMPX9VFGTJCGA","optimalPurchaseTarget":-100,"optimalPurchaseTargetScore":-100,"availablePurchaseTargetList":[],"optimalSaleTarget":-100,"optimalSaleTargetScore":-100,"latitute":"51.419674","longitute":"-1.088948","amountDemanded":"2","pricePrefered":"15","distancePrefered":"13","energyTypePrefered":"4"},{"index":35,"seed":"SKYTWOFSWYVJOWLFJQSQWWUQFTRMEOWOYOGSVGBKEYSCSTFMSDEFNGGLNQAYDEPWFFXJUSFIHEFYDLHOR","address":"ENKJFAAZXMXKYMWTIEFZBTZ9UL9KYCYFBBNXWYNZUAQGZSEJTOPSBUTTPJXEEPZEFTXLCLYIJU99QVDCA","optimalPurchaseTarget":-100,"optimalPurchaseTargetScore":-100,"availablePurchaseTargetList":[],"optimalSaleTarget":-100,"optimalSaleTargetScore":-100,"latitute":"51.895573","longitute":"0.092997","amountDemanded":"1","pricePrefered":"16","distancePrefered":"12","energyTypePrefered":"2"},{"index":36,"seed":"XGFYXHI99NKAOQHSJXMRW9UY9QNBXXYBIEEDGCX9QTQHMCBXIGKWFXT9YYXCA9OJIXOAJFMIJTXNCAS9H","address":"VMYQMQMJWZXQLHLB9JBVEWHSGAPZKDZARQWGKRCJKJZPZQ9NXHISWMJFLHJLYKHZUGNQ9HRQIOZESENMY","optimalPurchaseTarget":-100,"optimalPurchaseTargetScore":-100,"availablePurchaseTargetList":[],"optimalSaleTarget":-100,"optimalSaleTargetScore":-100,"latitute":"51.199150","longitute":"-0.317800","amountDemanded":"4","pricePrefered":"15","distancePrefered":"14","energyTypePrefered":"1"},{"index":37,"seed":"JYNFPVXOOCYOGBDBMINBQSPFNMKPHVWUIVTLRHOKKTIMVIODFHJCJQ9RHYHBXHHLSIOELQKQ9ENFCONSJ","address":"FIQZYHEDEIZNFPVYGGEWQNETTDHFHHQZIAMKDSDEPTEWSLQGUCIV99VQARKCKXAMJRMWYRXAYQ9KIVZSC","optimalPurchaseTarget":-100,"optimalPurchaseTargetScore":-100,"availablePurchaseTargetList":[],"optimalSaleTarget":-100,"optimalSaleTargetScore":-100,"latitute":"51.236735","longitute":"-1.015861","amountDemanded":"1","pricePrefered":"15","distancePrefered":"11","energyTypePrefered":"2"},{"index":38,"seed":"JFWKQXDNGMOWSQQ9RGASGKRUCEYDSFTPKMUSBRMSIAAUQMIULWBMVOOSBAUCDKHPFFK9UKDRSKSWHCBOJ","address":"TZD9CZT9NPBXAIOHOXBUCBQXJAVNEFQBYBVUTOKWZUEUJJIIPYBNPMQDMJLE9DPAP9ZEEDWTPDNKEFOJW","optimalPurchaseTarget":-100,"optimalPurchaseTargetScore":-100,"availablePurchaseTargetList":[],"optimalSaleTarget":-100,"optimalSaleTargetScore":-100,"latitute":"51.722176","longitute":"-0.157276","amountDemanded":"4","pricePrefered":"15","distancePrefered":"12","energyTypePrefered":"3"},{"index":39,"seed":"CJ9BCFXBVFIVIKK9CXNNJVJFBGIMESJBKH9GCTJJ9XHRAGRNSUSRHMUMBTBYLBLTATIIIELUEMQITTIFY","address":"NXMDP9YGLZ9CEVYHHPWJNJNHGEDJGQQYYGPRGBMBMU9ZXFFOCIGJLRGHAANMPQETFIILDSRHVAOVLKZRD","optimalPurchaseTarget":-100,"optimalPurchaseTargetScore":-100,"availablePurchaseTargetList":[],"optimalSaleTarget":-100,"optimalSaleTargetScore":-100,"latitute":"51.802494","longitute":"-0.695477","amountDemanded":"1","pricePrefered":"14","distancePrefered":"13","energyTypePrefered":"1"},{"index":40,"seed":"9FTGMRBNDD9EGO99OFGLD9YENXAPNMX9EUODQPWANIVL9HXFCDXBCRJNGWRIUCHPPXNDHQHEXLYHHMUDW","address":"KEVJ9MXXSJYYZXWPDYKDKZKEEPTATXA9EDGBNQVNLZYLTPFQRXVTWAXXVCFYBRJIXIRNRXZ9JURYAJOCC","optimalPurchaseTarget":-100,"optimalPurchaseTargetScore":-100,"availablePurchaseTargetList":[],"optimalSaleTarget":-100,"optimalSaleTargetScore":-100,"latitute":"52.411162","longitute":"0.287392","amountDemanded":"6","pricePrefered":"15","distancePrefered":"13","energyTypePrefered":"4"},{"index":41,"seed":"JUNXHIWTDTJQAT9EMAHEFCWRFCFDYT9UTIANCSRKSGCRARWVFSTJBKINXGWWVCDSA9AG9XREWHKCSO9LO","address":"IVZSPGUOMRWICIQEFNJNYYRACCFZKZWCKFHWNPNQLVYQQGCGVEHILZFGCGRATTAMUQLLDEAPTDMOKXVQW","optimalPurchaseTarget":-100,"optimalPurchaseTargetScore":-100,"availablePurchaseTargetList":[],"optimalSaleTarget":-100,"optimalSaleTargetScore":-100,"latitute":"51.065699","longitute":"-2.162054","amountDemanded":"2","pricePrefered":"14","distancePrefered":"12","energyTypePrefered":"1"},{"index":42,"seed":"BJAAQPYUDPXUSEFMNYEB9JTSREJINTXOINCJDBLFBNAQX9RGKHFEPJVMDRCNBFYCXPLFIDWJBKRYHRUWF","address":"OD9PEWIKWGDYJLLSJUGN9KUPY9EDSPBV9BBD9HADAMJW9KNWONEASRRKYX9QHSEEQTNHVWZSFYZPXPOIW","optimalPurchaseTarget":-100,"optimalPurchaseTargetScore":-100,"availablePurchaseTargetList":[],"optimalSaleTarget":-100,"optimalSaleTargetScore":-100,"latitute":"52.015059","longitute":"-1.597568","amountDemanded":"6","pricePrefered":"15","distancePrefered":"10","energyTypePrefered":"2"},{"index":43,"seed":"LBWQJMQITPTVQ9UYEKME9VFSJECYPHCWLNCYDXBSIYINDMCQUMSYDDBGWOA9MFSVAWDUKJUKCYGUYSMRS","address":"GJDGIYEXTTBWXYDO9GCOHFYYWZUYSOCAWHLDYSWFKKGSUMCSKTDFSNLJQMZEJZNU9JD9MLJQWGHOEVYMD","optimalPurchaseTarget":-100,"optimalPurchaseTargetScore":-100,"availablePurchaseTargetList":[],"optimalSaleTarget":-100,"optimalSaleTargetScore":-100,"latitute":"51.735991","longitute":"-1.707085","amountDemanded":"3","pricePrefered":"14","distancePrefered":"13","energyTypePrefered":"3"},{"index":44,"seed":"MDBWINNRUDHNDXEQHNAFDXQKHFF9HC9IWPPGKSAIYYNFJVRVYV99RHDTERCKQBTKQAMN9BOYLCWCIFCLY","address":"PWYEOUCNBZMWDFJQPBYJLKLNOLWWZNUBVTNWQNWBIHDT9LNBUAJTLCXYQFLRLPYRATVDX9TMGONGHMCUB","optimalPurchaseTarget":-100,"optimalPurchaseTargetScore":-100,"availablePurchaseTargetList":[],"optimalSaleTarget":-100,"optimalSaleTargetScore":-100,"latitute":"51.510171","longitute":"-1.587054","amountDemanded":"1","pricePrefered":"15","distancePrefered":"14","energyTypePrefered":"2"},{"index":45,"seed":"CFTSBITMMMEQNGNSQTFAOYDIHQQNWYFVIINTCPJGTUQNNOHLFRXCIHJRTJXIKREBCGYMJ9LEFQFYQRTYP","address":"RHSXYEJAANTZO9CJXBNLMGN9FVCTAYGTTWNPWNBLREJYCCYRMBIWADGQVAAOGV9P9CEIWZQWDIYFZJWDY","optimalPurchaseTarget":-100,"optimalPurchaseTargetScore":-100,"availablePurchaseTargetList":[],"optimalSaleTarget":-100,"optimalSaleTargetScore":-100,"latitute":"52.105060","longitute":"-1.894078","amountDemanded":"5","pricePrefered":"16","distancePrefered":"14","energyTypePrefered":"4"},{"index":46,"seed":"AGDU9HIPQRKXGNE9A9UTIKRKIGQU9XPCVRVRFPFEHXYWCTDLYPQGHQTDO99LTBNJXQHFLXRLBGYT9E9IE","address":"9BHLCTBIAZYANMOFDSI9PSBJWRMFOZVVDBLNDBBMIHBLKIBTOKDFJQKBPY9RFOSKESIVIYDRKEEMRFXMB","optimalPurchaseTarget":-100,"optimalPurchaseTargetScore":-100,"availablePurchaseTargetList":[],"optimalSaleTarget":-100,"optimalSaleTargetScore":-100,"latitute":"52.216796","longitute":"-1.985880","amountDemanded":"3","pricePrefered":"16","distancePrefered":"10","energyTypePrefered":"0"},{"index":47,"seed":"SNIILGUPSFNORSIQKNXLTJWERQKMXTBMPGTEUQI9GHNHKDNTYXMDKDALVNDKAJCVOFWPAPWVHDOSXOCXI","address":"RW9YYWV9CTQOSBRKEAO9NGOUI9BYQIOTZPGBZEUPLXXTRTDWMDJKWJJPJDGMARXAKXECOQZGZWIRMAIBZ","optimalPurchaseTarget":-100,"optimalPurchaseTargetScore":-100,"availablePurchaseTargetList":[],"optimalSaleTarget":-100,"optimalSaleTargetScore":-100,"latitute":"51.915270","longitute":"-0.642011","amountDemanded":"1","pricePrefered":"16","distancePrefered":"11","energyTypePrefered":"1"},{"index":48,"seed":"KQANTBWWWRSWBBKCCBJXNFAQFLRXTNCJDBQ9DCBTHGEFDHUQWSFBUUA9XAYLDOGMDJMHVVTBF9OTOBKUY","address":"9EAJBMJJHIK9ZXRUREDFNCPVVNIYQSG9MAARDYVCUHUOGXZQFGKXZARZTFPJO9JJD9IYDPXDTGV9PUZRB","optimalPurchaseTarget":-100,"optimalPurchaseTargetScore":-100,"availablePurchaseTargetList":[],"optimalSaleTarget":-100,"optimalSaleTargetScore":-100,"latitute":"51.208884","longitute":"-2.020473","amountDemanded":"6","pricePrefered":"15","distancePrefered":"11","energyTypePrefered":"4"},{"index":49,"seed":"RYMMLYVIDVTFTNVGLNABVULMMNFHOBLAHYL9NVOAJCWIMQHBVCJGKSVOLNWWNSRDVGXYBXEMSBJCSBNDS","address":"QCGRRLYOQHQOVPPDJJLBIMOFXEUURCSHGLBBWJXH9GWBNBRYMHISZVSCZJPWCSWRNMXKMCOKOFUFLCCXX","optimalPurchaseTarget":-100,"optimalPurchaseTargetScore":-100,"availablePurchaseTargetList":[],"optimalSaleTarget":-100,"optimalSaleTargetScore":-100,"latitute":"51.231357","longitute":"-1.039671","amountDemanded":"6","pricePrefered":"15","distancePrefered":"12","energyTypePrefered":"3"},{"index":50,"seed":"NOEYVHIQTFHNMLDOLQMLTXGIOQA9XHQFXMMHGODHQQRPMDYJTW99OXQ9NEXVXFOAAAGTBVC9QRNVWXLPD","address":"XRYCKYYHNCDCBHGBTOUJHGMCRJQGVJBDAUNFYXIOLWYDNSOPNRCF9RCIFNYXTMIRJSPFLTIQFGDZUVRQB","optimalPurchaseTarget":-100,"optimalPurchaseTargetScore":-100,"availablePurchaseTargetList":[],"optimalSaleTarget":-100,"optimalSaleTargetScore":-100,"latitute":"52.216152","longitute":"-0.440393","amountDemanded":"4","pricePrefered":"16","distancePrefered":"12","energyTypePrefered":"4"},{"index":51,"seed":"OTUWVMSORTJEXOQGHQSCRU9WEDTHS99BKMUCTURRRCHVCYXIGYFMNRYBWROYFHPWXMTL9OJBDOGVVICNO","address":"COBWZWWWKBGDSZHVMWYRF9WOEATPKOHPRLBMTCVWSV9KXHJQMMYFZOADLSQQJD9EKKYOUNETBHMMLSCVX","optimalPurchaseTarget":-100,"optimalPurchaseTargetScore":-100,"availablePurchaseTargetList":[],"optimalSaleTarget":-100,"optimalSaleTargetScore":-100,"latitute":"51.313108","longitute":"-0.548222","amountDemanded":"3","pricePrefered":"16","distancePrefered":"14","energyTypePrefered":"1"},{"index":52,"seed":"EKFANOLQQLWQJFNOOHQVYRPLYHTXXLFGIXFIAVY9MIMJICDMTN9JNA9BINUDLXQYOI9GCCLEMLMKCWJQI","address":"YHLRBCRLNOUMOYMYHCJ9KNYJYMIREPTGYBYZXUGCYEONOUIKQCZAUEWOUJLBGHMBLSYNXQWKIEBCQGM9D","optimalPurchaseTarget":-100,"optimalPurchaseTargetScore":-100,"availablePurchaseTargetList":[],"optimalSaleTarget":-100,"optimalSaleTargetScore":-100,"latitute":"51.484669","longitute":"0.041978","amountDemanded":"4","pricePrefered":"15","distancePrefered":"11","energyTypePrefered":"2"},{"index":53,"seed":"ADLT9FRKIHYJCHCFJEGKBGUSTFUKSUFNLRJ9IONLOAR9PFFQYLHMUDS9CKIUBKLPCUCVTLOLJQIXUWQLU","address":"DCJBXDPNUVRLUUAERBQFFMXGYCPZUFDJFMOJRNPHYXQNLSBXMWRBXGIXJCDBBVKZRFFDNQFFDUOEN9W9Z","optimalPurchaseTarget":-100,"optimalPurchaseTargetScore":-100,"availablePurchaseTargetList":[],"optimalSaleTarget":-100,"optimalSaleTargetScore":-100,"latitute":"51.606302","longitute":"-2.174751","amountDemanded":"2","pricePrefered":"15","distancePrefered":"11","energyTypePrefered":"2"},{"index":54,"seed":"IOS9AIJHBFCWNHTCCXDNCY9ALGPYCNL9FOKQWXRVGWGXYJKHKXDXQVURRIXGRTSHQGRBLRNQHCM9IUXBC","address":"BNOANTOEWROGBVXBHBAOBTRLADZSIBQCNJZMJVDMYTAJHCCBT9VCRUNTMSOBPCAKIBECSELYGBBXWYCRZ","optimalPurchaseTarget":-100,"optimalPurchaseTargetScore":-100,"availablePurchaseTargetList":[],"optimalSaleTarget":-100,"optimalSaleTargetScore":-100,"latitute":"52.298900","longitute":"-0.916762","amountDemanded":"5","pricePrefered":"15","distancePrefered":"13","energyTypePrefered":"1"},{"index":55,"seed":"DJPDAUROR9DCIVSGWQOMXEJVKFIXRKAFQXOBHDDBMFEQQHBMACFH9RIELTPYBYQCHFPVLAVTHKJBXCFAW","address":"IGRW9BVABBFDHAPUYAUQ9KBGLT9RGFMNKDELTRBICWPWMT9ZYHYBBJPJBVLV9HYMU9DKXYSVRENZNMALZ","optimalPurchaseTarget":-100,"optimalPurchaseTargetScore":-100,"availablePurchaseTargetList":[],"optimalSaleTarget":-100,"optimalSaleTargetScore":-100,"latitute":"52.151985","longitute":"-0.107060","amountDemanded":"5","pricePrefered":"16","distancePrefered":"13","energyTypePrefered":"0"},{"index":56,"seed":"UVV9XMFFMLIJEQJ9XMSUIFANWRQEDJCYQAPSIWWLOBWSEQBHATQPBJWADCKYY9NSAXVMPVTUWQNQRYXYU","address":"QQTLGIIAB9NDAOGTUSQPJHWRHMHZPVQDNZPISKRERBKHSDYVNGYUOFGELCELMVMQSWIYB9FCISMXOII9B","optimalPurchaseTarget":-100,"optimalPurchaseTargetScore":-100,"availablePurchaseTargetList":[],"optimalSaleTarget":-100,"optimalSaleTargetScore":-100,"latitute":"51.515951","longitute":"-0.599729","amountDemanded":"6","pricePrefered":"14","distancePrefered":"11","energyTypePrefered":"1"},{"index":57,"seed":"BTRIJPEXBD9ETQMHJNJVGXXJTRTOPNA9RQ9UYROJCLCJTQRU9QUNJSLOEVLINBVVMLRVUNOANLSIPXRYN","address":"OEFJCA9HJUHSWMCWXL9Z9HZVOGIJRDOMKVYMDGLTWNJGTLDAVPUEIWWEFGAKUMC9W9SEEROWNCZJZGILD","optimalPurchaseTarget":-100,"optimalPurchaseTargetScore":-100,"availablePurchaseTargetList":[],"optimalSaleTarget":-100,"optimalSaleTargetScore":-100,"latitute":"51.921893","longitute":"-1.313013","amountDemanded":"1","pricePrefered":"14","distancePrefered":"10","energyTypePrefered":"3"},{"index":58,"seed":"CNLBLYC9CULRLDHFGKDAQTIXCSKBUSLKFJDRFVQTEMVQQEMURJXBYY9CIFYOCYPE9KOSDDMMXPNDI9FWG","address":"PLZCKARSTCUIWITKYPUOSQMUTDUVWIWMRXZLBENCXRMQBINZRIZF9COKIMYKZCXGHFRQULGDNW9TGIBGW","optimalPurchaseTarget":-100,"optimalPurchaseTargetScore":-100,"availablePurchaseTargetList":[],"optimalSaleTarget":-100,"optimalSaleTargetScore":-100,"latitute":"52.199717","longitute":"-0.015655","amountDemanded":"2","pricePrefered":"14","distancePrefered":"14","energyTypePrefered":"3"},{"index":59,"seed":"YUHQAMTVWYNMRDSXSDB9LHYVLNQOUUCLCJQNOBLJOSRLEJVYT9PNSWHVMRUOMFFBBQRTHDIADVWSY9HOU","address":"LNLWJ9VPMZOZCBRADZ9DMGQXDBOAHUPQDDRGKCLIUBRTUJN9FMHDAWALAESJIEPFJTTLCSDJNUTZTEFHC","optimalPurchaseTarget":-100,"optimalPurchaseTargetScore":-100,"availablePurchaseTargetList":[],"optimalSaleTarget":-100,"optimalSaleTargetScore":-100,"latitute":"51.921102","longitute":"0.117437","amountDemanded":"2","pricePrefered":"16","distancePrefered":"12","energyTypePrefered":"4"},{"index":60,"seed":"RACKNEOYLKULFYKKO9PD9JAGDRVAFE99QURDIOYUTMEIVIFX9HWPBJCSKDVYLPBSRHVP9FNFEHGAYBXOL","address":"OFJFMPGXLBZMQ9PKHADCATS9LMITTARZE9DMXERTPGXZONBGGMWDETTUKPMVZJUBMZJREWVRTKBSSOQK9","optimalPurchaseTarget":-100,"optimalPurchaseTargetScore":-100,"availablePurchaseTargetList":[],"optimalSaleTarget":-100,"optimalSaleTargetScore":-100,"latitute":"51.328453","longitute":"-1.414955","amountDemanded":"3","pricePrefered":"16","distancePrefered":"15","energyTypePrefered":"2"},{"index":61,"seed":"OSOUFOWPEBSFCXFABGXPBCQYBAPKDBUTAECLRAQBYNUQISWHERXCEGBVDATGHKNOCDWJDP9YCHXICEQXL","address":"LNNBKNBGU9LJDSRQASFECNONFGZGUPGWBB9N9A9LGNWBFHACVWAPLCFWOQN9QSG9SEYM9RLGIRQBOHOMA","optimalPurchaseTarget":-100,"optimalPurchaseTargetScore":-100,"availablePurchaseTargetList":[],"optimalSaleTarget":-100,"optimalSaleTargetScore":-100,"latitute":"51.058493","longitute":"-1.561996","amountDemanded":"4","pricePrefered":"14","distancePrefered":"15","energyTypePrefered":"1"},{"index":62,"seed":"UHLTDOPQYYOJIXUSAXSRE9DPDEIXLK9UOLIGHYWCNVULHJTAVYHC9DNKMLOMLCUVLUGYM9KTRMDLULFDB","address":"XOMLDNAAZQKMZFCZXAAGKXHDEMLEIKUAUUCFIEQALHDOROGTPAZHYVVGPIFKYRKGYCCNBPMTDYRNWUEB9","optimalPurchaseTarget":-100,"optimalPurchaseTargetScore":-100,"availablePurchaseTargetList":[],"optimalSaleTarget":-100,"optimalSaleTargetScore":-100,"latitute":"51.534762","longitute":"0.238175","amountDemanded":"4","pricePrefered":"15","distancePrefered":"10","energyTypePrefered":"4"},{"index":63,"seed":"KOXKHLWDTYKCLXDQDQ99AQGYJQXYIHNA9JSQKFVNFKDBIMGMRFLPYDVL99B9I9YKCVV9MSULKFFJYKPWI","address":"FLDLWYFBIJOWSVLNCOMYL9OYGYITIX9PMAMOJFRVHDNZHPGVNB9SJHOVPSYDSKWLBEFOPOMMICUCXMT9X","optimalPurchaseTarget":-100,"optimalPurchaseTargetScore":-100,"availablePurchaseTargetList":[],"optimalSaleTarget":-100,"optimalSaleTargetScore":-100,"latitute":"52.052504","longitute":"-0.812079","amountDemanded":"5","pricePrefered":"16","distancePrefered":"12","energyTypePrefered":"2"},{"index":64,"seed":"IXJKYPMODLEUAEQDXQQYBNTXQHCWOHFBBTWQPWFLRTKLIUDLUXFTAHDDLGABFQA99RNBKI9YLOJSPIXQQ","address":"NJSO99LAIPBVSSTBSAYQWPQNDEZUIDTDGUBJR9TYODTHNSLU9YTBHBNU9KNZHYPADQVNJKUGHHERJINWW","optimalPurchaseTarget":-100,"optimalPurchaseTargetScore":-100,"availablePurchaseTargetList":[],"optimalSaleTarget":-100,"optimalSaleTargetScore":-100,"latitute":"52.001941","longitute":"-1.005797","amountDemanded":"6","pricePrefered":"15","distancePrefered":"14","energyTypePrefered":"1"},{"index":65,"seed":"EEGBSVILFKVHWN9VDKUHIOJBRMVTATVINYJTCUNKUPYHRAUTHBUCRPYGHRABYKMQV9PMCWGFIOAPELBCR","address":"ALJMKETBCQMDKWCPJHWJZCPZQQZGQBFTGH9LDDHGHRGRDYNEYJHTUNUXPKKSJJSFWNKSML9ZABJ9MJKGD","optimalPurchaseTarget":-100,"optimalPurchaseTargetScore":-100,"availablePurchaseTargetList":[],"optimalSaleTarget":-100,"optimalSaleTargetScore":-100,"latitute":"51.077120","longitute":"-0.179354","amountDemanded":"4","pricePrefered":"15","distancePrefered":"13","energyTypePrefered":"2"},{"index":66,"seed":"9EGYSMDHBPOWOEEFNEFRLV9IIFJI9AMAHA9K9PARMHMMTJLVFQFQSEWFWH9JIJBTVHJYXVBWEWINYMACS","address":"CZE9OGKPXHTMKCVPWBHRUNSFUKJKYHPEWIFQQPWMYQIU9JUO9C9UKTVZGHRKNNPRXLKF9O9KMCMAHVMFW","optimalPurchaseTarget":-100,"optimalPurchaseTargetScore":-100,"availablePurchaseTargetList":[],"optimalSaleTarget":-100,"optimalSaleTargetScore":-100,"latitute":"51.221363","longitute":"0.049697","amountDemanded":"4","pricePrefered":"15","distancePrefered":"12","energyTypePrefered":"3"},{"index":67,"seed":"SFJLWOKNSIAEFLUKITHKPXDFAIVCTMRXUQK9QMIBKRSBKLCSGKAQ9KUOKQBGRYNXYIYHGDUINFPBSXQVX","address":"GUSVCNWZKFIUAZVXRPXNYGXVALOTWPIKTPAMOHCEPLPXBAAXYLNXYJYKUEQFKZYJVBWIGEPYOGQZTDZBX","optimalPurchaseTarget":-100,"optimalPurchaseTargetScore":-100,"availablePurchaseTargetList":[],"optimalSaleTarget":-100,"optimalSaleTargetScore":-100,"latitute":"51.433693","longitute":"0.115470","amountDemanded":"5","pricePrefered":"14","distancePrefered":"10","energyTypePrefered":"0"},{"index":68,"seed":"KE9ONTQJPXPP9SBWUEVUSGUJCALBPFFAXN9FFIEEKHVFEJMPHSKOOIFD9YRPFXGGUGXGN9CVYWFDNQFPG","address":"UBARSBIAVG9VOEPNOYGWHY9JSZLWHRNIVKZECYMBMZLWUNFEDREJIZIFRTJTMEXGOKIMGXLFRYLNTQSID","optimalPurchaseTarget":-100,"optimalPurchaseTargetScore":-100,"availablePurchaseTargetList":[],"optimalSaleTarget":-100,"optimalSaleTargetScore":-100,"latitute":"51.038826","longitute":"-1.776547","amountDemanded":"6","pricePrefered":"15","distancePrefered":"12","energyTypePrefered":"1"},{"index":69,"seed":"EBA9GFRKTSLCBTAEUNUEYB9AMSJA9CSVVXIRFRQTLMOGWWRHGOBDEGS9I9GJIFNJGAGXWOLGW9KIYYETV","address":"RQOCXKJDIFTKBYCRHDSLZCMOS9RMARGFPYYL9AOCUJKOK9PBAXPTDUHDNEGCUOUPIUUCVSMFUUZXSFCEX","optimalPurchaseTarget":-100,"optimalPurchaseTargetScore":-100,"availablePurchaseTargetList":[],"optimalSaleTarget":-100,"optimalSaleTargetScore":-100,"latitute":"51.762072","longitute":"-1.356569","amountDemanded":"6","pricePrefered":"16","distancePrefered":"11","energyTypePrefered":"1"},{"index":70,"seed":"BWJTUXXYVEGDWPUEHYQITXHAHNSIDQKBVLIPGCTEEJFCKJFLXMFYLIFQXHIJXPOLDNMPTDVJGBV9PWCCS","address":"MWHPECXABZYQKQTQJ9FWDPZMBYGSZBROCO9LGDXKZCLRDRJYUWZHVWMKZLNQJCYVFRRJQFCBKAKUGWYHW","optimalPurchaseTarget":-100,"optimalPurchaseTargetScore":-100,"availablePurchaseTargetList":[],"optimalSaleTarget":-100,"optimalSaleTargetScore":-100,"latitute":"51.110832","longitute":"-0.540380","amountDemanded":"5","pricePrefered":"15","distancePrefered":"12","energyTypePrefered":"3"},{"index":71,"seed":"S9LQQVWGBIGKJ9N9VTMMPPEAXN9QLUFPDRDVIHJGCN9MDAQRKKOVWGA9SUEVMAI9MKSDLBWKTL9CTJBPG","address":"TYKVNPD9OHADMSPGXYFWSUWJ9HLYSC9OXTECHXUXXTJKBSWLWCTSYGDEF9EYFM9HUSXQRHNKDWVDRDW99","optimalPurchaseTarget":-100,"optimalPurchaseTargetScore":-100,"availablePurchaseTargetList":[],"optimalSaleTarget":-100,"optimalSaleTargetScore":-100,"latitute":"51.130325","longitute":"-0.701638","amountDemanded":"4","pricePrefered":"14","distancePrefered":"12","energyTypePrefered":"0"},{"index":72,"seed":"TXGPUJPTUNBSPGOALOOHOECDFBPXSAOWQSJEWHYGYLRPHJQAXRKFEOORYBFYSCNNPQET9JLAHKTPWSUFP","address":"OHBZ9SYUNZNCLFZVRESSTHAAIEVATVS9MIFTAAW9LPJJAECMWHRTCVYNLKKXPMQUPDJRDEYDKMIHJMNAD","optimalPurchaseTarget":-100,"optimalPurchaseTargetScore":-100,"availablePurchaseTargetList":[],"optimalSaleTarget":-100,"optimalSaleTargetScore":-100,"latitute":"51.914574","longitute":"-0.710447","amountDemanded":"1","pricePrefered":"15","distancePrefered":"11","energyTypePrefered":"1"},{"index":73,"seed":"BYGV9AKCWQBAOKIAKDHECTCCIWVUUSHCVJTIKVPCCA9B99NUIUPIYFHBVEKGVXQR9PTKUENGC9CIOPMQF","address":"PUMAPU9XLVOWNEHQPHJERRLJEBH9IJUFLQLA9PPRWJYSFSDLBZQOYICWSDOSCCUIULJZDLESBUMLFPMN9","optimalPurchaseTarget":-100,"optimalPurchaseTargetScore":-100,"availablePurchaseTargetList":[],"optimalSaleTarget":-100,"optimalSaleTargetScore":-100,"latitute":"51.085146","longitute":"-0.750715","amountDemanded":"6","pricePrefered":"15","distancePrefered":"13","energyTypePrefered":"1"},{"index":74,"seed":"UMXCQKHQUMIONEFNFHUDLEKEFRBP9VXYXKYRVOGBHBYWAHPXOEAVXFCFVYRVSLBTQDERITNFQGEXXYPK9","address":"CDMVEKZKIAYSCNTRJFGLODLJ9UANMN9UDVEFBNBCYNTLZBLUTUNYKLEHTOXDVAGQRKHEE9VLTHWVKMWXY","optimalPurchaseTarget":-100,"optimalPurchaseTargetScore":-100,"availablePurchaseTargetList":[],"optimalSaleTarget":-100,"optimalSaleTargetScore":-100,"latitute":"51.059025","longitute":"-2.366511","amountDemanded":"6","pricePrefered":"14","distancePrefered":"13","energyTypePrefered":"1"},{"index":75,"seed":"KCDECLIRUHVEXAHTKKHJQBUL9LYQG9WKJYJLKQEFAYYXYLGEOG9LD9XQWF9EBCIEGGJBIL9AONFROTISE","address":"MMS9OYJPYPELSMOSVIEBFNLOYFGZNIUJNEOOAYTNBZNBTOXUTKDFNFF9GZGOAQUVPIHCKYRXFQGXZVZHX","optimalPurchaseTarget":-100,"optimalPurchaseTargetScore":-100,"availablePurchaseTargetList":[],"optimalSaleTarget":-100,"optimalSaleTargetScore":-100,"latitute":"51.676783","longitute":"-1.262652","amountDemanded":"3","pricePrefered":"15","distancePrefered":"15","energyTypePrefered":"1"},{"index":76,"seed":"MBMVYCJEWETYSHUXWRY9OJCORJARVBYLRXFDQPCMNEFADTVQLEUSJOEBWDFOXJQVWXTKVNETWMEEI9LQE","address":"FEYDZILUKLNXYCILOCPLNKQRYGNSNRRE9JZVJFWOEGDKDJWFKIBDNRIHPZLZAYDOMXZEXIFOKHMWYEFCA","optimalPurchaseTarget":-100,"optimalPurchaseTargetScore":-100,"availablePurchaseTargetList":[],"optimalSaleTarget":-100,"optimalSaleTargetScore":-100,"latitute":"52.004993","longitute":"-1.183398","amountDemanded":"2","pricePrefered":"16","distancePrefered":"13","energyTypePrefered":"3"},{"index":77,"seed":"WSXQNANAAPLES9GBDIMCAUGHAY9RWWATTDXGMLY9TKSVPCQCCWGMTWWNJFOPJVIIRMNQRKOHOWFMRFNMV","address":"UOPYIXZJZLIRQTPQIIXVUTDEWOONERUJWTVCWXRFDTYI9RDYRTQL9HAGGKKSCNAXXTOHUXTWRKLU9XBOX","optimalPurchaseTarget":-100,"optimalPurchaseTargetScore":-100,"availablePurchaseTargetList":[],"optimalSaleTarget":-100,"optimalSaleTargetScore":-100,"latitute":"51.040951","longitute":"-0.043273","amountDemanded":"4","pricePrefered":"14","distancePrefered":"11","energyTypePrefered":"4"},{"index":78,"seed":"AJYTCMUCQJKHATTXCJBQQUMUWYPJFULTYSAMGXNGSLR9RQYHSDVTKMLGVJNNWYGLXJJDSCOOCMBLFEEYD","address":"DTETSHHFXBHHWBECOOSPPBPRWDMYTYPWR9LBMWKLVRNYORAHFPNFSPBNWTUBPWLOZVXP9ZHXGSTDZWXKD","optimalPurchaseTarget":-100,"optimalPurchaseTargetScore":-100,"availablePurchaseTargetList":[],"optimalSaleTarget":-100,"optimalSaleTargetScore":-100,"latitute":"51.196462","longitute":"-0.287298","amountDemanded":"4","pricePrefered":"14","distancePrefered":"11","energyTypePrefered":"1"},{"index":79,"seed":"GDDLXVTKPGETXOXEEHAPMMEJCUMJTYALNVHIPQBGJKIJXXGPQGDQJMIQQPBDEHARRJYHWQQQCHBKPGGCJ","address":"OXWIBKHSVG9EQKWDLREGAOHQXBZEDHKV9W9WCZLAVUEE9GMWJVYGSFZMYAJPIHWFHDQU9VI9QOYZCDIKC","optimalPurchaseTarget":-100,"optimalPurchaseTargetScore":-100,"availablePurchaseTargetList":[],"optimalSaleTarget":-100,"optimalSaleTargetScore":-100,"latitute":"51.396070","longitute":"-0.271102","amountDemanded":"6","pricePrefered":"16","distancePrefered":"11","energyTypePrefered":"3"},{"index":80,"seed":"XYKTVLRFKFGXTFFJJOJHMUG9AXXFJTDLTDDEXELM9HULNLWPSMXAAORVNYMLOFGMINSSUVIQYIFH9QJFD","address":"QMFOSX9T9GSCSZJKFWTS9G9NIWGUIOAJPXRPBKRRXZEJHIHTDBMBBYAGFSKRAHF9GKHRCRWUVLTIBHQIX","optimalPurchaseTarget":-100,"optimalPurchaseTargetScore":-100,"availablePurchaseTargetList":[],"optimalSaleTarget":-100,"optimalSaleTargetScore":-100,"latitute":"51.163852","longitute":"-2.337707","amountDemanded":"6","pricePrefered":"14","distancePrefered":"12","energyTypePrefered":"1"},{"index":81,"seed":"SSIHNIDYMQIDVPFNDKCXQBHLUQKMLYUGHWFJHACGKOINFHNUUFS9AC9VKWTTIXA9CWSAOULAF9THTJGEM","address":"XAIPLSCIMBBHZGYDEZPRKWISEJGNVGABXYRAGQVICVQFEXJWOYLQLAZAPFOXQXOIZ9XSIMIKRTKFSQHMZ","optimalPurchaseTarget":-100,"optimalPurchaseTargetScore":-100,"availablePurchaseTargetList":[],"optimalSaleTarget":-100,"optimalSaleTargetScore":-100,"latitute":"51.271952","longitute":"-2.327126","amountDemanded":"4","pricePrefered":"16","distancePrefered":"13","energyTypePrefered":"1"},{"index":82,"seed":"PFOHX9QMTFGRUDE9JDPJBLHGWEONOKGAGXIBFFESGFFR9OYLPKLFVILONMSBACSF9OPAPUU9IHFAFKULD","address":"QEDTVXFSJHHKZFWUIWJWJCCDXVHTMWCLEDPRBESUJL9VRYWVNRLBXZZNKRPHPMVEAGPVLPWNERNETOUHW","optimalPurchaseTarget":-100,"optimalPurchaseTargetScore":-100,"availablePurchaseTargetList":[],"optimalSaleTarget":-100,"optimalSaleTargetScore":-100,"latitute":"51.520408","longitute":"-0.177793","amountDemanded":"5","pricePrefered":"15","distancePrefered":"13","energyTypePrefered":"2"},{"index":83,"seed":"WPSQQHGFTYG9SAYAIFYSNCMPIBOA9QFMTVK9DBPPWOWJGKMDGXLTPLCIPUGDENLJXFEHMDJRNHPLJKMXW","address":"XHUEBH9NTKWNJJWBWIUFPPZC9QFZCHYDLF9XQPZTFAMNLDFYGKPUOTIHRNJFEKZEQNVNQMBIVDARGNZWX","optimalPurchaseTarget":-100,"optimalPurchaseTargetScore":-100,"availablePurchaseTargetList":[],"optimalSaleTarget":-100,"optimalSaleTargetScore":-100,"latitute":"51.691032","longitute":"0.103400","amountDemanded":"5","pricePrefered":"15","distancePrefered":"14","energyTypePrefered":"0"},{"index":84,"seed":"W9KIPHYYQCEDCAO9HGNAXSS9GRHM9RQDOPSPSUHJJWMQMOMXSOLKWBJVEWSKVAJRGWTEBORRQTUWUIEUW","address":"MHZUHXXTWTAEOMOMXUXBJTJTEJMDTEVWSFLVHRDZD9XJUTTCYWNFXWFEFIYXOWUUYMLU9PAKKNIDBQORX","optimalPurchaseTarget":-100,"optimalPurchaseTargetScore":-100,"availablePurchaseTargetList":[],"optimalSaleTarget":-100,"optimalSaleTargetScore":-100,"latitute":"51.711946","longitute":"0.223021","amountDemanded":"2","pricePrefered":"15","distancePrefered":"14","energyTypePrefered":"3"},{"index":85,"seed":"ABHUIELKRVWUTJOKGPUIMMWMQWATOFXLYHBJPLJJIPXRYPIJKJ9XYOUYHY9LXBISSBPHSUEUHOS9FYAKQ","address":"CYATVQMOFMBWHYJADFECEVNNIRDCNBVPFNDIXLRAHYDSERDNHFH9ERAYCCIWYKHRARKTUXXOJOGUZAFXD","optimalPurchaseTarget":-100,"optimalPurchaseTargetScore":-100,"availablePurchaseTargetList":[],"optimalSaleTarget":-100,"optimalSaleTargetScore":-100,"latitute":"52.399462","longitute":"-0.582528","amountDemanded":"1","pricePrefered":"16","distancePrefered":"11","energyTypePrefered":"3"},{"index":86,"seed":"SYIJPSPOSKKRWUNVHHYDAPXXCMTNMGPDTIW9DACO9DATDQLVEQGDDNJDAYXFWTCIJSDSLEXQOG9KXEENM","address":"CXEXSJQRRQNMMKUTEBJSLKCJXDMXPSAIDZIMQULIUYRBDF9HBJYXPWVAYMOWGJKOXOIYDJHENIVNABLFD","optimalPurchaseTarget":-100,"optimalPurchaseTargetScore":-100,"availablePurchaseTargetList":[],"optimalSaleTarget":-100,"optimalSaleTargetScore":-100,"latitute":"51.749221","longitute":"-1.582251","amountDemanded":"3","pricePrefered":"15","distancePrefered":"15","energyTypePrefered":"1"},{"index":87,"seed":"9UXEDNNVUM9EYKJGJN9QDGMKRHSGQGOMCVKMFQHFWQDGKNWSYSUVJYN9YWHKUWWAUMBMIASWMIPL9E9LU","address":"BGRFJQLWFWXCNBIBTEOTS9KXVGUSJQQZUQ9IFSOWDGPUJKHVQYQSWUFQL9RTBDOWVHWPCPXBESZKWHYDD","optimalPurchaseTarget":-100,"optimalPurchaseTargetScore":-100,"availablePurchaseTargetList":[],"optimalSaleTarget":-100,"optimalSaleTargetScore":-100,"latitute":"51.396596","longitute":"-0.839231","amountDemanded":"4","pricePrefered":"15","distancePrefered":"15","energyTypePrefered":"2"},{"index":88,"seed":"PI9YD9OVDDVJDQYMCSLOCDVJQYDIVYIPBUUXLWUHWEEH9ECNCPGDCMELQKXHWNHDETCATSFJQLQHKXLKT","address":"NJKMBWHZRMURGCCXPQTABYUBQ9ZSZYHORKKLMTGFKSOJLVUZ9ZZVFEJTJZSFAQMHBI9RCQQOMGSOAET9D","optimalPurchaseTarget":-100,"optimalPurchaseTargetScore":-100,"availablePurchaseTargetList":[],"optimalSaleTarget":-100,"optimalSaleTargetScore":-100,"latitute":"52.105902","longitute":"-2.051245","amountDemanded":"5","pricePrefered":"14","distancePrefered":"11","energyTypePrefered":"1"},{"index":89,"seed":"Q9FFMODQBJGIYLLXQR9GDSQ9JLIYJOKRB9PNUBDDPGAVHQJWLNAARWFISDHYQPVXTPUYKBPLIPSUPLSJU","address":"9CHAJGLJJ9TMVJXJFQ9SXOAWDCFHSOQEZF99AFJPVUYEIGZTWWSUIGC9OSFNHJHOGWIKGRCPA9SSGTH9B","optimalPurchaseTarget":-100,"optimalPurchaseTargetScore":-100,"availablePurchaseTargetList":[],"optimalSaleTarget":-100,"optimalSaleTargetScore":-100,"latitute":"51.279385","longitute":"-1.086573","amountDemanded":"3","pricePrefered":"15","distancePrefered":"12","energyTypePrefered":"2"},{"index":90,"seed":"DQYCGNBBYQY9FNQSWHQIPBQQXLMDWHMITBMRGERELDL9HYFTBVFMKORTUOOYEWTVED9SQPEPHTSUYLTJC","address":"HDYJXZOFTUGZU9GSRBA9PVWJABJKYIO9HRFGYPGL9HCJZTVRMFDRGFGCZEKSWCZDKZV9FGB9AXQEHZAQ9","optimalPurchaseTarget":-100,"optimalPurchaseTargetScore":-100,"availablePurchaseTargetList":[],"optimalSaleTarget":-100,"optimalSaleTargetScore":-100,"latitute":"51.160944","longitute":"-0.495557","amountDemanded":"4","pricePrefered":"14","distancePrefered":"11","energyTypePrefered":"1"},{"index":91,"seed":"S9TKKJVHMVLKQRQVY9FDALSXPETHVCBDJCBTIS9OXCKPLHSSPDPRGEIJFG9DQYRROCTVCHAQJDQFIKYOT","address":"WXVCXTIBXNXJEWFSGJTMAAJLNUFEITJEINGEMVEYEWUNHQCFENDVYHERQZZB9YONXMXZKSBZREE9AOIRB","optimalPurchaseTarget":-100,"optimalPurchaseTargetScore":-100,"availablePurchaseTargetList":[],"optimalSaleTarget":-100,"optimalSaleTargetScore":-100,"latitute":"51.639413","longitute":"-1.282160","amountDemanded":"4","pricePrefered":"14","distancePrefered":"13","energyTypePrefered":"1"},{"index":92,"seed":"MKCCLO9XYSMEGBVXSVTQKIKUQCQVXNXQBFGVBXFRIIBAVEOEJBDIKEKQQGOEVLNFLADAVHHUMSIQR9QYA","address":"CFZLQBRZVCIHJGVIEEUNDSIOFWBKNHBNVMTXFHPEFGYXJNYQPKSFOHJUVLHMZMPSLUUXSDNJNVTFYRKMC","optimalPurchaseTarget":-100,"optimalPurchaseTargetScore":-100,"availablePurchaseTargetList":[],"optimalSaleTarget":-100,"optimalSaleTargetScore":-100,"latitute":"51.091597","longitute":"0.226251","amountDemanded":"3","pricePrefered":"16","distancePrefered":"11","energyTypePrefered":"0"},{"index":93,"seed":"X9QTDSDMJ9QCVGQFBOARHBKUPCYWYXEVVOBPFBOQXXNXFSXMABUTARDIXPFVTWVMNJYYXPDUOXECPBOFO","address":"QHUUZNFKZIUVNCOJHSWCUQOGZLFTQMIKGILQUBWLCBRSXNXCMPBJNBOGFEBTKYDAGRQMVYUGYWEXVQ9ZB","optimalPurchaseTarget":-100,"optimalPurchaseTargetScore":-100,"availablePurchaseTargetList":[],"optimalSaleTarget":-100,"optimalSaleTargetScore":-100,"latitute":"52.398445","longitute":"0.266230","amountDemanded":"2","pricePrefered":"15","distancePrefered":"13","energyTypePrefered":"1"},{"index":94,"seed":"VTVDWSVCGN9AFAAJT9BTJETQGKOECGCQFKVSNPCTXGLAIHTN9XTTUCGFCTLESCAMTKQRAIDXBSOIFSWVT","address":"QIGOTLWTUSFSGD9ZBPFSVWGIUDYPCECIE9MZC9AWWTDY9BCXHGVSIEBLALIQBWEOWGLVUHDXTXSJAWX9B","optimalPurchaseTarget":-100,"optimalPurchaseTargetScore":-100,"availablePurchaseTargetList":[],"optimalSaleTarget":-100,"optimalSaleTargetScore":-100,"latitute":"52.327426","longitute":"-1.521520","amountDemanded":"6","pricePrefered":"14","distancePrefered":"10","energyTypePrefered":"4"},{"index":95,"seed":"VAVPWXSTEEUWACJJKXAFTKXNOCQSBKHWHYOHTOYHPKKFGUGCYBLJJMQAJCH9NKESOMVGHMGYPQRHUUG9P","address":"FWODHQFJ9JSGN9SYOWDTKKIEWIDP9PKVGDRTFGJGCRDZPBUYHKCQOGAYNXXWKATMIRENCAFEEWOQZWOIW","optimalPurchaseTarget":-100,"optimalPurchaseTargetScore":-100,"availablePurchaseTargetList":[],"optimalSaleTarget":-100,"optimalSaleTargetScore":-100,"latitute":"51.046318","longitute":"0.215761","amountDemanded":"4","pricePrefered":"14","distancePrefered":"11","energyTypePrefered":"2"},{"index":96,"seed":"YCANXEPFIBMTBP9XDMPYMGLY9QGF9KUROWFUCXHKXUCEAHBKRMM9MKRCPQEYDIAQUJOBJVNSMMNTADSOI","address":"TEKBQ9SCTPHQRCJLHLLPEMNXUBJQFURKVQKVKDEEOIFCDRA9TYHXRVAYQBMNXTBWNUIQQCZNGNKUJBRNX","optimalPurchaseTarget":-100,"optimalPurchaseTargetScore":-100,"availablePurchaseTargetList":[],"optimalSaleTarget":-100,"optimalSaleTargetScore":-100,"latitute":"52.270903","longitute":"0.222440","amountDemanded":"3","pricePrefered":"15","distancePrefered":"11","energyTypePrefered":"3"},{"index":97,"seed":"LXCVMPLTRFIBODFHKCFQIXFCHUCLABCNDTHHTO9ISMRUDUOSWJHIPHQFLMGRAYGYQQBSKITHFMYLTXLQG","address":"RZJMINIDKIXJSACDIWYNSNUFZSTPWKZGJZICLUHTPYAKYJNLVDJYGLNLMRWDBKCSMXIMCZWNGZY9KKGCD","optimalPurchaseTarget":-100,"optimalPurchaseTargetScore":-100,"availablePurchaseTargetList":[],"optimalSaleTarget":-100,"optimalSaleTargetScore":-100,"latitute":"51.441576","longitute":"-1.339414","amountDemanded":"3","pricePrefered":"15","distancePrefered":"13","energyTypePrefered":"0"},{"index":98,"seed":"JOFQSVXGSRNCMWKWRD9HPGQPNNXFNMICSMMVBX9VNECNQIX9LRF9KPDHYDSMQFOORLQPCFIMXADCUNHKW","address":"YFDDYYTFNO9KGZDIYNZFNDUMOXGAEFPAGXFKEHTLQFABAZZYYQLTYFEZBXPOPFYDRWTSYDJLIG9CCTORA","optimalPurchaseTarget":-100,"optimalPurchaseTargetScore":-100,"availablePurchaseTargetList":[],"optimalSaleTarget":-100,"optimalSaleTargetScore":-100,"latitute":"52.056015","longitute":"-1.390348","amountDemanded":"2","pricePrefered":"15","distancePrefered":"15","energyTypePrefered":"1"},{"index":99,"seed":"MRASVESU9MYI9MKHWWPAXGQIDKUAJBJYBTAGMJSAWIXMUSWMQQEG9YTQGBJMUDOMJJPXJRTKTXGVWPTBP","address":"LYXXN9AASXG9MJAFVHOZINRDFHMCLOOM9GDGYURJOVIFYTVOHTEWRJKJQTO9KCMTIPLKBFPWU9GOFFYXA","optimalPurchaseTarget":-100,"optimalPurchaseTargetScore":-100,"availablePurchaseTargetList":[],"optimalSaleTarget":-100,"optimalSaleTargetScore":-100,"latitute":"52.105986","longitute":"-0.989852","amountDemanded":"1","pricePrefered":"15","distancePrefered":"13","energyTypePrefered":"3"},{"index":100,"seed":"NVHJSFUTFL9FLSKNCASCBSRYCPK9HY9XJVLXBWNPIYPUNNEXVTNYAGFXI9PVBJWHFCHEYREDNRAMLMKYP","address":"AGFUJLVPBLGK9JEQOQKBDQDVAHVCWUGHYSNUMEIMTGNXCVIYDBQFCEJEBRYBBQIBBLCRSKRUCXMGRUIGD","optimalPurchaseTarget":-100,"optimalPurchaseTargetScore":-100,"availablePurchaseTargetList":[],"optimalSaleTarget":-100,"optimalSaleTargetScore":-100,"latitute":"51.358404","longitute":"-0.601379","amountDemanded":"4","pricePrefered":"15","distancePrefered":"11","energyTypePrefered":"3"},{"index":101,"seed":"IW9VLAXABPKTJI9GS9NWPFVFASHFTBGEQAUGXTIVOIYIMYBJIARC9FO99QEBQIUDIWMYDAUNIFKCEK9WF","address":"VJCKLXYDASNBAPBB9WJOWTSFG9IBANLGVGZDWTVSBNORQFOAMMBNIVCRRUCGUZGZAON9EDSIXGDZCDUQ9","optimalPurchaseTarget":-100,"optimalPurchaseTargetScore":-100,"availablePurchaseTargetList":[],"optimalSaleTarget":-100,"optimalSaleTargetScore":-100,"latitute":"52.175632","longitute":"-0.397630","amountDemanded":"5","pricePrefered":"15","distancePrefered":"13","energyTypePrefered":"2"},{"index":102,"seed":"QCPYTCGCCVYFJDUIHIGTGSUVOQJ9YPSUOFDELYBHSCQCILHBYYWCOFNRKCFY9JVYBB9JKJXALLHOBJPLB","address":"IWBAPDYMFXRCHTBCJ9AZ9NNRQXQCLOZZ9EDQPUUFMRUCGF9ZEUBFYHHYXO9HRVWHOWWGY9SYURZVCKHRA","optimalPurchaseTarget":-100,"optimalPurchaseTargetScore":-100,"availablePurchaseTargetList":[],"optimalSaleTarget":-100,"optimalSaleTargetScore":-100,"latitute":"51.968018","longitute":"-2.172122","amountDemanded":"3","pricePrefered":"16","distancePrefered":"14","energyTypePrefered":"3"},{"index":103,"seed":"DVJ9TEDLAGQEOYRKFYLCE9ID9PATDBAKFHSPTMGLGWJLKKV9JUKTJLXO9GHFIXXIVWQJIMC9XGMUKHJBB","address":"SPQDFXRAM9ERVWCYPVANXKWCHCYRFBEOFNMQIRGMLKQPYP9PRIKUXWAHS9PREFPAMWFMUCCFOVLH9IFZY","optimalPurchaseTarget":-100,"optimalPurchaseTargetScore":-100,"availablePurchaseTargetList":[],"optimalSaleTarget":-100,"optimalSaleTargetScore":-100,"latitute":"51.158341","longitute":"-1.784197","amountDemanded":"1","pricePrefered":"15","distancePrefered":"15","energyTypePrefered":"3"},{"index":104,"seed":"LMCJRBXFUHYYDUPPVRNNHXUIDBHGUUXUFIPDVUUKDLSQVIHYQXPQFRAFXLBDAWEUEBRAJXBWCAPEOVMWK","address":"OCICPGTBSWBGZLLDGHOMAUDYOCEXHAMTFKJRZNRJMFGHVTSLBXVYGXOXZTEJMJTABLMSCGBHADEADJFGZ","optimalPurchaseTarget":-100,"optimalPurchaseTargetScore":-100,"availablePurchaseTargetList":[],"optimalSaleTarget":-100,"optimalSaleTargetScore":-100,"latitute":"51.514597","longitute":"-0.004049","amountDemanded":"5","pricePrefered":"16","distancePrefered":"13","energyTypePrefered":"3"},{"index":105,"seed":"POEDBYYWGCUIYSOSWMIPWEEBBPNYEKFTJKPRFMJALNDTNHH9OGHGVFFDMQJBRDHNSHYIM9GW9MLAUXPWM","address":"UURTXRDVTKYSDUDWEDTSUOSHKW9EFSYVLUZCMXXGFGSI9AKIGZEHWJBSDVDJXBYZXVQGVE9VJKIARRJ9A","optimalPurchaseTarget":-100,"optimalPurchaseTargetScore":-100,"availablePurchaseTargetList":[],"optimalSaleTarget":-100,"optimalSaleTargetScore":-100,"latitute":"52.311972","longitute":"-1.743493","amountDemanded":"2","pricePrefered":"15","distancePrefered":"11","energyTypePrefered":"4"},{"index":106,"seed":"YN9IY9IFPWCVYNWHBGRPHESFXAHYKXLJXNT9OVTHTRSBVCHCIXJQQSWXYHWVQHSRVHPVSXQJVNVDGTXKL","address":"IRZQFLMIGHXSAZJVDPZCCGACYQWMMOZGBHHEHWMEGANRUCGSG9XVZMT9ENHSNLB9IOFZLSZXCWDPVOAMX","optimalPurchaseTarget":-100,"optimalPurchaseTargetScore":-100,"availablePurchaseTargetList":[],"optimalSaleTarget":-100,"optimalSaleTargetScore":-100,"latitute":"51.553025","longitute":"-1.618179","amountDemanded":"2","pricePrefered":"16","distancePrefered":"14","energyTypePrefered":"2"},{"index":107,"seed":"WXWBYOLSDJBTMTTALXGEYQGFLHNBMDYRJLKTPPIQOQTBCYUAMCMQVA9TUGSIQDPXNFUORQAFHMDMJMGEP","address":"OEYXZLEDEUUOGVIFBWLHBPPQXQGELHLKOOSZQGCMBXYR9JZZYCVELFVGDYLOLSCWBMHACULXWUGHXDRMX","optimalPurchaseTarget":-100,"optimalPurchaseTargetScore":-100,"availablePurchaseTargetList":[],"optimalSaleTarget":-100,"optimalSaleTargetScore":-100,"latitute":"51.795126","longitute":"-1.655552","amountDemanded":"3","pricePrefered":"14","distancePrefered":"13","energyTypePrefered":"2"},{"index":108,"seed":"ORLYEOWUVJADCAUEXQKBEQCNEQDN9MJTEPBORKFWFNIOLXAYDJGPOPY9XTTEMMQVBQM9XLJ9WKRCUPLHO","address":"BXPDECRRLN9ZISLIRUMSSWTKRPAQOLVEH9BIOWTR9BNCXNRCDXPWIXDBDIMI9MGZYJWY9FJSIWAPUGQBC","optimalPurchaseTarget":-100,"optimalPurchaseTargetScore":-100,"availablePurchaseTargetList":[],"optimalSaleTarget":-100,"optimalSaleTargetScore":-100,"latitute":"51.569452","longitute":"-1.594633","amountDemanded":"6","pricePrefered":"15","distancePrefered":"14","energyTypePrefered":"2"},{"index":109,"seed":"JWMDYLEFOKTYLKT9TYFELHNCJTJUI9G9WO9FTXOQNJNSDTDNOGVOBECFNNDVGCMHWUUARHAPFBQOULSEP","address":"JNOKGBEPWPC9TBNHDNSNJ9EKYZIFSIOSSUAOFARUWTMZEUZLCVMHPJFMWGMSWNKIGKJMDHEIUKCRRCWM9","optimalPurchaseTarget":-100,"optimalPurchaseTargetScore":-100,"availablePurchaseTargetList":[],"optimalSaleTarget":-100,"optimalSaleTargetScore":-100,"latitute":"51.106415","longitute":"-0.398501","amountDemanded":"3","pricePrefered":"14","distancePrefered":"13","energyTypePrefered":"4"},{"index":110,"seed":"CEI9RA9ONPDHVGVRJBCHLTKMRGDFQTANVBFMGJMFIBDVFPKGRRYDJXISCNUVJFFXENVQPXVA9YQGLNESP","address":"JOSZZDHA9SKZ9HOYQPMVC9NTBZJUKNQWKGXXWNZNOLXHXAAT9QQDIBXARHTUR9YOGNNPJPRMSGHNVVPJ9","optimalPurchaseTarget":-100,"optimalPurchaseTargetScore":-100,"availablePurchaseTargetList":[],"optimalSaleTarget":-100,"optimalSaleTargetScore":-100,"latitute":"52.410442","longitute":"-2.187900","amountDemanded":"1","pricePrefered":"14","distancePrefered":"14","energyTypePrefered":"1"},{"index":111,"seed":"9DNDOIHVLFFYOTNSHGTGHJNT9KI9QOCUVLJFCNCE9QMJERPUTWTDEWOH9ANKC9XGIWFGMNVGNDOJPXMKV","address":"CNIJOAHVWLAWIGWRWADMAJGERAVUQCYZPGLAGUW9YONWAY9RWWFAKUYNNQOTCVYKYQNMCKVWGKQOHYXZ9","optimalPurchaseTarget":-100,"optimalPurchaseTargetScore":-100,"availablePurchaseTargetList":[],"optimalSaleTarget":-100,"optimalSaleTargetScore":-100,"latitute":"50.985053","longitute":"-0.358853","amountDemanded":"3","pricePrefered":"15","distancePrefered":"10","energyTypePrefered":"3"},{"index":112,"seed":"9Q9OJGHJURJUFRS9MY9YGRTDSHRDYSCPLCGNYKGUFGIWGNGGEFKKFVDMKACTOKAGIELVVSWIBFBSOQSAB","address":"VTHDZWYYUKOSOXHKARNNYSBCEMBMYVWBHYWYXXXROVPZJVVWQQCB9LRRVEQBOTRTRXKUTHVXWYNJBD9RB","optimalPurchaseTarget":-100,"optimalPurchaseTargetScore":-100,"availablePurchaseTargetList":[],"optimalSaleTarget":-100,"optimalSaleTargetScore":-100,"latitute":"52.294745","longitute":"-1.798994","amountDemanded":"2","pricePrefered":"15","distancePrefered":"14","energyTypePrefered":"2"},{"index":113,"seed":"RAMIRLKTX9KMMYLPTH9NWAE9HXOCUWHFRHAWOEO9TTWBCLFGIQIKAJJNWHQETRYBBCDNDRMLWLPDMBEVW","address":"QEZGYEIAZYWZN9JMUEBKZNFKQUJL99MNDHGAJQWD9OPGCEYVNIOTOWAWWJUJMWTUBDNR9LMOICOQHHM99","optimalPurchaseTarget":-100,"optimalPurchaseTargetScore":-100,"availablePurchaseTargetList":[],"optimalSaleTarget":-100,"optimalSaleTargetScore":-100,"latitute":"52.328704","longitute":"-0.133856","amountDemanded":"5","pricePrefered":"15","distancePrefered":"10","energyTypePrefered":"3"},{"index":114,"seed":"VPYEIGFLYDETLDK9BRUTSSAGRN9RCHVGXOFOIHJQLW9HE9CFCXKFMIH9OENGKIGFGQFNMKCTELCYGGHYO","address":"YEJCYEQIYWAIQSUZJLFZZURFTJBCDOXHJWRQOYTDIRMIUAIDOEGRHTMIPWASXZRIFVD9DBDO9RCKBLBRX","optimalPurchaseTarget":-100,"optimalPurchaseTargetScore":-100,"availablePurchaseTargetList":[],"optimalSaleTarget":-100,"optimalSaleTargetScore":-100,"latitute":"51.942074","longitute":"-1.254155","amountDemanded":"5","pricePrefered":"16","distancePrefered":"11","energyTypePrefered":"3"},{"index":115,"seed":"LJNG9LINPXMFNWHRKSLOCBHUC9MFQJDMO9XQTHHSIIVNSQEVOYJNUEHRUMGWADTGWVERDDRAPQUMGHOON","address":"LRBXHHCHJFWDAWHMLHJDMLGFDELJFPAESLLJWEPUOHYOXILNPFWRUDIVSHISZNCLJXORWQRKPMRUPLESY","optimalPurchaseTarget":-100,"optimalPurchaseTargetScore":-100,"availablePurchaseTargetList":[],"optimalSaleTarget":-100,"optimalSaleTargetScore":-100,"latitute":"51.368458","longitute":"-0.532836","amountDemanded":"1","pricePrefered":"14","distancePrefered":"11","energyTypePrefered":"3"},{"index":116,"seed":"EFDRG9URQ9LGCAPFJDKYQWUTH9Q9KHUUSVRAITSGYUILVJTDKMTRGUUAIIGPHAUVPGNVGTLCGQHVNWSDB","address":"UOMDFAUHINHTRCALJQZPKOYLRCDSEBPODGVJNYOGIRKLISADLPRALHBGNCTSJXNJGVFQQZ9LUVUQQNXSC","optimalPurchaseTarget":-100,"optimalPurchaseTargetScore":-100,"availablePurchaseTargetList":[],"optimalSaleTarget":-100,"optimalSaleTargetScore":-100,"latitute":"52.341982","longitute":"0.186642","amountDemanded":"4","pricePrefered":"16","distancePrefered":"10","energyTypePrefered":"4"},{"index":117,"seed":"CET9MXPMX9AORKHOL9RCYXMRQHEPUFBCMHQMWHKCH9DCCDGOVULLYWJGGYDSB9NMJODHRNDDQTARAPE9A","address":"LFALQFTHLDBGXIYZTYCCCKBWUSUMLDYCCJPLBGCSHM9RYFREUTZEBVZGAUNQLUALTNSCTJZNRQFBYCZLW","optimalPurchaseTarget":-100,"optimalPurchaseTargetScore":-100,"availablePurchaseTargetList":[],"optimalSaleTarget":-100,"optimalSaleTargetScore":-100,"latitute":"51.032587","longitute":"-0.924321","amountDemanded":"2","pricePrefered":"15","distancePrefered":"11","energyTypePrefered":"1"},{"index":118,"seed":"MJRKRTWSRKKQBUAPYHKMYAPFXE9KMRNKETNRRIEAFWHAJCKOEB9NENJKVQHOBXDKSTBOGHJVJXEFYLMXK","address":"BSVPPVAOUYYTITISZBXHGUX9JADPMHBAPALWYO9FMOVUKPSDXJXCJTWSSFHOJEJZQAZAVAFOQKFKQFZGC","optimalPurchaseTarget":-100,"optimalPurchaseTargetScore":-100,"availablePurchaseTargetList":[],"optimalSaleTarget":-100,"optimalSaleTargetScore":-100,"latitute":"51.196807","longitute":"-1.429259","amountDemanded":"6","pricePrefered":"15","distancePrefered":"12","energyTypePrefered":"2"},{"index":119,"seed":"IXLPFUFGHGFQQKSMRDLQRJUAKDOTGSCFGLJXMGHAWAAGCXYQXC9MJH9NDDREPBTHSRGOSLRAPDTEEOVFE","address":"JHMGLKNQSSZTCXNCVVNOWYAOLHWX9OTQLAJYZKFSAQZ99HGNW9ZCSPLRTIZXMSASUUPYMCMFOTGTBAVGX","optimalPurchaseTarget":-100,"optimalPurchaseTargetScore":-100,"availablePurchaseTargetList":[],"optimalSaleTarget":-100,"optimalSaleTargetScore":-100,"latitute":"51.310996","longitute":"-0.127822","amountDemanded":"6","pricePrefered":"15","distancePrefered":"12","energyTypePrefered":"0"},{"index":120,"seed":"VOAVUOAMUREQCXVLPUMPTDPMAPDQMYUJ9DVJORSW9AXCADYVSVHWDQTOUUEXBSYRVBUJRDKMCWNDAJDLE","address":"EJJQPDSXMDUCEIBBJSRR9SJCMBZJBHFUGKRCFNLTKPOBPYSHQVMPOHZRVNUXRWTFY9PS9RFKANZQCLOSX","optimalPurchaseTarget":-100,"optimalPurchaseTargetScore":-100,"availablePurchaseTargetList":[],"optimalSaleTarget":-100,"optimalSaleTargetScore":-100,"latitute":"52.090165","longitute":"-1.307322","amountDemanded":"4","pricePrefered":"15","distancePrefered":"12","energyTypePrefered":"1"},{"index":121,"seed":"KGBX9NWUAMLW9HGSRROPCTPRIVBTGPCGWNLFQAJSIISFLXCCGULHM9BKDMTMPNEGPXJFXCQNPSNQBOOWS","address":"PSILVXDDLCHIJLGLRNEAYJC99MVVEEHQSVQIKBPS9AEXKBIJKKRCNATJFDIHOJRWILEFMQTIK9SBU9CQC","optimalPurchaseTarget":-100,"optimalPurchaseTargetScore":-100,"availablePurchaseTargetList":[],"optimalSaleTarget":-100,"optimalSaleTargetScore":-100,"latitute":"51.909213","longitute":"-1.710035","amountDemanded":"2","pricePrefered":"16","distancePrefered":"12","energyTypePrefered":"1"},{"index":122,"seed":"UQL9NY9YQ99GRSBKUCJTTPULWGPVRKCS9PCNROLTXSMAQGRQSRFUSIMFOQLTWRHWFVP9OTTTXPSN9VWUI","address":"MY9YRDVDJHNXFCZRLXAHDGYMSXEHXDZVPKFFDLPMFHXOVFTCKVUB9MQQATBNSWDUTIKXXDTHLBRPUSROW","optimalPurchaseTarget":-100,"optimalPurchaseTargetScore":-100,"availablePurchaseTargetList":[],"optimalSaleTarget":-100,"optimalSaleTargetScore":-100,"latitute":"51.919770","longitute":"-0.223246","amountDemanded":"2","pricePrefered":"15","distancePrefered":"14","energyTypePrefered":"3"},{"index":123,"seed":"RXTJKPLGNYPKWBTKKNDSXRFSYDBXWUNHSV99RUWJIKHGACEURWCMNTJAESTNOLHJYYTYIRIVFFLUTEIOD","address":"PJFGWFDBXQFZBEHUWSOENFVJYPFDFFFWJWNXBEP9NKDWWRVINTAQ9TVQWMTCCDGMYLTLYVCVSUUJMBXTX","optimalPurchaseTarget":-100,"optimalPurchaseTargetScore":-100,"availablePurchaseTargetList":[],"optimalSaleTarget":-100,"optimalSaleTargetScore":-100,"latitute":"51.457348","longitute":"-1.014553","amountDemanded":"2","pricePrefered":"14","distancePrefered":"10","energyTypePrefered":"1"},{"index":124,"seed":"FIYOJIGAGTK9OCQWFDWRQCAFFWOAI9UTWVQISNYEVCFWFYRYMKQDU9EHCNPWNGORGDTRRBXDSBPUYIENY","address":"WEJISOXIWJSUNRKIHEFWWGGJHFMJECRBNDIMCMOMKRC9MPET9QSIX9KPENNYTCQ9KFFUMPXT9D9RAMSFX","optimalPurchaseTarget":-100,"optimalPurchaseTargetScore":-100,"availablePurchaseTargetList":[],"optimalSaleTarget":-100,"optimalSaleTargetScore":-100,"latitute":"51.120462","longitute":"-0.598152","amountDemanded":"4","pricePrefered":"16","distancePrefered":"11","energyTypePrefered":"4"},{"index":125,"seed":"AMTCMHELQVKNRUKGOFQEQHWCGAOMDHMRECJNRQNJ9OOBYIVRUTLUTVJ9G9SAA9DGRINB9JOGNQRDENLLM","address":"VKXFEORRXFDUVCMQJI9DPXUEQYTYNSWRTSEXZGLDGCXWCTEKZYBITPLWFYMFAWPBIVSRWZVBIURFBGSUY","optimalPurchaseTarget":-100,"optimalPurchaseTargetScore":-100,"availablePurchaseTargetList":[],"optimalSaleTarget":-100,"optimalSaleTargetScore":-100,"latitute":"51.141717","longitute":"0.270852","amountDemanded":"5","pricePrefered":"15","distancePrefered":"13","energyTypePrefered":"2"},{"index":126,"seed":"REMUDTAGOVULVRBDNNKV9ATHJBVYSWCJOOEKNQLAWCTHTL9MDHJDQHAFSCEADQDSLDPQDETNVQCDTYCDY","address":"GPQP9CDEV9QC9SEQIUNMHSFLPUHTYUEPGOAETUFLJMHIPJMISTMCSEUBUJVAXQ9LKNMKTPQWVYVRZWOOW","optimalPurchaseTarget":-100,"optimalPurchaseTargetScore":-100,"availablePurchaseTargetList":[],"optimalSaleTarget":-100,"optimalSaleTargetScore":-100,"latitute":"51.171001","longitute":"-0.184848","amountDemanded":"4","pricePrefered":"15","distancePrefered":"11","energyTypePrefered":"3"},{"index":127,"seed":"AXYXRCDMGSYEARN9MAJNQPBIOGEMPVOB9P99ICWXSAAAYCMCKQCBMLECBYLRKHAKP9HVDBHIJYUPJVTSX","address":"9KXSPXFILOLQMJDQPBRVPUW99GUCFXHUNETFRWCBJCBSKYW9GDTYKQRQBBAQ9PHAOBPJETFZQGFHOQFJA","optimalPurchaseTarget":-100,"optimalPurchaseTargetScore":-100,"availablePurchaseTargetList":[],"optimalSaleTarget":-100,"optimalSaleTargetScore":-100,"latitute":"51.335680","longitute":"-1.063754","amountDemanded":"5","pricePrefered":"16","distancePrefered":"12","energyTypePrefered":"0"},{"index":128,"seed":"AIRRUFMXPSYRVGNX9F99NLNUHPHECPBTYDYDNUDFJDOYGKGX9BCXKDKLDNIUD9VFDVGLNSCVAILQWCGSN","address":"NRHEEUR9ZDWARUHYCTICXJMMLXDDMYYSTORCSDLEHDFUGNWJGPKQHJUCWYOES99BLYZFKKSUNBDQYOSFX","optimalPurchaseTarget":-100,"optimalPurchaseTargetScore":-100,"availablePurchaseTargetList":[],"optimalSaleTarget":-100,"optimalSaleTargetScore":-100,"latitute":"51.181164","longitute":"-1.701654","amountDemanded":"6","pricePrefered":"15","distancePrefered":"14","energyTypePrefered":"4"},{"index":129,"seed":"KKXADBSVIVWQYYYPUTBTNBYTKUH9MTBIRJCDJFLWDVLMQRXWICAETBBGBAMPAVP9OUPKOMMQ9LGAELAHW","address":"PPGZHZCMMHUMNCS9ANOGXRKJMSVEIATBUOGEOEKPSWIGWRXIWFJNIROTFAWBKLYXLISMQJNKZUILXJXYZ","optimalPurchaseTarget":-100,"optimalPurchaseTargetScore":-100,"availablePurchaseTargetList":[],"optimalSaleTarget":-100,"optimalSaleTargetScore":-100,"latitute":"51.369616","longitute":"-1.680865","amountDemanded":"2","pricePrefered":"14","distancePrefered":"10","energyTypePrefered":"3"},{"index":130,"seed":"LAAXNWQGXVHQOEGNGHNTUPXEEPJQMMDDONRNRPSMSIUKDCNPHJCMQGUTJJRMNJDOCSUFUDQONNHSSXIMP","address":"9UOTHFADLCUXGDEBMGLQXTXZWGHUQHAFJPBGBSJEJDJIHQPGXAHTZBFIABERYU9MDHEM9SLFJH9HXEJQY","optimalPurchaseTarget":-100,"optimalPurchaseTargetScore":-100,"availablePurchaseTargetList":[],"optimalSaleTarget":-100,"optimalSaleTargetScore":-100,"latitute":"51.915925","longitute":"-0.137008","amountDemanded":"5","pricePrefered":"15","distancePrefered":"15","energyTypePrefered":"4"},{"index":131,"seed":"A9KTTQXHFCNDTRWJIXEDXFNWMIHGENGUHITKWHKXMNUOCD9OL9HCQUGXDWGMJTQSSXVBRBMOCFLFETMWX","address":"GEHFDWYUAZHPQRYACVIAJPCZYEKNKDPSQLKZUAWE9OLQ9YRKIAAMMJOJO9DUYTVNMITUOUTVHQCJNWOFD","optimalPurchaseTarget":-100,"optimalPurchaseTargetScore":-100,"availablePurchaseTargetList":[],"optimalSaleTarget":-100,"optimalSaleTargetScore":-100,"latitute":"52.328144","longitute":"-0.275343","amountDemanded":"6","pricePrefered":"16","distancePrefered":"12","energyTypePrefered":"2"},{"index":132,"seed":"EENDIONVHSBWGYSDYWOKPTRUAFITRCPJTGYITNGGXYMVKAVRQWSJTPLXIXAMSHDIHCUXOXWIPTPBPIHWI","address":"A9GVIYHOQQYSLXFSZNWOHEATOBTJRGFRKMBGDWCTUHLNSRJAHOLVNBODWQVMCKU9YTDIVBAOKXRCFV9QZ","optimalPurchaseTarget":-100,"optimalPurchaseTargetScore":-100,"availablePurchaseTargetList":[],"optimalSaleTarget":-100,"optimalSaleTargetScore":-100,"latitute":"51.368512","longitute":"0.035228","amountDemanded":"1","pricePrefered":"14","distancePrefered":"10","energyTypePrefered":"2"},{"index":133,"seed":"9VSNPVM9BSYAYVTVCJQRPQNGXJBNGJQKFAAIBSUGFRBVOIBWOTBFUWUDJXPNPVIYXUEATNOPBKPLAWMOG","address":"C9VKBUDAQZYXOCSSDIAKHFITCKBBPWXSUHPRTTDYX9TLJIQVXXS9ZBTEJRJZJVBFAVUSKIWSF9JJIYPBC","optimalPurchaseTarget":-100,"optimalPurchaseTargetScore":-100,"availablePurchaseTargetList":[],"optimalSaleTarget":-100,"optimalSaleTargetScore":-100,"latitute":"51.841846","longitute":"-1.516398","amountDemanded":"1","pricePrefered":"16","distancePrefered":"15","energyTypePrefered":"4"},{"index":134,"seed":"NJGLLMNGTKWKIFVMIXHGYSFYFX9LDBXILFKYMMLHCGWJDEKCMLOTQFUACNIARWHQAKBCOPGSXVFHNXTNX","address":"FRSIVIKPWJSIPPLPKALQLOCRRPKLLMLFNJWOQFAIBRPQOVXBNYTVPYQGLPWYKBFBQIUYYQFQVKHTZJUNC","optimalPurchaseTarget":-100,"optimalPurchaseTargetScore":-100,"availablePurchaseTargetList":[],"optimalSaleTarget":-100,"optimalSaleTargetScore":-100,"latitute":"51.502552","longitute":"-0.592031","amountDemanded":"3","pricePrefered":"15","distancePrefered":"14","energyTypePrefered":"2"},{"index":135,"seed":"SUGCKVFRBKF9QK9IBSCCOAGJNPYCYLQAQUYPVKWQDFOACBICTDECJVMDYAGNQORWSASQRGGGYNQJTTRPH","address":"FLINQAOXQBNSKGGSMZSXJVLWXZHAVYCAE9FBZE9XTNFRZQJODMUZAKRIKZJLLPKDICGDCDOGOHHENIEMZ","optimalPurchaseTarget":-100,"optimalPurchaseTargetScore":-100,"availablePurchaseTargetList":[],"optimalSaleTarget":-100,"optimalSaleTargetScore":-100,"latitute":"51.013593","longitute":"-1.642722","amountDemanded":"3","pricePrefered":"16","distancePrefered":"13","energyTypePrefered":"0"},{"index":136,"seed":"DWYMIMLTKWAXPUXJJEQMBQXSKCHDDL9UIHUMBNFU9SYPEPXJFVVOAYJBDOYBMI99XKAPMTPUYIOQGGJBH","address":"9VZHMASAEXYILJVBOSFUFCOXGSYY9HFRWTIXGYZEPLZAMHVZBJYRQNNROMCDVKZEYVUAQQVXVFPBPOVCB","optimalPurchaseTarget":-100,"optimalPurchaseTargetScore":-100,"availablePurchaseTargetList":[],"optimalSaleTarget":-100,"optimalSaleTargetScore":-100,"latitute":"51.244189","longitute":"-2.211427","amountDemanded":"4","pricePrefered":"15","distancePrefered":"11","energyTypePrefered":"3"},{"index":137,"seed":"RTDKRURYPXTIMVDPSQGOUYPHANWIMCLUPNVUMSGWMQNHMVDEWNFPNJGVXALQLNBYOSSLNXXSIMYDUVIHF","address":"JQETWBZAPAYVWTCDJUYONOJ9S9URYMP9CCMQFLPBJMYAQBWMTURYQTB9ZLBBGSDANLCFFVKKRVFQMARJW","optimalPurchaseTarget":-100,"optimalPurchaseTargetScore":-100,"availablePurchaseTargetList":[],"optimalSaleTarget":-100,"optimalSaleTargetScore":-100,"latitute":"51.360490","longitute":"-1.734331","amountDemanded":"6","pricePrefered":"15","distancePrefered":"14","energyTypePrefered":"2"},{"index":138,"seed":"EGM9BKUVXJRHQKDBGFLMLTLACIYGMSIREGUUSY9XDKGCJQEVYTGMI9BVUIWUAYUMJXTRYQGSMELERKLOX","address":"CRRQFECUKNOV9KVHZVLUVFDROEVFBDCVFLFWOJIKGYVGRPDGTB9AKFFDWLZUY9SGQOMTVCITYKU99NHLD","optimalPurchaseTarget":-100,"optimalPurchaseTargetScore":-100,"availablePurchaseTargetList":[],"optimalSaleTarget":-100,"optimalSaleTargetScore":-100,"latitute":"52.368214","longitute":"-0.149456","amountDemanded":"3","pricePrefered":"16","distancePrefered":"13","energyTypePrefered":"2"},{"index":139,"seed":"TKLTTSUIAJVTXLNWCMPYVLD9BCYSRIUBBGVLRV9J9FTVMXEURLNDMFDKFXUSEPFAWUHHGRN9HTWDNGKGW","address":"XALNQOMRYHBNMIZLLWJIBDDWPJYTCNFGT9BTUZ9OFGAOXNRRDAXLCWMXWEOWEMAGQOGCIMABFLFAJ9IWY","optimalPurchaseTarget":-100,"optimalPurchaseTargetScore":-100,"availablePurchaseTargetList":[],"optimalSaleTarget":-100,"optimalSaleTargetScore":-100,"latitute":"51.903401","longitute":"-2.351799","amountDemanded":"2","pricePrefered":"15","distancePrefered":"13","energyTypePrefered":"2"},{"index":140,"seed":"GKUOLQGUXMUOFR9BYRRMYPPQAUHXTMAIVEPKIYQYUFJOIBDPMQITTQVCSWPENRFSICHUOLPTWWDQQTYOK","address":"D9QTVWCJHOPABJGZXFXVB9YVWHILURQXA9UCW9RDHOCIBWWDXDRDFRSDYMKXUYAJOM9XIZGQRKTIGQQTY","optimalPurchaseTarget":-100,"optimalPurchaseTargetScore":-100,"availablePurchaseTargetList":[],"optimalSaleTarget":-100,"optimalSaleTargetScore":-100,"latitute":"51.669003","longitute":"-1.727902","amountDemanded":"3","pricePrefered":"15","distancePrefered":"14","energyTypePrefered":"2"},{"index":141,"seed":"IVYUKRFNY9KFURINCC9UIOALIGBQJOVCWF9LERQWUVLIPPDVHW9BGPTIYIMIAVKKOPUSXJRTPUIBXKJQX","address":"RVSCZQPBQWCZXGUKRGRCZKYSZSIRXGIJVCCCMMVSG9YOOTZPDRFVDOXBKONUSJ9VIUAGZL9UADAURYUWB","optimalPurchaseTarget":-100,"optimalPurchaseTargetScore":-100,"availablePurchaseTargetList":[],"optimalSaleTarget":-100,"optimalSaleTargetScore":-100,"latitute":"52.093811","longitute":"-0.114459","amountDemanded":"3","pricePrefered":"16","distancePrefered":"15","energyTypePrefered":"2"},{"index":142,"seed":"FINHKNRQFHPIIEIFWUKSSKNJNEIQWCAK9OWUPPRUTSMPXIHYTGYEKXRW9ULUXVWLXQYGV9ENEVPQDDKWH","address":"R9MXPFMYDNUFYDZZOMXJLPFYSKQSGAYVCSRL9VCQIFJYJSPRDBKRGRUDTTUASVBPKC9AFPSHPADVZBHJW","optimalPurchaseTarget":-100,"optimalPurchaseTargetScore":-100,"availablePurchaseTargetList":[],"optimalSaleTarget":-100,"optimalSaleTargetScore":-100,"latitute":"51.286340","longitute":"-2.115009","amountDemanded":"5","pricePrefered":"16","distancePrefered":"10","energyTypePrefered":"2"},{"index":143,"seed":"KUC9CFBHNYWLMEONFHLKGUEPFDJTTMBTMF9QVYRFHPFJJUHUALQQVNNGGVBEFGTVDJSGCUWSTPAGTPTYH","address":"UKRCPVLTHX9JYMAOAPIPWLFGY99GIZDSJNZFWTGKNXHSWAXJHBRFFJSRAXMFGSKNWBUZQOHLTQPJQXJOW","optimalPurchaseTarget":-100,"optimalPurchaseTargetScore":-100,"availablePurchaseTargetList":[],"optimalSaleTarget":-100,"optimalSaleTargetScore":-100,"latitute":"51.611586","longitute":"-0.165166","amountDemanded":"3","pricePrefered":"14","distancePrefered":"10","energyTypePrefered":"2"},{"index":144,"seed":"GD9DJVSGBGGGVCBWMMGDCREFLLJPUPVNJFLMPCKLULTYIYLSBMNFYKAQUVYIQKONRF9XMPMFCRJJK9EAV","address":"CKXOARAEGVMVMBVWJCBY9ZVZLZYLHWE99PJQR9RVDLCBWWQQYZNMENGHVVWFJOY9OFL9CKZTWHLJYUHWX","optimalPurchaseTarget":-100,"optimalPurchaseTargetScore":-100,"availablePurchaseTargetList":[],"optimalSaleTarget":-100,"optimalSaleTargetScore":-100,"latitute":"51.189509","longitute":"0.170252","amountDemanded":"1","pricePrefered":"14","distancePrefered":"11","energyTypePrefered":"4"},{"index":145,"seed":"FEDKOCGREJGOFTUTPXPVKXQWFMFAFKHTHOJDFGHTTKT9ATWBFN9OYBA9BNGRCIFXVCLUPDVBELRRJURFW","address":"ABWMXPYBGYJQFAFZYZZAKVCSCBZ9BWTWNKAPRJJXGWLVEAINZEHR9UD9RMYBIQILYKBYKLSWO99SNLTAW","optimalPurchaseTarget":-100,"optimalPurchaseTargetScore":-100,"availablePurchaseTargetList":[],"optimalSaleTarget":-100,"optimalSaleTargetScore":-100,"latitute":"51.564501","longitute":"-1.795241","amountDemanded":"4","pricePrefered":"15","distancePrefered":"10","energyTypePrefered":"2"},{"index":146,"seed":"MTXOJWOSIQOURLMHTFMMGQXAIRGKCQ9BGUYDMNCSQFGFCSHVCBOEUVV9EEKKXRNGOWDIBNLWVFIF9FDFN","address":"JHHJEYXHDONJIGUFEEKZADVBDWTDINQPHGLTAY9KLZRFETBSFPWSUNLPFWACSZQNPAENCXKQXLIW9ZWR9","optimalPurchaseTarget":-100,"optimalPurchaseTargetScore":-100,"availablePurchaseTargetList":[],"optimalSaleTarget":-100,"optimalSaleTargetScore":-100,"latitute":"51.915081","longitute":"-1.685605","amountDemanded":"3","pricePrefered":"14","distancePrefered":"14","energyTypePrefered":"1"},{"index":147,"seed":"J9HWEMLLSEOPUHVPHATBANVOQCOAVJPMXFIQDRRXJMGUGCQGRPGQRPSNQ9TYABUOLETBADDJWAVXDVRER","address":"MNHOANKZSNNYTAYLULJYTTJTAKAUBFNWRNOFAGLILCKKBH9VICLRLFHZMXBXBHOSOJYMQRHBVYLOZHHD9","optimalPurchaseTarget":-100,"optimalPurchaseTargetScore":-100,"availablePurchaseTargetList":[],"optimalSaleTarget":-100,"optimalSaleTargetScore":-100,"latitute":"51.135023","longitute":"-1.839336","amountDemanded":"6","pricePrefered":"16","distancePrefered":"14","energyTypePrefered":"3"},{"index":148,"seed":"CCLBJROWAXSH9OCYBPQUIAKJBMKULLAHRBDOCLIOJWPFVIUT9AIXMTYEHMEITCNGBROARXUJJHSBMMUQE","address":"MCIKHNGHIUIZRH9WVYCOFSVUKSTYOOVYIUEIXTHSOEGEYHMLJKMZ9RBHQKNAKWNPHEUJFPL9NLTVSOBO9","optimalPurchaseTarget":-100,"optimalPurchaseTargetScore":-100,"availablePurchaseTargetList":[],"optimalSaleTarget":-100,"optimalSaleTargetScore":-100,"latitute":"51.841821","longitute":"-1.114206","amountDemanded":"5","pricePrefered":"15","distancePrefered":"10","energyTypePrefered":"3"},{"index":149,"seed":"DEBTMPFIU9THEAE9PVV9J9XYRFVFJLAKNHPTUGUYPNBBMDSFVUEVOOGKPGUMPPTGLHEV9UNFYKVANGGRJ","address":"TRATJZAUKNTMWJTUHWOYOIZVCJJXJMXGWUNNAFIYVNS9FSNGGUMKPNAZQBGGTVDTTICVPBECOUQFHCUNW","optimalPurchaseTarget":-100,"optimalPurchaseTargetScore":-100,"availablePurchaseTargetList":[],"optimalSaleTarget":-100,"optimalSaleTargetScore":-100,"latitute":"51.089674","longitute":"-0.464794","amountDemanded":"5","pricePrefered":"16","distancePrefered":"14","energyTypePrefered":"2"},{"index":150,"seed":"VLERUMNUISXYT9Q9OSQLTSCGFGKHOPPFVIJDXKLTXLVXSXGNGETBPRWNNUHVLWWLQMFSAJNPMXFBPFDJC","address":"QQRPCJEKCQEXNODZAQTHNMAFRIKXRHMYSRYEZPIIAKDJTQPTPMYLEXZDHYWSQC9DZEJDRUUSOKCWKWKPY","optimalPurchaseTarget":-100,"optimalPurchaseTargetScore":-100,"availablePurchaseTargetList":[],"optimalSaleTarget":-100,"optimalSaleTargetScore":-100,"latitute":"52.298124","longitute":"-1.531278","amountDemanded":"2","pricePrefered":"14","distancePrefered":"11","energyTypePrefered":"2"},{"index":151,"seed":"WFUQTJAXRKYJR9FPX9YMCURDXNAXGWYGFGIV9VYELGXMBKWMNNWYQFPBKEQLMDMAWRKQXDRAVX9EI9YYT","address":"CGVAKLTJ9NPYTARQQJ9PRCCQIIOFKTPICHKLQRXABMBWQAMHCGSZCZPVN9YFGWCZLNZQQBKEPHRRSXADA","optimalPurchaseTarget":-100,"optimalPurchaseTargetScore":-100,"availablePurchaseTargetList":[],"optimalSaleTarget":-100,"optimalSaleTargetScore":-100,"latitute":"52.014954","longitute":"-2.361632","amountDemanded":"3","pricePrefered":"15","distancePrefered":"10","energyTypePrefered":"1"},{"index":152,"seed":"QVUPXOXDTHBOQNSVKIPXMQBWQEMHLJJHPOWCSEAPDJGBPJYADOAYUHWAYPOHVJYSSXQYUHXYDUJAPIMMC","address":"RLRLQGWEJUJNDBKUMQOKSHTQHWCFSUDVYOFUYM9S9EH9SBTHXXYPOPUXQZRCRPABPHZUIXPYAYDPETPVZ","optimalPurchaseTarget":-100,"optimalPurchaseTargetScore":-100,"availablePurchaseTargetList":[],"optimalSaleTarget":-100,"optimalSaleTargetScore":-100,"latitute":"50.968773","longitute":"-1.965546","amountDemanded":"2","pricePrefered":"15","distancePrefered":"12","energyTypePrefered":"0"},{"index":153,"seed":"KCXEOFACNEJBHD9FPFJWAASVNWQMNSAGTHKAQUJXMNXBNKHWPDYKV99YFGKGCWCSPFQ9HHQKOJETHEVMA","address":"HCQFWFGLPJY9PKVZXZNMRLRNRDRUQBVESFGCLBY9EHQKEFUVIMTU9JEZXMWWYMSJFMMSPROHDVKNWBDAW","optimalPurchaseTarget":-100,"optimalPurchaseTargetScore":-100,"availablePurchaseTargetList":[],"optimalSaleTarget":-100,"optimalSaleTargetScore":-100,"latitute":"51.256591","longitute":"-0.972048","amountDemanded":"2","pricePrefered":"15","distancePrefered":"14","energyTypePrefered":"3"},{"index":154,"seed":"XLAN9LHKTEHTCHVKEFAHGYKYLIIM9WHYVRGBVAODHWPRECDTWETMXMTMNOOXASNPYAXJUOAYYRWYVPIHS","address":"9LAGDSCWDXMWCJBRFHINRUEGVCENKRDJVGAKOQLNLYCCOARGLDIHENQNCWHRAPIMXWMECGFZHLAJFNPIY","optimalPurchaseTarget":-100,"optimalPurchaseTargetScore":-100,"availablePurchaseTargetList":[],"optimalSaleTarget":-100,"optimalSaleTargetScore":-100,"latitute":"52.174373","longitute":"-1.071421","amountDemanded":"3","pricePrefered":"15","distancePrefered":"11","energyTypePrefered":"2"},{"index":155,"seed":"BOIULSTTNIGMQTVQSHKQWDDSEJCCTPVMOGKWMSOEMGNABRCYCW9QCKONHESHQYGYTTXDSBKGNEXALFTKT","address":"RBM9GHKGUQRCUCQMHVXHPTNG9GUPATAVJAKMCXAMSDITXXWANADMDBHSYPWPOWFEAXTYTAHCJNGQNTQDX","optimalPurchaseTarget":-100,"optimalPurchaseTargetScore":-100,"availablePurchaseTargetList":[],"optimalSaleTarget":-100,"optimalSaleTargetScore":-100,"latitute":"52.070065","longitute":"-2.173258","amountDemanded":"2","pricePrefered":"14","distancePrefered":"14","energyTypePrefered":"3"},{"index":156,"seed":"ALYLXDBNKOFYACSJCSPAGTAOFMJKBUPHSISWWBQNJPHAOT9TNNCXWRDRWOAKWRUCYWWDKJDBTQJXBGTLL","address":"TIPNO9ASYSDZMUCERFORQFWUEIQKUNYLVPAFGAIPVJF9AESQWOHJFNO9LGLIHJRDHIGCKOWMAJJBYB9XD","optimalPurchaseTarget":-100,"optimalPurchaseTargetScore":-100,"availablePurchaseTargetList":[],"optimalSaleTarget":-100,"optimalSaleTargetScore":-100,"latitute":"51.693906","longitute":"-1.345818","amountDemanded":"2","pricePrefered":"14","distancePrefered":"10","energyTypePrefered":"3"},{"index":157,"seed":"OFB9TOTHEJGA9MQRER9KANOHE9WXTVDBHKHQHEMMQEPKVOJCGTUGADCXJBULXRBKQW9HPICUSGSMJXADX","address":"9VUGMYWMKMHVUISAYOWHLMKBMXTTUZPXKXZRQLDZFSO9OQAGCAIHXQYCQYASZWDSNURMVEXGFHXZJZESC","optimalPurchaseTarget":-100,"optimalPurchaseTargetScore":-100,"availablePurchaseTargetList":[],"optimalSaleTarget":-100,"optimalSaleTargetScore":-100,"latitute":"52.025885","longitute":"0.026267","amountDemanded":"3","pricePrefered":"14","distancePrefered":"13","energyTypePrefered":"2"},{"index":158,"seed":"HWPHXBNCFCHMGUS9NIEPDCLLMBDCEHXPMXAJEOGODGWCATXTCSBFJRRCWJITKUBRLUJBKHJTPQTINKMOR","address":"USVKFLDATCZUIWULGYRNZTHMOCOPXZTRQXXXFVDSBWSVZVNOWFLKDMYHXVXCYSGSLKQ9ZADVUOOUCTABB","optimalPurchaseTarget":-100,"optimalPurchaseTargetScore":-100,"availablePurchaseTargetList":[],"optimalSaleTarget":-100,"optimalSaleTargetScore":-100,"latitute":"51.554496","longitute":"-2.245863","amountDemanded":"4","pricePrefered":"15","distancePrefered":"12","energyTypePrefered":"2"},{"index":159,"seed":"Y9XSHFKXVCKEAPQYKWJELKVFTMVYRGKGAEHLSFJNDHNRBLNG9BEWJQCJP9VFERNLVBGEHQAOFFJLJIMFB","address":"VDO9KEP9NNGYPIKVIDDOSSROY9EIZWDGQTTFWVMZKFQTTXVENBRCYDGBG9LYENNERPNPOK9YAAWGCPJYD","optimalPurchaseTarget":-100,"optimalPurchaseTargetScore":-100,"availablePurchaseTargetList":[],"optimalSaleTarget":-100,"optimalSaleTargetScore":-100,"latitute":"51.492667","longitute":"-2.088298","amountDemanded":"2","pricePrefered":"14","distancePrefered":"12","energyTypePrefered":"1"},{"index":160,"seed":"LXCBWNU9SBYUPOGMQIUABVQVNSGOANJUJLOIOCSXMXRPERAGUVJXIWWYUOMRNDMHGVCR9IMFSKQDOVLJK","address":"PVUSATAZUCDLACYBROVJ9ARJWOPMWUSICZITKNOZCOZRCMTTJOQSPJCSJPSKXQZVBQHOCSAHRLLSACJLX","optimalPurchaseTarget":-100,"optimalPurchaseTargetScore":-100,"availablePurchaseTargetList":[],"optimalSaleTarget":-100,"optimalSaleTargetScore":-100,"latitute":"51.740490","longitute":"-0.204914","amountDemanded":"2","pricePrefered":"14","distancePrefered":"15","energyTypePrefered":"3"},{"index":161,"seed":"WPLTDOTBLVVRBEQKSBAOUVVAIGHVEETPDES9WXQSYECUDRHBSEGANTMVS9BKEHIVJEKTSTGYSVLX99KFM","address":"FJH99EIMTNDWBXOML9QMKDNOXXISN9OPGCGGH9AKMRBWVKDJNOSYQHDPNOACXJYHHBRZZS9FIPSOVPYOX","optimalPurchaseTarget":-100,"optimalPurchaseTargetScore":-100,"availablePurchaseTargetList":[],"optimalSaleTarget":-100,"optimalSaleTargetScore":-100,"latitute":"51.409851","longitute":"-1.170132","amountDemanded":"5","pricePrefered":"15","distancePrefered":"12","energyTypePrefered":"0"},{"index":162,"seed":"JFGWJFBVFJKEJNLRWSFFMIPCUBUNVOMHBUHVYBALVLNXLOXBKIRYEBRHUHOI9W9DXXM9YEOMTXPWQW9OV","address":"ZW9PWDOWBAJBWYBBAYXCQYXLI9YOPMVNUAYMUS9DI9PTAX9YSSTPDRTXNELGSWFOTUUHSWYASGIHOIFLW","optimalPurchaseTarget":-100,"optimalPurchaseTargetScore":-100,"availablePurchaseTargetList":[],"optimalSaleTarget":-100,"optimalSaleTargetScore":-100,"latitute":"51.575171","longitute":"0.051788","amountDemanded":"3","pricePrefered":"15","distancePrefered":"11","energyTypePrefered":"3"},{"index":163,"seed":"LUQHCFCQLYNTYLFVWYWJCFWEQCYSVLF9DBTBWMQNPDCECYBSDQXCB9MTHLMXBKMPSGMFDIXQYCPCVSCKW","address":"RUMMBVBCJQFHWJXRBMLEXBRNKKMP9CKZTLUHSPDLXZMKHW9VEORWHBLTNWLLUFUYSLVBAYHDDEFAVGXMZ","optimalPurchaseTarget":-100,"optimalPurchaseTargetScore":-100,"availablePurchaseTargetList":[],"optimalSaleTarget":-100,"optimalSaleTargetScore":-100,"latitute":"52.337140","longitute":"0.246861","amountDemanded":"3","pricePrefered":"16","distancePrefered":"12","energyTypePrefered":"3"},{"index":164,"seed":"MDNTQAUAXKGETMUQPGEXWCAOH9ETHAACLSILGAQKFXIVQTGKDNLRQIBRLA99LNFIIBLNKDPTJAMXDRVAA","address":"UAZSOGINLKXYIPK9SPQHDBSSFWNR9CJIRQ9VLEBLMIYVGMSSLBYAEOHISXCVQDPKVM9MHSBQQVZXN9URA","optimalPurchaseTarget":-100,"optimalPurchaseTargetScore":-100,"availablePurchaseTargetList":[],"optimalSaleTarget":-100,"optimalSaleTargetScore":-100,"latitute":"51.393469","longitute":"-1.993020","amountDemanded":"4","pricePrefered":"16","distancePrefered":"14","energyTypePrefered":"2"},{"index":165,"seed":"VITWFPKGVUXOOYTQTODWAKVSIHISFCBFUHQRJGDCKCEKQATC9LHQFAIMUXWHPRYPRIEUABXSCRFUNKSUK","address":"9EJTTJ9KBPELCJ9GUMTOIMBHVVMCCWFVYDRQSNXHQBMJMPBHOHXAJQVZCLOIC9ZMMJTRLZEEQDDSNOZS9","optimalPurchaseTarget":-100,"optimalPurchaseTargetScore":-100,"availablePurchaseTargetList":[],"optimalSaleTarget":-100,"optimalSaleTargetScore":-100,"latitute":"51.480010","longitute":"-1.254416","amountDemanded":"4","pricePrefered":"14","distancePrefered":"15","energyTypePrefered":"2"},{"index":166,"seed":"ELGYAWCOPP9RADF9PCUKVFHLKMCSDOURGFUMWLMIVAVFKYHRYIYIIASTFWHHRLCRMFUYCDVGVIQJWYU9Y","address":"EHDXYMFMSGDEUXNHGFNYYWSOVJZGJIHWWOEYFYNYTYZVBAIDTJGFCOVSYXV9HIR9APKUQSYMDOUFTEIIC","optimalPurchaseTarget":-100,"optimalPurchaseTargetScore":-100,"availablePurchaseTargetList":[],"optimalSaleTarget":-100,"optimalSaleTargetScore":-100,"latitute":"51.845777","longitute":"-1.566319","amountDemanded":"3","pricePrefered":"16","distancePrefered":"10","energyTypePrefered":"1"},{"index":167,"seed":"VSHRLUTAHOIWDLAITGMHWDPPRHPHNMLBCYUN9JQBUYSTRHUMEABHXAYXS9TKARARTYWVOMQGASDLGV9ID","address":"EGSLTRBOOHHBIZFO9JDHIYHHEIMXOKLJIUHVAIPGYGZJFDXGLYBECWMYLNCZUAHOHETN9HOPDGZFMTJJA","optimalPurchaseTarget":-100,"optimalPurchaseTargetScore":-100,"availablePurchaseTargetList":[],"optimalSaleTarget":-100,"optimalSaleTargetScore":-100,"latitute":"51.460550","longitute":"0.227223","amountDemanded":"2","pricePrefered":"16","distancePrefered":"14","energyTypePrefered":"3"},{"index":168,"seed":"KWJDEWJACAARFMOTSGRUG9TFVQKTDVN9XIGFFDYMNKUYBFKQVEBPGYCEG99SPMA9YXJFXFJYFANBFGULJ","address":"MQECJFPSLTYZDWELCGZLQUQGKAROSLUCIZ9LKHAQZHTNUZZVTUQYOTTBWXFQTSXJXHIGOVRB9OFXVELBW","optimalPurchaseTarget":-100,"optimalPurchaseTargetScore":-100,"availablePurchaseTargetList":[],"optimalSaleTarget":-100,"optimalSaleTargetScore":-100,"latitute":"51.500918","longitute":"-0.251507","amountDemanded":"4","pricePrefered":"15","distancePrefered":"12","energyTypePrefered":"4"},{"index":169,"seed":"WWQCYNB9GUPWLXMQSTILQDPRVVCBUIFAGTXNTSVJOJMM9UWVYYTYVFIAECOGFRU9EHDQWKCXYEUOASERA","address":"FMJWIPR9ZPNGXJCHB9IDZCSTYPGKVKSGRPVRMWTUMAJULKSEOCOODKJTATBKWXNNLSHWNVENFDAQKVRUZ","optimalPurchaseTarget":-100,"optimalPurchaseTargetScore":-100,"availablePurchaseTargetList":[],"optimalSaleTarget":-100,"optimalSaleTargetScore":-100,"latitute":"51.387777","longitute":"-1.106267","amountDemanded":"3","pricePrefered":"15","distancePrefered":"14","energyTypePrefered":"3"},{"index":170,"seed":"XPVBYSMGHIKGMHLPHGOMMFUUXYGMYCTKNNUF9RWGLEYDIKSEKSL9TNOBSPRYPQRXRIORJETTH9DAJXMDL","address":"USGIK9YAHNGOOEJQHXL9UIJCYXGSBHRUDWDXVVCEAJNBX9JMKHDIUTAOBZGHEMNVWCPMBNRJYQ9KBSGZD","optimalPurchaseTarget":-100,"optimalPurchaseTargetScore":-100,"availablePurchaseTargetList":[],"optimalSaleTarget":-100,"optimalSaleTargetScore":-100,"latitute":"51.904629","longitute":"-1.204491","amountDemanded":"3","pricePrefered":"16","distancePrefered":"13","energyTypePrefered":"3"},{"index":171,"seed":"RFNLQURVKCBWVPNPFYMFACBORENQTTWTLVXHMFMXXYSGSOVQXRQBFUMSKPRFSONGTOJXTATQXLLJUKLWP","address":"YUJTHPIFKEUFHZUAHAFFEBFMUGRSY9RRSXUWBQZMSRNBZLBOSEAQKZYQNULGOOLBMYGKBTZVVLTNSHEFA","optimalPurchaseTarget":-100,"optimalPurchaseTargetScore":-100,"availablePurchaseTargetList":[],"optimalSaleTarget":-100,"optimalSaleTargetScore":-100,"latitute":"52.197034","longitute":"-0.802964","amountDemanded":"5","pricePrefered":"16","distancePrefered":"11","energyTypePrefered":"4"},{"index":172,"seed":"YMGWEGJXDNXPKMUFCVOHRAIXGAEBJNWC9HG9WLTBSGXBQBTINWUNWUWFVLOPPNBIDUQKKHERCITDBGEIU","address":"AKQANTZAIRDBCPXFGNRLGHKVHFWCICECZHANVTSDGMODABOSTCSTTOG9UDRIODZIOBAYGBMKWGBJB9KBY","optimalPurchaseTarget":-100,"optimalPurchaseTargetScore":-100,"availablePurchaseTargetList":[],"optimalSaleTarget":-100,"optimalSaleTargetScore":-100,"latitute":"51.765718","longitute":"-1.597112","amountDemanded":"3","pricePrefered":"15","distancePrefered":"10","energyTypePrefered":"0"},{"index":173,"seed":"VIJFDGTOXVEIFURVMPIAIRTLONILKA9KV9VAAFUYTWMEPSXFQKVOJMCFGCGQMFDCOUQSWNCRDYCIGFAHJ","address":"DVGJXTUOJV9IAWNYENZGWSOTMDNTNOVAQ9HSYWMONVVJHQLAZVXKA9RACZSY9TCRROUMCXCAYRHKFHWAY","optimalPurchaseTarget":-100,"optimalPurchaseTargetScore":-100,"availablePurchaseTargetList":[],"optimalSaleTarget":-100,"optimalSaleTargetScore":-100,"latitute":"51.493451","longitute":"-0.779497","amountDemanded":"1","pricePrefered":"14","distancePrefered":"14","energyTypePrefered":"1"},{"index":174,"seed":"XSVDIVYES9CWYSPSXBAUYY99IPTHYWSUGXINGMUNKDTAVFSLFLGMYQXNUHQXRVWYYKOMTFYMYAQSPILHV","address":"PNHOSQ9PIKXGTFANBRQSOYYYMUAOHCW9IACFJIXGMIOHPYHQUWQUUXWNDUCKN9WVLABICGDVGTZZHB9TY","optimalPurchaseTarget":-100,"optimalPurchaseTargetScore":-100,"availablePurchaseTargetList":[],"optimalSaleTarget":-100,"optimalSaleTargetScore":-100,"latitute":"50.970533","longitute":"-0.300724","amountDemanded":"4","pricePrefered":"15","distancePrefered":"12","energyTypePrefered":"1"},{"index":175,"seed":"KAQVBNCFFQLBMVHWWEYANFGGFTNVFYYKVX9JDWYPLNMINQRCAD9MSMSRXIBDKGKDMPJPL9SUMHOQBKBJI","address":"BJVF9HPZDRGRPXNBFM9YIVZZK9WZHGCS9WVIKPRCLOKOAAHHNSBEWBJCTI9VIUG9YMAVCPDYSWIWOXNMW","optimalPurchaseTarget":-100,"optimalPurchaseTargetScore":-100,"availablePurchaseTargetList":[],"optimalSaleTarget":-100,"optimalSaleTargetScore":-100,"latitute":"51.033633","longitute":"-1.573621","amountDemanded":"4","pricePrefered":"16","distancePrefered":"13","energyTypePrefered":"3"},{"index":176,"seed":"BOMDMRYDYBQBBWGQKBQODOEADWDQHJEXSRNPQAOLVENAWL9LOPSJKIIA9KNYFLWRTXJEAPWDPOQLNSETK","address":"TQWDNIRSVDHNAPXSHICDT99WQHUTNSFIUAKOUUTINWSQMLMASOSUVUQBXIHF9QCYRCLPERISQGEBTBKNX","optimalPurchaseTarget":-100,"optimalPurchaseTargetScore":-100,"availablePurchaseTargetList":[],"optimalSaleTarget":-100,"optimalSaleTargetScore":-100,"latitute":"51.809538","longitute":"-0.439662","amountDemanded":"1","pricePrefered":"15","distancePrefered":"15","energyTypePrefered":"1"},{"index":177,"seed":"XGXOCS9AD9QXWLLEFOATJFQMVXSA9VJMVC9SPGYEEDNUHCHVBMHENBHPRHFUVPXFJQPRPFRIMRTBAHQYB","address":"XJKZPPLLPORKWWB9OIRHMRTXWVBOLU9KJ9BEVGPCVLFISFSQNKONZZXJLUFIIIDHDOZWIAGVTZURQIVZD","optimalPurchaseTarget":-100,"optimalPurchaseTargetScore":-100,"availablePurchaseTargetList":[],"optimalSaleTarget":-100,"optimalSaleTargetScore":-100,"latitute":"51.428494","longitute":"-1.199360","amountDemanded":"5","pricePrefered":"16","distancePrefered":"14","energyTypePrefered":"3"},{"index":178,"seed":"FDXJDXQMIAEKXQSAUJVLUQNNSORRABQMNWIJSVFKYCTOSBPOAFTGGUBDJPXMXVCMLPWGDPQSAHXLNTSAQ","address":"ZDS9BTJUJLGGQMMSMLWLHPOBO9TVVIXKVCBXGVQNZFJM9KW9CMNJINNHSGHLZWBIPOHNZHRQHVKKNSTVA","optimalPurchaseTarget":-100,"optimalPurchaseTargetScore":-100,"availablePurchaseTargetList":[],"optimalSaleTarget":-100,"optimalSaleTargetScore":-100,"latitute":"52.273092","longitute":"-0.658484","amountDemanded":"2","pricePrefered":"15","distancePrefered":"14","energyTypePrefered":"4"},{"index":179,"seed":"WLIKKNKMNOQQEVTFVAVOMNLRJATFTHVVEKT9SFUUEUCJU9EKYHA9KEOE9XYAKAJWNFKEFWWHITPVSTPPS","address":"HDBSVZQUJBEKNSXANFLSOWMCXDMQEDAV9CVOLLZIBWGSYGUOBFXZSIJDNQPVMXELJKBSYN99QCLIEPIID","optimalPurchaseTarget":-100,"optimalPurchaseTargetScore":-100,"availablePurchaseTargetList":[],"optimalSaleTarget":-100,"optimalSaleTargetScore":-100,"latitute":"52.154223","longitute":"-0.902019","amountDemanded":"3","pricePrefered":"15","distancePrefered":"14","energyTypePrefered":"2"},{"index":180,"seed":"INHQQSSWNOHRB9NHHSSVPKUHNCVVIAYKGMESMVBOKTADNRLBV9QEWQHUALFW9VVXQVDUUKKNCDJUXCXVK","address":"HEZYRVBVGXZCVPTO9OWAGOXTXMHQSQPROZAQKUVVTOOTEYOGVUEJFIVPTMSIAEGSOGIUEGMMIAREVSLPB","optimalPurchaseTarget":-100,"optimalPurchaseTargetScore":-100,"availablePurchaseTargetList":[],"optimalSaleTarget":-100,"optimalSaleTargetScore":-100,"latitute":"52.181026","longitute":"-1.696120","amountDemanded":"5","pricePrefered":"15","distancePrefered":"11","energyTypePrefered":"4"},{"index":181,"seed":"VDLRVWB99QJNKQCVVEEF9DJSAKOSNGBDV9CBKNYNBDXPRSSLQVCTJQJDPSVNOIKADA9OMYKXCGJSLCEJK","address":"WMFJMVTR9EYMWTDW9FMGZDWHESYJO9RRNGCX9FLFHZJSFSS9G9HQPZDKLMO9ZXRNGJSUQCCDYFPLNIBWC","optimalPurchaseTarget":-100,"optimalPurchaseTargetScore":-100,"availablePurchaseTargetList":[],"optimalSaleTarget":-100,"optimalSaleTargetScore":-100,"latitute":"52.220075","longitute":"0.170489","amountDemanded":"3","pricePrefered":"15","distancePrefered":"13","energyTypePrefered":"3"},{"index":182,"seed":"XKXCSPBBVHOMVPITSEGKQHAUPTQRFYNGIJEYONPVIMHYTMYXDSOUFJSIPBAOKCM9LHMEU9GMWQYBSXRTH","address":"AVRAMFYZCQOQDGMDPLRGEDZVKAF9YLKJSYIHQNKGIL9HWUUWWSB9RMMVFMMJDXH9DKP9MZUUBFSYFJZJD","optimalPurchaseTarget":-100,"optimalPurchaseTargetScore":-100,"availablePurchaseTargetList":[],"optimalSaleTarget":-100,"optimalSaleTargetScore":-100,"latitute":"51.289970","longitute":"-1.895525","amountDemanded":"4","pricePrefered":"15","distancePrefered":"12","energyTypePrefered":"2"},{"index":183,"seed":"ENXGAUJLLFBMOMPBYDMPCKOSYGQGALXSCNIM9VKMFJCCASOSW9SGATKULPUELTHHTAVKXUQKFKTYPMKEI","address":"TIYZTZREPCFINKQYREAFFBNPQPTDOMWXAKLDS9PUPLQMXGMWYGAWRLDMWU9NBFUWYUDLGKAYLHA9FZEPY","optimalPurchaseTarget":-100,"optimalPurchaseTargetScore":-100,"availablePurchaseTargetList":[],"optimalSaleTarget":-100,"optimalSaleTargetScore":-100,"latitute":"51.836244","longitute":"0.235017","amountDemanded":"5","pricePrefered":"15","distancePrefered":"12","energyTypePrefered":"4"},{"index":184,"seed":"QHHYWKGRQWBEIKLXNWFNRP9CKLCACWTOHXPHUDARMVOHJFSPBKGRKQV9OBSQGKPTKFWLUMBXFSNCWRLKE","address":"MQJJLXGUH9VOYLPXWSIGUJFORIDEXAGE9LYRTUFEVIOHMJO9OUBNL9GVJRIFAFGMZMBPT9TUTSVFUUYRX","optimalPurchaseTarget":-100,"optimalPurchaseTargetScore":-100,"availablePurchaseTargetList":[],"optimalSaleTarget":-100,"optimalSaleTargetScore":-100,"latitute":"51.357230","longitute":"0.131612","amountDemanded":"5","pricePrefered":"15","distancePrefered":"14","energyTypePrefered":"2"},{"index":185,"seed":"HWTMXSHHYE9LFDNMHVCFPRENCLOIT9FTIVMBDRF9FNBB9RFGQSYOJC9FCDVWQWSQPPLOHCGBJSQAEQJIA","address":"EEYUIIVXLVBKTGAVHDVDDWI9GINJVSKNSKRXWYGXMVAAZLUQPVJOEDQIOJWZBSLDWNYUB9GH9WV9WCKY9","optimalPurchaseTarget":-100,"optimalPurchaseTargetScore":-100,"availablePurchaseTargetList":[],"optimalSaleTarget":-100,"optimalSaleTargetScore":-100,"latitute":"51.006401","longitute":"-0.428854","amountDemanded":"3","pricePrefered":"14","distancePrefered":"12","energyTypePrefered":"1"},{"index":186,"seed":"PVLNC9GNOYQJMSHNGORIJWMLIOK9QWHBAYTUQ9YLQHJIDIKTBYWTJPMXUIOKOSCQHPTTHKHSKRQFJUPKM","address":"DENTHFDTWOHQVQUCJSJLJQKPCKDOKHTXNWYCUAYTSPLQLDLWGIXLHNQFCMDOONLTUUHKIHEXCBWZCRBTB","optimalPurchaseTarget":-100,"optimalPurchaseTargetScore":-100,"availablePurchaseTargetList":[],"optimalSaleTarget":-100,"optimalSaleTargetScore":-100,"latitute":"52.301451","longitute":"-1.325885","amountDemanded":"4","pricePrefered":"15","distancePrefered":"14","energyTypePrefered":"1"},{"index":187,"seed":"LTJBSXCMRAPOVWPHRAQPFWXSQDU9NMTCIOAQHPNPYEDALQHDALTDW9WLIOBIPOQGYMRNGLABHPHPPQYOU","address":"PEDODXBBNCVIRRTGRNA9GXEVLTWFDXLDJZQHQKZEPOYYPEXWKHHTPGHIJZCBVOCMLZRAFOAUZHZWURNQX","optimalPurchaseTarget":-100,"optimalPurchaseTargetScore":-100,"availablePurchaseTargetList":[],"optimalSaleTarget":-100,"optimalSaleTargetScore":-100,"latitute":"52.140341","longitute":"-0.041223","amountDemanded":"2","pricePrefered":"15","distancePrefered":"14","energyTypePrefered":"2"},{"index":188,"seed":"HLCKGAHOPSLSBVSG9RTKGUNV9GRHHJBIFYJTICYYBPJVVHADMDGXHV9XYDOPCHLQDIISHKLGKSIURWC9W","address":"WFDXWWNAVAPVS9FQGLHJBLE9HEXNVRYUZPVMWRUHXRMCLMGUKDB9PROJCIYQPVTRYBRWIGV9UKTQM9QXC","optimalPurchaseTarget":-100,"optimalPurchaseTargetScore":-100,"availablePurchaseTargetList":[],"optimalSaleTarget":-100,"optimalSaleTargetScore":-100,"latitute":"51.882987","longitute":"-1.079443","amountDemanded":"3","pricePrefered":"15","distancePrefered":"14","energyTypePrefered":"0"},{"index":189,"seed":"ITFMGI9VBUBQTKNXAPHYNDDXTFUNLUQQ9HVYYUPEWYAF9MFLSGHIBAHWVRDIOEPTGCOFJHYTKDWPRWSEE","address":"ERJCBQDVHPMOVHX9OXFMZENWLOHVWVYOQAWHAHWQLNMRLCSXTMNZEHQNO9PCOEAAUGCHEVKMQINCJNZ9D","optimalPurchaseTarget":-100,"optimalPurchaseTargetScore":-100,"availablePurchaseTargetList":[],"optimalSaleTarget":-100,"optimalSaleTargetScore":-100,"latitute":"51.591057","longitute":"-0.600509","amountDemanded":"4","pricePrefered":"15","distancePrefered":"14","energyTypePrefered":"4"},{"index":190,"seed":"FVJRKWN9XYGCUHMY9JKT9HSCDDMU9HSRJOOXAMQSPQKTSSHQYVTYHJJUDFDTPSJDGWKSHNSVL99QHQVYC","address":"EFYDQMMOV9UAPQEOCNPROYESAQZBYWKDQGVYSHKCJLAVGATQYCGMFSOFJAGOKVCMVNWQGQMP9NFC9NPCC","optimalPurchaseTarget":-100,"optimalPurchaseTargetScore":-100,"availablePurchaseTargetList":[],"optimalSaleTarget":-100,"optimalSaleTargetScore":-100,"latitute":"52.077261","longitute":"-0.454358","amountDemanded":"1","pricePrefered":"15","distancePrefered":"13","energyTypePrefered":"2"},{"index":191,"seed":"JAUMBNQQAKFGFLKKF9SFJVQPQADPRGJVCDJINBRVBFYXJBKCYSFOPUTIAOYHBUHVD9U9M9AUYRYOJRRSA","address":"LKHYZCUFQLZCXMHXWEQANJAMEGFXJUNLHFEMQFTUDHNNQGLIYZWHZRTHHYUW9HQKQLTQCJZFVXSVJKIBX","optimalPurchaseTarget":-100,"optimalPurchaseTargetScore":-100,"availablePurchaseTargetList":[],"optimalSaleTarget":-100,"optimalSaleTargetScore":-100,"latitute":"52.038971","longitute":"-0.893734","amountDemanded":"5","pricePrefered":"15","distancePrefered":"12","energyTypePrefered":"4"},{"index":192,"seed":"WBLURXWIFFXVXSMIULTPWPAUFBC9NBAXYKODSQ9LF9HETKXHNUMDYSTLRF9QJPGULEBLFXYFDTM9WGCEM","address":"OLWMPCSCZRGUKTVIFFNOOJIBSPGAVFPISYWDIFOAMEDWEHFGAZLDVDDJVZUCRNWMJ9TJLOBZXCHXAQPLD","optimalPurchaseTarget":-100,"optimalPurchaseTargetScore":-100,"availablePurchaseTargetList":[],"optimalSaleTarget":-100,"optimalSaleTargetScore":-100,"latitute":"51.468189","longitute":"0.091123","amountDemanded":"1","pricePrefered":"14","distancePrefered":"13","energyTypePrefered":"2"},{"index":193,"seed":"HHNFVYAQDFSPWXNVIFPKPHNPEO9HBIRHQVBLR9MLEIPEQFXETAVUUKJVOHUOIE9AWJYBHGUFAPHCTCCMQ","address":"KFECTXFRHKYUNTXWDLGNUEGKTHQIFOAERRSUJLRUUXDBJOJANNEVHIMTPXZSBMMZOIOIXHMKWVOHMOHXX","optimalPurchaseTarget":-100,"optimalPurchaseTargetScore":-100,"availablePurchaseTargetList":[],"optimalSaleTarget":-100,"optimalSaleTargetScore":-100,"latitute":"52.375854","longitute":"-1.736202","amountDemanded":"2","pricePrefered":"15","distancePrefered":"12","energyTypePrefered":"3"},{"index":194,"seed":"G9AB9NAWFAQBRAJPJEMBGITPRVEAOMADSYKAWWPEFJOMVKLYMHJLLTPJLAIEVXGMJ9CBDUNQXFOSTTOCL","address":"VXIGDJZGZTTMAF9TLMZLQILBY9TQFDAINHSUHUPPCNJ9DVZMNPQQISUZFUSIQLHGSQ9FQWQUZMBDTCLZZ","optimalPurchaseTarget":-100,"optimalPurchaseTargetScore":-100,"availablePurchaseTargetList":[],"optimalSaleTarget":-100,"optimalSaleTargetScore":-100,"latitute":"51.045899","longitute":"-1.112857","amountDemanded":"3","pricePrefered":"16","distancePrefered":"12","energyTypePrefered":"3"},{"index":195,"seed":"MWSAFKMQUKOFLOQUHXPRXRMDIREURTLFPCWKTMXOC9AOH9BHTUPXPCOCSJYVURUHYMMHVUYFHPPTFFQKN","address":"KXVGXLMISHHEPMAMBHIKSNLRCXQOTHPFAASMT9RNAGXMKZPRGJFWWHTACUFUAXGHOXMSQAV9KAKTUGDOA","optimalPurchaseTarget":-100,"optimalPurchaseTargetScore":-100,"availablePurchaseTargetList":[],"optimalSaleTarget":-100,"optimalSaleTargetScore":-100,"latitute":"52.353602","longitute":"-2.220277","amountDemanded":"6","pricePrefered":"14","distancePrefered":"13","energyTypePrefered":"0"},{"index":196,"seed":"QLUAEGAXBNVPDTJEMIYVYOIGMXSFYRMWAHXCVKWFCNPRBQ9CBXOKEOORQYIYWRWQLWQEDBTFOTHRN9MGX","address":"WHSCCQNARSY9TZBZCDQXKFNJQW9HGNLSLVRHRMTPYMPQNROPRENUVPOPICSQWKEXBRRFKPPSDRT9NCPTC","optimalPurchaseTarget":-100,"optimalPurchaseTargetScore":-100,"availablePurchaseTargetList":[],"optimalSaleTarget":-100,"optimalSaleTargetScore":-100,"latitute":"51.012697","longitute":"-0.885770","amountDemanded":"2","pricePrefered":"15","distancePrefered":"14","energyTypePrefered":"0"},{"index":197,"seed":"YAJWRA9MKQCWFMMRAPRGGCDSXPMBYXVTYHQ9ORSGBSAMNLCACLAWGAYOKGOIIFCNPGUFRLFYFDFOAD9JB","address":"UQIROM9HIXKHAGBCFOPHUQUXXCUGVOLS9RETLRYKGFSXKWWPSUWSZZFKESOULUEPT9IZFLJRWUEWHSAUW","optimalPurchaseTarget":-100,"optimalPurchaseTargetScore":-100,"availablePurchaseTargetList":[],"optimalSaleTarget":-100,"optimalSaleTargetScore":-100,"latitute":"51.671037","longitute":"-1.197875","amountDemanded":"1","pricePrefered":"15","distancePrefered":"11","energyTypePrefered":"4"},{"index":198,"seed":"NBEBQPMJDKMC9GNQ9GAQCCSOAESOWPGPCUUCSLRMQTDOJSQFAP9SBYXJUJKOPBCTAPJGUCHKUFLYKPAQK","address":"YGVWBRTZWWNJWWVFBRGPGISQRKIWDYTHOPPXWW9TPMSQPOLG9BKCCAVFT9LEQSN9WERDVLN9CNMGCJ9K9","optimalPurchaseTarget":-100,"optimalPurchaseTargetScore":-100,"availablePurchaseTargetList":[],"optimalSaleTarget":-100,"optimalSaleTargetScore":-100,"latitute":"51.271464","longitute":"-1.831437","amountDemanded":"5","pricePrefered":"14","distancePrefered":"13","energyTypePrefered":"1"},{"index":199,"seed":"SGVXFHR9D9SHGOCCNUPBRFDANILQXDILIJQPNESKSJBPEHFMDHBWHTCRMYJRMKCGDXTXAUWDNFPIFLRLC","address":"WBDVQUMLXCHKXMGQEDGQCUBPUVQMQGLPLNRVBVLGDXNGVHDMHFDGNGJZXTWU9JJEGWZHYZMBTDEUOISFC","optimalPurchaseTarget":-100,"optimalPurchaseTargetScore":-100,"availablePurchaseTargetList":[],"optimalSaleTarget":-100,"optimalSaleTargetScore":-100,"latitute":"51.581540","longitute":"-1.757790","amountDemanded":"5","pricePrefered":"15","distancePrefered":"12","energyTypePrefered":"2"},{"index":200,"seed":"HABBWIBUNCTBOULPTVTHPJDQYXREAW9OAHNJRRTODKPARCPTNHKVCCDCHUVMBHSXOUTRK9JWPCISXQACU","address":"Q9KPMGYQVKRRBMMKJ9XXWUCTPKYAQUBUT9ZUEXQQNBXUONYPCOSYNDHPXRNTT9WH99RSZKNPZPI9SASTA","optimalPurchaseTarget":-100,"optimalPurchaseTargetScore":-100,"availablePurchaseTargetList":[],"optimalSaleTarget":-100,"optimalSaleTargetScore":-100,"latitute":"51.156680","longitute":"-1.061362","amountDemanded":"5","pricePrefered":"15","distancePrefered":"14","energyTypePrefered":"1"},{"index":201,"seed":"FPFYIEDDNMLXAHMFAFOCAICFQAASV9JVIAMYSXTAHPUJYAKTWINOPRHUD9YUDJUWLXFWYMOUONRX9JJXH","address":"HCFAUVMPWPQAAY9IGIYKUNPZPXJKNRBCXKMVZJAONKCLBMGIRV9ARMOJTTMGIXCEIJYW9NQJDYBLFVBJZ","optimalPurchaseTarget":-100,"optimalPurchaseTargetScore":-100,"availablePurchaseTargetList":[],"optimalSaleTarget":-100,"optimalSaleTargetScore":-100,"latitute":"51.141880","longitute":"-1.347600","amountDemanded":"3","pricePrefered":"15","distancePrefered":"10","energyTypePrefered":"4"},{"index":202,"seed":"GUTSWUWIPXEFIEGCCGTDEFR9INVEUSLOCXJPYYHRWONOYXCJFJNJGBKFTBKEGGBJBIMODS9YBUVKNCPVG","address":"CPYRWSWHSYKJSGOLTQRGOOKAQDUFOZHOOKZ9EZMJQEVC9CAMYQSHLVOEFEHVQYWSOKEYHVWWDWBGVGAJW","optimalPurchaseTarget":-100,"optimalPurchaseTargetScore":-100,"availablePurchaseTargetList":[],"optimalSaleTarget":-100,"optimalSaleTargetScore":-100,"latitute":"51.897860","longitute":"0.023578","amountDemanded":"5","pricePrefered":"16","distancePrefered":"10","energyTypePrefered":"4"},{"index":203,"seed":"YVIAMLNNUXJPVK9IBRYHG9JVD9ENIGTTRFCIRHJATCQWXEKYVYECBRDOOBHMJJXGFHVSDUTLCAHNAOWPN","address":"XRPMNAJXUSCEVRQYOPQAVYHOVBRBAVYWRPGGLCYRPNHXPGNJAKALASBINURDS9QSXDJKWVIXDJVYGOHZC","optimalPurchaseTarget":-100,"optimalPurchaseTargetScore":-100,"availablePurchaseTargetList":[],"optimalSaleTarget":-100,"optimalSaleTargetScore":-100,"latitute":"51.439055","longitute":"-0.547205","amountDemanded":"4","pricePrefered":"15","distancePrefered":"15","energyTypePrefered":"1"},{"index":204,"seed":"JDBBGYVLBYNDGVBTMSVGKCOPGJLSUMDFCE9YKBJWLDPQTXDDVKVDA9HD9QNXMDRX9U9KHCSELVJSVEJUU","address":"DYDXDUEDTGATFWERCDF9WDQPKNCDHAKDZIQXCNRIFMHFWCLJXIIMLEUFOCPQQM9SJMTMNZRZNIQVXVLAY","optimalPurchaseTarget":-100,"optimalPurchaseTargetScore":-100,"availablePurchaseTargetList":[],"optimalSaleTarget":-100,"optimalSaleTargetScore":-100,"latitute":"51.803765","longitute":"-1.584781","amountDemanded":"2","pricePrefered":"15","distancePrefered":"11","energyTypePrefered":"1"},